nome_estacao,codigo,municipio,estacao,latitude,longitude,regiao,rpga,01_08_13,02_08_13,03_08_13,04_08_13,05_08_13,06_08_13,07_08_13,08_08_13,09_08_13,10_08_13,11_08_13,12_08_13,13_08_13,14_08_13,15_08_13,16_08_13,17_08_13,18_08_13,19_08_13,20_08_13,21_08_13,22_08_13,23_08_13,24_08_13,25_08_13,26_08_13,27_08_13,28_08_13,29_08_13,30_08_13,31_08_13,total
Boa Vista do Tupim,EBDA,Boa Vista do Tupim,Boa Vista do Tupim - EBDA,-12.651332,-40.60111,Chapada Diamantina,RPGA do Rio Paraguaçu,0.0,0.0,0.0,0.0,0.0,0.0,0.0,0.0,0.0,0.0,0.0,0.0,0.0,0.0,0.0,0.0,0.0,0.0,0.0,0.0,0.0,0.0,0.0,0.0,0.0,0.0,0.0,0.0,0.0,0.0,0.0,0.0
Iaçu,EBDA,Iaçu,Iaçu - EBDA,-12.768002,-40.217768,Chapada Diamantina,RPGA do Rio Paraguaçu,0.0,0.0,0.0,0.0,2.0,6.0,0.0,0.0,0.0,0.0,0.0,0.0,0.0,0.0,0.0,0.0,0.0,0.0,0.0,0.0,0.0,0.0,0.0,0.0,0.0,0.0,0.0,0.0,8.8,0.0,0.0,16.8
Itaberaba,EBDA,Itaberaba,Itaberaba - EBDA,-12.534663,-40.301101,Chapada Diamantina,RPGA do Rio Paraguaçu,0.0,0.0,6.0,0.0,0.0,4.0,0.0,0.0,0.0,0.0,0.0,0.0,0.0,0.0,0.0,0.0,0.0,0.0,0.0,0.0,0.0,0.0,0.0,0.0,9.7,0.0,0.0,0.0,0.0,0.0,0.0,19.7
Itaetê,EBDA,Itaetê,Itaetê - EBDA,-12.984669,-40.984455,Chapada Diamantina,RPGA do Rio Paraguaçu,0.0,0.0,0.0,0.0,0.0,0.0,0.0,0.0,0.0,0.0,0.0,0.0,0.0,0.0,0.0,0.0,0.0,0.0,0.0,0.0,0.0,0.0,0.0,0.0,0.0,0.0,0.0,0.0,0.0,0.0,0.0,0.0
Marcionílio Souza,EBDA,Marcionílio Souza,Marcionílio Souza - EBDA,-13.001338,-40.534443,Chapada Diamantina,RPGA do Rio Paraguaçu,0.0,0.0,0.0,0.0,0.0,0.0,0.0,0.0,0.0,0.0,0.0,0.0,0.0,0.0,0.0,0.0,0.0,0.0,0.0,0.0,0.0,0.0,0.0,0.0,0.0,0.0,0.0,0.0,0.0,0.0,0.0,0.0
Ruy Barbosa,EBDA,Ruy Barbosa,Ruy Barbosa - EBDA,-12.284657,-40.501107,Chapada Diamantina,RPGA do Rio Paraguaçu,0.0,0.0,0.0,0.0,0.0,0.0,0.0,0.0,0.0,0.0,0.0,0.0,0.0,0.0,0.0,0.0,0.0,0.0,0.0,0.0,0.0,0.0,0.0,0.0,0.0,0.0,0.0,0.0,0.0,0.0,0.0,0.0
Utinga,EBDA,Utinga,Utinga - EBDA,-12.08465,-41.101122,Chapada Diamantina,RPGA do Rio Paraguaçu,0.0,0.0,0.0,0.0,0.0,0.0,0.0,0.0,0.0,0.0,0.0,0.0,0.0,0.0,0.0,0.0,0.0,0.0,0.0,0.0,0.0,0.0,0.0,0.0,0.0,0.0,0.0,0.0,0.0,0.0,0.0,0.0
Itaberaba,A408,Itaberaba,Itaberaba - A408,-12.524062,-40.299714,Chapada Diamantina,RPGA do Rio Paraguaçu,0.0,0.0,0.6,5.2,0.0,1.4,1.6,1.0,0.6,0.8,0.0,0.0,0.6,1.6,0.0,0.0,0.0,0.2,0.0,0.2,5.4,0.0,2.0,0.4,1.0,4.6,0.2,0.0,0.0,2.2,2.0,31.6
Macajuba,A412,Macajuba,Macajuba - A412,-12.131694,-40.354222,Chapada Diamantina,RPGA do Rio Paraguaçu,0.0,0.0,0.2,0.8,0.0,0.8,7.2,1.6,0.2,3.2,0.2,0.0,1.0,5.6,0.0,0.0,0.0,0.0,0.0,0.4,2.4,0.0,1.4,0.6,0.4,3.4,0.2,0.0,0.0,0.2,3.0,32.8
Barra do Mendes,EBDA,Barra do Mendes,Barra do Mendes - EBDA,-11.817975,-42.06781,Chapada Diamantina,RPGA dos Rios Verde e Jacaré,0.0,0.0,0.0,0.0,0.0,0.0,0.0,0.0,0.0,0.0,0.0,0.0,0.0,0.0,0.0,0.0,0.0,0.0,0.0,0.0,0.0,0.0,0.0,0.0,0.0,0.0,0.0,0.0,0.0,0.0,0.0,0.0
Cafarnaum,EBDA,Cafarnaum,Cafarnaum - EBDA,-11.684641,-41.484462,Chapada Diamantina,RPGA dos Rios Verde e Jacaré,0.0,0.0,0.0,0.0,0.0,0.0,0.0,0.0,0.0,0.0,0.0,0.0,0.0,0.0,0.0,0.0,0.0,0.0,0.0,0.0,0.0,0.0,0.0,0.0,0.0,0.0,0.0,0.0,0.0,0.0,0.0,0.0
Canarana,EBDA,Canarana,Canarana - EBDA,-11.684641,-41.751137,Chapada Diamantina,RPGA dos Rios Verde e Jacaré,0.0,0.0,0.0,0.0,0.0,0.0,0.0,0.0,0.0,0.0,0.0,0.0,0.0,0.0,0.0,0.0,0.0,0.0,0.0,0.0,0.0,0.0,0.0,0.0,0.0,0.0,0.0,0.0,0.0,0.0,0.0,0.0
Andaraí,EBDA,Andaraí,Andaraí - EBDA,-12.801332,-41.317795,Chapada Diamantina,RPGA do Rio Paraguaçu,0.0,0.0,0.0,0.0,0.0,0.0,0.0,0.0,0.0,0.0,0.0,0.0,0.0,0.0,0.0,0.0,0.0,0.0,0.0,0.0,0.0,0.0,0.0,0.0,0.0,0.0,0.0,0.0,0.0,0.0,0.0,0.0
Iraquara,EBDA,Iraquara,Iraquara - EBDA,-12.234651,-41.617801,Chapada Diamantina,RPGA do Rio Paraguaçu,0.0,0.0,0.0,0.0,0.0,0.0,0.0,0.0,0.0,0.0,0.0,0.0,0.0,0.0,0.0,0.0,0.0,0.0,0.0,0.0,0.0,0.0,0.0,0.0,0.0,0.0,0.0,0.0,0.0,0.0,0.0,0.0
Mucugê,EBDA,Mucugê,Mucugê - EBDA,-13.001335,-41.367798,Chapada Diamantina,RPGA do Rio Paraguaçu,0.0,0.0,0.0,0.0,0.0,0.0,0.0,0.0,0.0,0.0,0.0,0.0,0.0,0.0,0.0,0.0,0.0,0.0,0.0,0.0,0.0,0.0,0.0,0.0,0.0,0.0,0.0,0.0,0.0,0.0,0.0,0.0
Piatã,EBDA,Piatã,Piatã - EBDA,-13.201338,-41.751143,Chapada Diamantina,RPGA do Rio de Contas,0.0,0.0,0.0,0.0,0.0,0.0,0.0,0.0,0.0,0.0,0.0,0.0,0.0,0.0,0.0,0.0,0.0,0.0,0.0,0.0,0.0,0.0,0.0,0.0,0.0,0.0,0.0,0.0,0.0,0.0,0.0,0.0
Seabra,EBDA,Seabra,Seabra - EBDA,-12.417987,-41.767806,Chapada Diamantina,RPGA do Rio Paraguaçu,0.0,0.0,0.0,0.0,0.0,0.0,0.0,0.0,0.0,0.0,0.0,0.0,0.0,0.0,0.0,0.0,0.0,0.0,0.0,0.0,0.0,0.0,0.0,0.0,0.0,0.0,0.0,0.0,0.0,4.0,0.0,4.0
Livramento do Brumado,EBDA,Livramento do Brumado,Livramento do Brumado - EBDA,-13.651344,-41.834479,Chapada Diamantina,RPGA do Rio de Contas,0.0,0.0,0.0,0.0,0.0,0.0,0.0,0.0,0.0,0.0,0.0,0.0,0.0,0.0,0.0,0.0,0.0,0.0,0.0,0.0,0.0,0.0,0.0,0.0,0.0,0.0,0.0,0.0,0.0,0.0,0.0,0.0
Itaberaba,83244,Itaberaba,Itaberaba - 83244,-12.516667,-40.283333,Chapada Diamantina,RPGA do Rio Paraguaçu,0.0,0.0,0.3,4.6,0.0,1.8,1.0,0.5,0.5,0.3,0.0,0.0,0.4,1.0,0.0,0.0,0.0,0.1,0.0,0.0,0.3,5.0,0.0,0.5,0.8,4.7,0.2,0.0,0.0,2.2,1.6,25.8
Lençóis,83242,Lençóis,Lençóis - 83242,-12.5575,-41.388889,Chapada Diamantina,RPGA do Rio Paraguaçu,0.0,0.0,0.0,0.5,0.6,0.0,17.6,0.0,0.9,0.3,0.0,0.0,0.0,0.2,0.0,0.0,0.0,0.3,0.3,0.0,34.5,0.5,0.0,0.0,3.8,0.5,0.0,0.0,0.0,5.4,1.8,67.2
Morro do Chapéu,83184,Morro do Chapéu,Morro do Chapéu - 83184,-11.216667,-41.216667,Chapada Diamantina,RPGA do Rio Salitre,0.0,0.0,0.2,2.6,0.0,0.0,5.0,2.1,0.6,1.8,2.4,0.0,0.4,1.0,0.0,0.0,0.4,0.0,0.0,0.2,0.2,0.2,0.0,0.0,0.0,0.0,0.0,0.0,0.0,0.6,1.8,19.5
Piatã,A430,Piatã,Piatã - A430,-13.155681,-41.774125,Chapada Diamantina,RPGA do Rio de Contas,0.0,0.0,0.0,0.2,0.0,0.0,8.0,0.0,1.2,12.0,0.4,0.0,0.0,0.4,0.2,0.0,0.2,0.0,1.2,0.0,30.2,4.8,0.0,0.0,1.8,0.2,0.0,0.0,0.0,6.4,6.2,73.4
Rio de Contas,EBDA,Rio de Contas,Rio de Contas - EBDA,-13.51801,-41.834479,Chapada Diamantina,RPGA do Rio de Contas,0.0,0.0,0.0,0.0,0.0,0.0,0.0,0.0,0.0,0.0,0.0,0.0,0.0,0.0,0.0,0.0,0.0,0.0,0.0,15.0,0.0,0.0,0.0,0.0,0.0,0.0,0.0,0.0,0.0,0.0,0.0,15.0
Érico Cardoso,EBDA,Érico Cardoso,Érico Cardoso - EBDA,-13.419116,-42.14143,Chapada Diamantina,RPGA dos Rios Paramirim e Santo Onofre,0.0,0.0,0.0,0.0,0.0,0.0,0.0,0.0,0.0,0.0,0.0,0.0,0.0,0.0,0.0,0.0,0.0,0.0,0.0,0.0,0.0,0.0,0.0,0.0,0.0,0.0,0.0,0.0,0.0,0.0,0.0,0.0
Dom Basílio,EBDA,Dom Basílio,Dom Basílio - EBDA,-13.761625,-41.772535,Chapada Diamantina,RPGA do Rio de Contas,0.0,0.0,0.0,0.0,0.0,0.0,0.0,0.0,0.0,0.0,0.0,0.0,0.0,0.0,0.0,0.0,0.0,0.0,0.0,0.0,0.0,0.0,0.0,0.0,0.0,0.0,0.0,0.0,0.0,0.0,0.0,0.0
São Félix do Coribe,EBDA,São Félix do Coribe,São Félix do Coribe - EBDA,-13.401899,-41.19585,Chapada Diamantina,RPGA do Rio Paraguaçu,0.0,0.0,0.0,0.0,0.0,0.0,0.0,0.0,0.0,0.0,0.0,0.0,0.0,0.0,0.0,0.0,0.0,0.0,0.0,0.0,0.0,0.0,0.0,0.0,0.0,0.0,0.0,0.0,0.0,0.0,0.0,0.0
Nova Vista,EBDA,Andaraí,Andaraí (Nova Vista) - EBDA,-12.151323,-40.267765,Chapada Diamantina,RPGA do Rio Paraguaçu,0.0,0.0,0.0,0.0,0.0,0.0,0.0,0.0,0.0,0.0,0.0,0.0,0.0,0.0,0.0,0.0,0.0,0.0,0.0,0.0,0.0,0.0,0.0,0.0,0.0,0.0,0.0,0.0,0.0,0.0,0.0,0.0
Ubiraitá,EBDA,Andaraí,Andaraí (Ubiraitá) - EBDA,-12.684663,-41.051122,Chapada Diamantina,RPGA do Rio Paraguaçu,0.0,0.0,0.0,0.0,0.0,0.0,0.0,0.0,0.0,0.0,0.0,0.0,0.0,0.0,0.0,0.0,0.0,0.0,0.0,0.0,0.0,0.0,0.0,0.0,0.0,0.0,0.0,0.0,0.0,0.0,0.0,0.0
Lençóis,A425,Lençóis,Lençóis - A425,-12.557854,-41.388808,Chapada Diamantina,RPGA do Rio Paraguaçu,0.0,0.0,0.0,0.6,0.6,0.0,18.4,0.0,1.0,0.4,0.0,0.2,0.0,0.2,0.0,0.0,0.0,0.4,0.4,0.0,32.8,0.6,0.0,0.0,3.8,0.8,0.0,0.0,0.0,5.4,1.8,67.4
Itaetê,,Itaetê,Itaetê,-12.991944,-40.960833,Chapada Diamantina,RPGA do Rio Paraguaçu,0.0,0.0,0.0,0.0,0.0,0.2,5.2,0.0,0.0,0.6,0.0,0.0,0.0,2.2,0.2,0.0,0.0,0.0,0.0,0.0,8.2,10.2,0.2,0.0,0.8,0.0,0.0,0.0,0.0,1.2,0.6,29.6
Rio do Pires,EBDA,Rio do Pires,Rio do Pires - EBDA,-13.12911,-42.2931,Chapada Diamantina,RPGA dos Rios Paramirim e Santo Onofre,0.0,0.0,0.0,0.0,0.0,0.0,0.0,0.0,0.0,0.0,0.0,0.0,0.0,0.0,0.0,0.0,0.0,0.0,0.0,0.0,0.0,0.0,0.0,0.0,0.0,0.0,0.0,0.0,0.0,0.0,0.0,0.0
Lagoa Bonita,PG-PR-15,Iacú,Iacú (Lagoa Bonita) - PG-PR-15,-12.931506,-40.226468,Chapada Diamantina,RPGA do Rio Paraguaçu,0.0,0.0,0.0,2.5,0.0,0.75,3.25,0.0,0.0,0.0,2.25,0.0,0.0,1.0,0.0,0.0,0.0,0.25,0.0,0.0,2.0,0.0,0.0,0.0,0.5,0.25,0.0,0.0,0.0,1.75,0.0,14.5
João Amaro,PG-PR-16,Iaçu,Iaçu (João Amaro) - PG-PR-16,-12.800391,-40.363139,Chapada Diamantina,RPGA do Rio Paraguaçu,0.0,0.0,0.0,0.75,0.0,0.5,0.75,0.0,0.0,0.5,0.0,0.0,0.25,1.0,0.0,0.0,0.0,0.0,0.0,0.0,0.5,0.0,0.0,0.0,0.0,0.25,0.0,11.0,0.0,0.5,0.0,16.0
Boa Vista Tupim,PG-PR-17,Boa Vista Tupim,Boa Vista Tupim - PG-PR-17,-12.65622,-40.589813,Chapada Diamantina,RPGA do Rio Paraguaçu,0.0,0.0,0.0,1.75,0.0,0.5,2.0,0.25,0.0,0.0,0.0,0.0,0.5,4.5,0.0,0.0,0.0,0.0,0.0,0.0,0.25,0.25,0.0,0.0,0.75,1.0,0.0,0.0,0.0,2.75,6.0,20.5
Ruy Barbosa,PG-PR-18,Ruy Barbosa,Ruy Barbosa - PG-PR-18,-12.285653,-40.513698,Chapada Diamantina,RPGA do Rio Paraguaçu,0.0,0.0,0.0,1.75,0.0,0.0,4.5,0.0,0.0,0.5,0.0,0.0,0.5,0.0,0.0,0.0,0.0,0.75,0.0,0.0,0.75,0.25,0.75,0.0,0.25,0.5,0.0,0.0,0.0,1.25,0.25,12.0
Boninal,PG-PR-19,Boninal,Boninal - PG-PR-19,-12.67656,-41.8464,Chapada Diamantina,RPGA do Rio Paraguaçu,0.0,0.0,0.0,0.0,0.0,0.0,0.0,0.0,0.0,0.0,0.0,0.0,0.0,0.0,0.0,0.0,0.0,0.0,0.0,0.0,4.0,0.25,0.0,0.0,0.0,0.0,0.0,0.0,0.0,0.0,0.0,4.25
Fazenda Cruz,PG-PR-20,Piatã,Piatã (Fazenda Cruz) - PG-PR-20,-12.90705,-41.86708,Chapada Diamantina,RPGA do Rio Paraguaçu,0.0,0.0,0.0,0.0,0.0,0.0,0.0,0.0,0.0,0.0,0.0,0.0,0.0,0.0,0.0,0.0,0.0,0.0,0.0,0.0,0.25,0.0,0.0,0.0,0.0,0.0,0.0,0.0,0.0,0.0,0.0,0.25
Wagner,PG-PR-22,Wagner,Wagner - PG-PR-22,-12.289538,-41.161774,Chapada Diamantina,RPGA do Rio Paraguaçu,0.0,0.0,0.0,0.0,0.0,0.0,4.5,0.5,0.0,0.0,0.0,0.0,0.0,0.25,0.0,0.0,0.0,0.0,0.5,0.0,0.0,0.0,0.25,0.0,0.0,0.75,0.0,0.0,0.0,0.0,2.25,9.0
Utinga,PG-PR-23,Utinga,Utinga - PG-PR-23,-12.030089,-41.058714,Chapada Diamantina,RPGA do Rio Paraguaçu,0.0,0.0,0.25,1.5,0.0,0.0,1.25,0.0,0.0,0.0,0.25,0.0,0.25,0.0,0.0,0.0,0.0,0.0,0.0,0.0,1.75,0.0,0.75,1.0,0.0,0.0,0.0,0.0,0.0,0.5,1.25,8.75
Guiné,PG-PR-24,Mucugê,Mucugê (Guiné) - PG-PR-24,-12.771772,-41.540679,Chapada Diamantina,RPGA do Rio Paraguaçu,0.0,0.0,0.0,0.0,0.0,0.0,0.5,0.25,0.0,0.0,0.0,0.0,0.0,0.0,0.0,0.0,0.25,1.5,0.0,0.0,2.25,0.75,0.0,0.0,0.25,0.0,0.0,0.0,0.0,0.0,0.25,6.0
Lajedinho,EBDA,Lajedinho,Lajedinho - EBDA,-12.357157,-40.90695,Chapada Diamantina,RPGA do Rio Paraguaçu,0.0,0.0,0.0,0.0,0.0,0.0,0.0,0.0,0.0,0.0,0.0,0.0,0.0,0.0,0.0,0.0,0.0,0.0,0.0,0.0,0.0,0.0,0.0,0.0,0.0,0.0,0.0,0.0,0.0,0.0,0.0,0.0
Macajuba,EBDA,Macajuba,Macajuba - EBDA,-12.137154,-40.361101,Chapada Diamantina,RPGA do Rio Paraguaçu,0.0,0.0,0.0,0.0,0.0,0.0,0.0,0.0,0.0,0.0,0.0,0.0,0.0,0.0,0.0,0.0,0.0,0.0,0.0,0.0,0.0,0.0,0.0,0.0,0.0,0.0,0.0,0.0,0.0,0.0,0.0,0.0
Mulungu do Morro,EBDA,Mulungu do Morro,Mulungu do Morro - EBDA,-11.967425,-41.640023,Chapada Diamantina,RPGA do Rio Paraguaçu,0.0,0.0,0.0,0.0,0.0,0.0,0.0,0.0,0.0,0.0,0.0,0.0,0.0,0.0,0.0,0.0,0.0,0.0,0.0,0.0,0.0,0.0,0.0,0.0,0.0,0.0,0.0,0.0,0.0,0.0,0.0,0.0
Marcionílio Souza,PG-CL-03,Marcionílio Souza,Marcionílio Souza - PG-CL-03,-13.00021,-40.537783,Chapada Diamantina,RPGA do Rio Paraguaçu,0.0,0.0,0.0,8.75,0.0,0.0,3.5,0.0,0.0,5.0,0.0,0.0,0.0,1.5,0.0,0.0,0.0,0.0,0.75,0.0,1.5,0.25,0.0,0.0,1.0,0.53,0.0,0.0,0.0,0.0,0.0,22.78
Tapiramutá,PG-PR-09,Tapiramutá,Tapiramutá - PG-PR-09,-11.838502,-40.791761,Chapada Diamantina,RPGA do Rio Paraguaçu,0.0,0.0,2.0,1.5,0.0,0.0,7.25,0.25,0.5,6.75,0.0,0.0,0.75,0.5,0.0,0.0,0.5,0.0,0.25,0.0,8.75,0.5,2.0,0.75,0.25,0.25,0.0,0.0,0.0,2.5,4.5,39.75
Ventura,PG-PR-10,Morro do Chapéu,Morro do Chapéu (Ventura) - PG-PR-10,-11.650911,-40.951765,Chapada Diamantina,RPGA do Rio Paraguaçu,0.0,0.0,0.25,0.5,0.0,0.0,0.75,0.0,0.5,0.5,0.25,0.0,0.25,0.5,0.0,0.0,0.0,0.0,0.0,0.0,0.0,0.0,0.0,0.0,0.25,0.0,0.0,0.0,0.0,0.25,0.5,4.5
Bonito,PG-PR-11,Bonito,Bonito - PG-PR-11,-11.98993,-41.25429,Chapada Diamantina,RPGA do Rio Paraguaçu,0.0,0.0,0.5,2.25,0.0,0.0,22.75,1.25,3.5,1.0,0.25,0.25,0.25,4.0,0.0,0.0,0.0,0.0,0.25,0.0,3.75,0.5,4.25,3.75,2.5,0.0,0.0,0.0,0.0,5.5,5.75,62.25
Piatã,CO-CL-04,Piatã,Piatã - CO-CL-04,-13.164166,-41.770833,Chapada Diamantina,RPGA do Rio de Contas,0.0,0.0,0.0,0.0,0.0,0.0,5.0,0.0,1.0,5.0,0.0,0.0,0.0,0.0,0.0,0.0,0.0,0.0,0.0,0.0,24.25,3.5,0.0,0.0,2.0,0.0,0.0,0.0,0.0,2.5,0.0,43.25
Palmeiras,EBDA,Palmeiras,Palmeiras - EBDA,-12.46799,-41.617801,Chapada Diamantina,RPGA do Rio Paraguaçu,0.0,0.0,0.0,0.0,0.0,0.0,0.0,0.0,0.0,0.0,0.0,0.0,0.0,0.0,0.0,0.0,0.0,0.0,0.0,0.0,0.0,0.0,0.0,0.0,0.0,0.0,0.0,0.0,0.0,0.0,0.0,0.0
Jeremoabo,EBDA,Jeremoabo,Jeremoabo - EBDA,-10.067951,-38.351041,Nordeste,RPGA do Rio Vaza-Barris,6.2,3.0,0.0,0.0,2.8,9.2,4.8,4.9,0.2,5.8,0.0,1.6,2.3,0.0,0.0,0.0,0.0,0.0,1.2,0.0,0.0,1.1,0.0,0.0,0.0,1.3,0.5,0.4,0.0,0.0,0.0,45.3
Coronel João Sá,EBDA,Coronel João Sá,Coronel João Sá - EBDA,-10.284624,-37.917698,Nordeste,RPGA do Rio Vaza-Barris,3.9,2.2,0.0,0.0,0.0,3.8,4.4,0.0,5.4,1.4,0.0,0.0,1.4,0.8,0.0,0.5,0.0,4.9,0.0,0.0,1.2,0.0,0.2,0.0,0.0,0.0,0.6,0.0,0.0,0.0,0.0,30.7
Abaré,EBDA,Abaré,Abaré - EBDA,-8.71792,-39.117725,Nordeste,RPGA dos Rios Macururé e Curaçá,0.0,0.0,0.0,0.0,0.0,0.0,0.0,0.0,0.0,0.0,0.0,0.0,0.0,0.0,0.0,0.0,0.0,0.0,0.0,0.0,0.0,0.0,0.0,0.0,0.0,0.0,0.0,0.0,0.0,0.0,0.0,0.0
Chorrochó,EBDA,Chorrochó,Chorrochó - EBDA,-8.984593,-39.101059,Nordeste,RPGA dos Rios Macururé e Curaçá,0.0,0.0,0.0,0.0,0.0,0.0,0.0,0.0,0.0,0.0,0.0,0.0,0.0,0.0,0.0,0.0,0.0,0.0,0.0,0.0,0.0,0.0,0.0,0.0,0.0,0.0,0.0,0.0,0.0,0.0,0.0,0.0
Rodelas,EBDA,Rodelas,Rodelas - EBDA,-8.83459,-38.751049,Nordeste,RPGA dos Rios Macururé e Curaçá,0.0,0.9,0.0,0.0,0.0,0.0,0.0,0.0,0.0,0.0,0.0,0.0,0.0,0.0,0.0,0.0,0.0,0.0,0.0,0.0,0.0,0.0,0.0,0.0,0.0,0.0,0.0,0.0,0.0,0.0,0.0,0.9
Macururé,EBDA,Macururé,Macururé - EBDA,-9.16793,-39.051056,Nordeste,RPGA dos Rios Macururé e Curaçá,0.0,0.0,0.0,0.0,0.0,0.0,0.0,0.0,0.0,0.0,0.0,0.0,0.0,0.0,0.0,0.0,0.0,0.0,0.0,0.0,0.0,0.0,0.0,0.0,0.0,0.0,0.0,0.0,0.0,0.0,0.0,0.0
Curaçá,EBDA,Curaçá,Curaçá - EBDA,-8.98459,-39.90108,Nordeste,RPGA dos Rios Macururé e Curaçá,0.0,0.0,0.0,0.0,0.0,0.0,0.0,0.0,0.0,0.0,0.0,0.0,0.0,0.0,0.0,0.0,0.0,0.0,0.0,0.0,7.8,0.0,0.0,0.0,0.0,0.0,0.0,0.0,0.0,0.0,0.0,7.8
Banzaê,EBDA,Banzaê,Banzaê - EBDA,-10.584629,-38.617717,Nordeste,RPGA do Rio Itapicuru,0.0,0.0,4.0,0.0,2.5,7.0,2.0,3.0,5.0,2.5,0.0,5.0,2.0,0.0,0.0,0.0,0.0,0.0,5.0,0.0,0.0,3.0,4.0,2.5,0.0,2.0,0.0,0.0,0.0,3.0,0.0,52.5
Paulo Afonso,A411,Paulo Afonso,Paulo Afonso - A411,-9.379325,-38.227424,Nordeste,RPGA dos Rios Macururé e Curaçá,0.6,5.6,9.0,0.0,0.0,1.2,3.8,0.4,1.0,0.0,0.8,0.0,0.0,0.4,0.0,0.0,0.0,0.6,0.0,0.0,0.0,0.2,0.6,0.0,0.6,0.0,2.0,0.2,0.0,0.0,0.0,27.0
Cipó,83192,Cipó,Cipó - 83192,-11.083333,-38.516667,Nordeste,RPGA do Rio Itapicuru,8.8,0.4,0.6,0.0,0.0,0.6,5.3,0.8,1.3,1.7,0.3,0.0,3.6,7.6,0.0,0.3,0.1,0.1,1.2,6.8,17.9,0.5,0.5,3.7,2.6,0.3,1.5,0.0,0.0,0.0,0.8,67.3
Jacobina,83186,Jacobina,Jacobina - 83186,-11.172778,-40.534167,Nordeste,RPGA do Rio Itapicuru,1.1,0.0,0.0,1.2,0.0,0.0,19.1,2.1,1.7,1.9,0.1,0.0,0.7,4.5,0.0,0.0,0.0,0.0,0.0,0.2,12.1,1.0,0.0,0.5,0.0,0.1,0.0,0.0,0.0,0.1,1.4,47.81
Monte Santo,83090,Monte Santo,Monte Santo - 83090,-10.4425,-39.331111,Nordeste,RPGA do Rio Itapicuru,13.1,0.3,1.3,0.4,0.0,1.6,4.8,1.7,0.0,1.0,0.3,0.0,1.0,0.4,0.0,0.0,0.2,0.3,0.0,1.3,0.7,0.0,0.0,2.0,0.4,0.2,0.2,0.0,0.0,0.0,4.2,35.4
Paulo Afonso,82986,Paulo Afonso,Paulo Afonso - 82986,-9.379325,-38.227424,Nordeste,RPGA dos Rios Macururé e Curaçá,0.4,4.5,7.8,0.0,0.0,1.0,3.5,0.2,0.4,0.0,0.6,0.0,0.0,0.1,0.0,0.0,0.0,0.4,0.0,0.0,0.0,0.0,0.3,0.0,0.2,0.0,1.8,0.0,0.0,0.0,0.0,21.2
Serrinha,83190,Serrinha,Serrinha - 83190,-11.633333,-38.966667,Nordeste,RPGA do Recôncavo Norte,3.6,0.0,0.4,0.0,0.0,2.3,3.9,0.0,1.5,2.4,0.5,0.0,7.6,5.8,0.0,0.0,0.3,0.0,0.2,0.8,11.8,0.1,1.0,1.6,2.0,1.7,0.1,0.1,0.0,0.1,8.5,56.31
Conde,A431,Conde,Conde - A431,-12.03622,-37.68322,Nordeste,RPGA do Rio Itapicuru,23.0,0.6,1.2,0.4,0.2,5.0,8.6,1.6,0.8,2.8,8.6,0.0,4.6,0.2,0.0,10.8,4.2,33.0,0.6,22.0,0.0,5.6,0.6,10.2,1.2,0.0,9.6,0.0,0.0,1.0,6.8,163.2
Uauá,A435,Uauá,Uauá - A435,-9.833617,-39.495631,Nordeste,RPGA do Rio Vaza-Barris,1.4,0.4,0.0,0.0,0.0,0.0,7.4,0.0,0.0,0.2,0.6,0.0,0.0,0.0,0.0,0.0,0.0,0.0,0.0,0.6,0.0,0.0,0.0,1.2,0.0,0.0,0.0,0.0,0.0,0.0,0.2,12.0
Euclides da Cunha,A442,Euclides da Cunha,Euclides da Cunha - A442,-10.537233,-38.996605,Nordeste,RPGA do Rio Itapicuru,13.4,0.6,0.4,0.0,0.0,2.8,5.6,0.4,0.2,6.4,3.6,0.0,1.6,2.8,0.6,0.0,0.4,0.0,1.6,3.4,2.2,0.8,0.4,1.0,3.8,0.0,1.4,0.4,0.0,0.0,8.4,62.2
Queimadas,A436,Queimadas,Queimadas - A436,-10.984645,-39.617009,Nordeste,RPGA do Rio Itapicuru,10.8,0.0,1.4,0.2,0.0,0.8,22.4,0.8,0.4,4.6,0.0,0.0,5.0,0.0,0.0,0.0,0.0,0.0,0.0,5.4,0.0,2.8,0.0,9.8,1.0,0.2,0.0,0.2,0.0,0.2,10.4,76.4
Jacobina,A440,Jacobina,Jacobina - A440,-11.205136,-40.464979,Nordeste,RPGA do Rio Itapicuru,1.8,0.0,0.4,0.0,0.0,0.0,24.4,3.0,4.0,2.2,2.2,0.0,0.8,3.4,0.0,0.0,0.0,0.6,0.0,0.8,8.6,0.2,0.2,1.0,0.2,0.4,0.0,0.0,0.0,0.6,2.8,57.6
Serrinha,A441,Serrinha,Serrinha - A441,-11.664586,-39.022946,Nordeste,RPGA do Rio Paraguaçu,3.6,0.0,0.4,0.0,0.2,2.6,12.6,0.0,1.4,2.4,0.6,0.0,7.2,5.8,0.0,0.0,1.6,0.0,0.4,0.6,24.2,0.6,1.6,2.0,1.6,2.6,0.0,0.0,0.2,0.6,9.4,82.2
EBDA Alagoinhas,EBDA,Itapicuru,Itapicuru (EBDA Alagoinhas) - EBDA,-11.317978,-38.217708,Nordeste,RPGA do Rio Itapicuru,0.0,0.0,0.0,0.0,7.0,5.0,0.0,6.0,2.5,0.0,0.0,2.0,0.0,2.0,0.0,0.0,6.0,1.5,12.0,12.0,9.0,0.0,2.0,4.0,0.0,3.5,0.0,0.0,0.0,1.0,2.5,78.0
Senhor do Bonfim,A428,Senhor do Bonfim,Senhor do Bonfim - A428,-10.443072,-40.148244,Nordeste,RPGA do Rio Itapicuru,8.0,0.4,0.0,0.6,0.0,0.0,4.8,1.2,1.0,0.2,1.2,0.0,5.6,1.8,0.0,0.0,0.0,0.0,0.2,0.0,2.0,1.0,0.0,7.4,1.8,0.6,0.0,0.0,0.0,0.0,9.2,47.0
Canudos,EBDA - EBDA,Canudos,Canudos - EBDA - EBDA,-9.897945,-39.027448,Nordeste,RPGA do Rio Vaza-Barris,0.0,0.0,0.0,0.0,0.0,0.0,0.0,0.0,0.0,0.0,0.0,0.0,0.0,0.0,0.0,0.0,0.0,0.0,0.0,0.0,0.0,0.0,0.0,0.0,0.0,0.0,0.0,0.0,0.0,0.0,0.0,0.0
Tijuaçú,EBDA,Senhor do Bomfim,Senhor do Bomfim (Tijuaçú) - EBDA,-10.617957,-40.134423,Nordeste,RPGA do Rio Itapicuru,0.0,0.0,0.0,0.0,0.0,0.0,0.0,0.0,0.0,0.0,9.0,0.0,6.0,0.0,0.0,0.0,0.0,0.0,4.0,0.0,0.0,0.0,0.0,0.0,0.0,0.0,0.0,0.0,0.0,0.0,0.0,19.0
Faz. Boa Esperança,EBDA,Pindobaçu,Pindobaçu (Faz. Boa Esperança) - EBDA,-10.734626,-40.367764,Nordeste,RPGA do Rio Itapicuru,1.0,0.0,0.0,0.0,0.0,3.0,24.0,1.0,0.0,2.0,1.0,2.0,0.0,0.0,0.0,0.0,0.0,0.0,0.0,6.0,0.0,0.0,0.0,9.0,2.0,0.0,0.0,0.0,0.0,1.0,0.0,52.0
Pedras Altas,50430000,Capim Grosso,Capim Grosso (Pedras Altas) - 50430000,-11.18288,-40.04725,Nordeste,RPGA do Rio Itapicuru,0.0,0.0,0.0,0.0,0.0,0.0,4.6,2.0,0.0,0.2,0.4,0.0,0.2,7.2,0.0,0.0,0.0,0.0,0.0,2.2,5.2,0.4,2.6,0.4,0.2,0.2,0.0,0.0,0.0,0.0,0.0,25.8
Ponto Novo,50380000,Ponto Novo,Ponto Novo - 50380000,-10.845,-40.1128,Nordeste,RPGA do Rio Itapicuru,1.6,0.2,0.0,0.0,0.0,0.0,12.2,2.8,0.2,0.0,0.8,0.0,1.8,0.2,0.0,0.0,0.0,0.0,3.2,0.2,5.2,0.2,1.0,0.0,0.2,0.0,0.0,0.0,0.0,0.0,1.2,31.0
Fátima,EBDA,Fátima,Fátima - EBDA,-10.594074,-38.217985,Nordeste,RPGA do Rio Vaza-Barris,0.0,0.0,0.0,0.0,0.0,13.0,0.0,2.0,0.0,0.0,11.0,8.5,2.0,0.0,0.0,0.0,0.0,0.0,0.0,2.0,8.0,3.0,0.0,7.0,0.0,1.0,0.0,0.0,0.0,0.0,0.0,57.5
Novo Triunfo,EBDA,Novo Triunfo,Novo Triunfo - EBDA,-10.348512,-38.409377,Nordeste,RPGA do Rio Vaza-Barris,0.0,0.0,0.0,0.0,9.0,11.0,0.0,0.0,0.0,6.0,0.0,0.0,0.0,0.0,0.0,0.0,0.0,0.0,0.0,0.0,0.0,0.0,0.0,0.0,0.0,0.0,0.0,0.0,0.0,0.0,0.0,26.0
Jandaíra,EBDA,Jandaíra,Jandaíra - EBDA,-11.565486,-37.785476,Nordeste,RPGA do Rio Real,0.0,0.0,0.0,0.0,10.0,5.0,0.0,0.0,19.0,2.5,2.5,0.0,15.0,7.5,5.0,3.0,3.0,6.5,5.0,5.0,10.0,0.0,5.0,5.0,0.0,0.0,0.0,0.0,0.0,2.5,2.5,114.0
Acajutiba,EBDA,Acajutiba,Acajutiba - EBDA,-11.663542,-38.01826,Nordeste,RPGA do Rio Itapicuru,0.0,0.0,0.0,0.0,5.0,7.0,0.0,4.0,0.8,9.3,5.9,9.4,0.0,0.0,0.0,0.0,28.0,6.8,4.4,4.4,6.0,1.3,0.5,4.6,2.2,0.0,0.0,0.0,0.0,7.2,1.6,108.4
Cansanção,EBDA,Cansanção,Cansanção - EBDA,-10.66796,-39.501074,Nordeste,RPGA do Rio Itapicuru,0.0,0.0,0.0,0.0,0.0,0.0,0.0,0.0,0.0,0.0,0.0,0.0,0.0,0.0,1.2,2.4,0.0,0.0,0.0,0.0,0.0,0.0,0.0,0.0,0.0,0.0,0.0,0.0,0.0,0.0,6.2,9.8
Ipirá,PG-CL-02,Ipirá,Ipirá - PG-CL-02,-12.14986,-39.76454,Nordeste,RPGA do Rio Paraguaçu,0.0,0.0,1.0,0.0,0.0,1.0,5.0,2.0,0.0,0.0,0.0,0.0,0.25,1.75,0.0,0.0,3.0,0.25,0.0,0.25,1.25,0.25,0.5,0.0,3.5,0.0,0.0,0.0,0.0,0.25,6.25,26.5
Serrinha,RN-CL-02,Serrinha,Serrinha - RN-CL-02,-11.648333,-38.982777,Nordeste,RPGA do Recôncavo Norte,2.75,0.5,1.0,0.75,0.5,4.5,11.25,0.25,0.75,1.0,1.5,0.75,4.25,2.25,0.5,0.25,1.75,0.25,1.5,0.75,15.5,8.25,2.25,4.5,2.0,4.5,0.0,0.0,0.5,1.5,12.0,88.0
Valente,PG-PR-04,Valente,Valente - PG-PR-04,-11.40119,-39.458099,Nordeste,RPGA do Rio Paraguaçu,1.25,0.0,0.0,0.25,0.0,0.0,9.0,0.25,0.0,0.0,0.0,0.0,0.75,1.0,0.0,0.0,0.0,0.0,0.0,1.25,0.0,0.0,0.25,0.0,2.0,0.0,0.0,0.0,0.0,0.25,6.0,22.25
Pintadas,PG-PR-05,Pintadas,Pintadas - PG-PR-05,-11.837311,-39.969786,Nordeste,RPGA do Rio Paraguaçu,0.25,0.0,0.75,0.0,0.0,0.0,9.25,2.0,0.25,0.5,0.0,0.0,0.75,0.0,0.0,0.0,3.25,0.25,0.0,3.5,4.0,0.0,0.0,0.0,0.0,0.25,0.0,0.0,0.0,0.0,5.25,30.25
Pé de Serra,PG-PR-06,Pé de Serra,Pé de Serra - PG-PR-06,-11.833423,-39.623663,Nordeste,RPGA do Rio Paraguaçu,0.25,0.0,0.25,1.0,0.0,0.25,4.25,0.5,0.25,0.0,0.0,0.0,0.0,2.5,0.0,0.0,0.25,0.0,1.0,3.0,0.5,0.0,0.0,0.0,0.0,0.0,0.0,0.0,0.0,0.0,4.75,18.75
Tucano,EBDA,Tucano,Tucano - EBDA,-10.971302,-38.781056,Nordeste,RPGA do Rio Itapicuru,0.0,0.0,0.0,0.0,0.0,0.0,4.0,2.5,0.0,0.0,0.0,0.0,0.0,12.0,0.0,0.0,0.0,0.0,0.0,0.0,0.0,0.0,0.0,5.0,6.0,0.0,0.0,0.0,0.0,0.0,4.0,33.5
Itapeipu,IT-PR-34,Jacobina,Jacobina (Itapeipu) - IT-PR-34,-11.315629,-40.356742,Nordeste,RPGA do Rio Itapicuru,0.25,0.0,0.25,0.0,0.0,0.0,17.0,1.25,1.0,0.25,1.0,0.0,1.75,3.0,0.0,0.0,0.25,0.75,0.0,1.5,1.25,1.25,0.0,1.25,0.0,0.0,0.0,0.0,0.0,0.5,2.25,34.75
Caém,IT-PR-35,Caém,Caém - IT-PR-35,-11.093399,-40.437579,Nordeste,RPGA do Rio Itapicuru,1.0,0.0,0.0,0.75,0.0,0.0,14.25,4.5,0.5,0.0,0.25,0.0,1.5,4.0,0.0,0.0,0.0,1.25,0.25,0.25,21.25,0.0,0.25,2.25,0.25,0.75,0.0,0.0,0.0,0.0,2.5,55.75
Tombador Araújo,IT-PR-36,Jacobina,Jacobina (Tombador Araújo) - IT-PR-36,-11.168677,-40.670642,Nordeste,RPGA do Rio Itapicuru,1.25,0.25,0.0,0.0,0.0,0.0,13.5,4.5,0.75,0.0,0.0,0.0,0.0,3.25,0.0,0.0,0.0,0.0,0.0,0.0,1.25,2.0,0.0,0.25,0.0,0.0,0.0,0.0,0.0,0.0,0.75,27.75
Conceição do Coité,IT-PR-14,Conceição do Coité,Conceição do Coité - IT-PR-14,-11.526752,-39.313095,Nordeste,RPGA do Rio Itapicuru,0.75,0.0,0.0,0.0,0.0,0.25,6.75,0.0,2.75,0.0,0.0,0.0,0.5,0.0,0.0,0.0,0.0,0.0,0.75,0.25,1.0,2.0,0.5,0.75,0.0,0.75,0.0,0.0,0.0,0.0,6.5,23.5
Riacho da Onça,IT-PR-15,Queimadas,Queimadas (Riacho da Onça) - IT-PR-15,-11.24424,-39.790055,Nordeste,RPGA do Rio Itapicuru,0.0,0.0,0.0,0.0,0.0,0.0,9.75,3.25,0.25,0.75,0.0,0.0,0.75,1.0,0.0,0.0,0.0,0.0,0.25,0.0,0.0,0.0,0.25,0.0,1.0,0.25,0.0,0.0,0.0,0.0,1.5,19.0
Povoado Rio do Peixe,IT-PR-16,Queimadas,Queimadas (Povoado Rio do Peixe) - IT-PR-16,-11.097292,-39.524491,Nordeste,RPGA do Rio Itapicuru,3.25,0.0,0.0,0.0,0.0,0.0,5.5,0.25,0.0,0.5,0.0,0.0,0.0,0.0,0.0,0.0,0.0,0.0,0.0,0.0,0.25,0.0,0.0,0.25,0.25,0.0,0.0,0.0,0.0,1.0,0.75,12.0
Santaluz,IT-PR-17,Santaluz,Santaluz - IT-PR-17,-11.24831,-39.37563,Nordeste,RPGA do Rio Itapicuru,1.75,0.0,0.0,0.0,0.0,0.5,3.5,0.25,0.0,0.0,0.0,0.0,0.5,0.0,0.0,0.0,0.0,0.0,0.0,1.25,0.0,0.0,0.0,1.75,1.0,0.25,0.0,0.0,0.0,0.25,2.5,13.5
Fazenda Boa Vista,IT-PR-18,Uauá,Uauá (Fazenda Boa Vista) - IT-PR-18,-10.05893,-39.706158,Nordeste,RPGA do Rio Itapicuru,2.75,0.25,0.25,0.25,0.0,0.0,6.5,0.0,0.0,0.0,0.0,0.0,0.0,0.0,0.0,0.0,0.0,0.0,0.0,0.25,0.25,0.0,0.0,0.25,0.25,0.0,0.0,0.0,0.0,0.0,5.25,16.25
Açude Monteiro,IT-PR-23,Nordestina,Nordestina (Açude Monteiro) - IT-PR-23,-10.77645,-39.559491,Nordeste,RPGA do Rio Itapicuru,5.5,0.25,0.25,0.0,0.0,0.5,3.5,0.75,0.5,0.5,0.0,0.0,1.25,0.25,0.0,0.0,0.0,0.0,0.0,0.0,0.0,0.0,0.0,2.75,0.25,0.0,0.0,0.0,0.0,0.0,6.25,22.5
Quijingue,IT-PR-25,Quijingue,Quijingue - IT-PR-25,-10.783951,-39.20809,Nordeste,RPGA do Rio Itapicuru,4.0,0.0,0.0,0.0,0.0,0.75,2.25,2.0,0.5,0.5,0.0,0.0,1.25,1.0,0.0,0.0,0.0,0.0,0.0,0.5,0.0,0.25,0.0,0.5,1.5,0.0,0.0,0.25,0.0,0.0,4.25,19.5
Curral Falso,IT-PR-01,Ribeira do Pombal,Ribeira do Pombal (Curral Falso) - IT-PR-01,-10.697843,-38.5714,Nordeste,RPGA do Rio Itapicuru,5.25,0.0,1.5,0.0,0.0,0.75,5.0,0.5,0.25,5.5,0.5,0.0,10.25,0.25,1.5,1.0,0.0,0.25,0.25,1.25,8.75,1.75,0.25,0.25,0.75,0.0,0.75,0.0,0.0,0.0,4.5,51.0
Maria Preta,IT-PR-03,Tucano,Tucano (Maria Preta) - IT-PR-03,-10.835065,-38.935857,Nordeste,RPGA do Rio Itapicuru,6.0,0.0,0.5,0.0,0.0,0.0,1.25,0.75,1.25,1.75,0.0,0.0,1.75,2.25,0.0,0.0,0.0,0.0,0.0,3.5,1.0,0.0,0.25,2.0,0.25,0.25,0.25,0.0,0.0,0.0,1.75,24.75
Ribeira do Pombal,IT-PR-04,Ribeira do Pombal,Ribeira do Pombal - IT-PR-04,-10.823399,-38.545844,Nordeste,RPGA do Rio Itapicuru,8.25,1.25,1.25,0.0,0.0,1.5,5.75,0.5,1.5,2.75,0.5,0.0,6.75,1.0,0.0,0.25,0.0,5.5,0.0,3.5,9.0,4.25,0.25,1.75,1.0,0.5,1.25,0.0,0.0,0.0,1.75,60.0
BR 116 E. Cunha / Tucano,IT-PR-05,Quijingue,Quijingue (BR 116 E. Cunha / Tucano) - IT-PR-05,-10.7105,-38.9227,Nordeste,RPGA do Rio Itapicuru,9.25,0.25,0.25,0.0,0.0,1.5,1.25,1.75,0.5,3.25,2.0,0.0,2.0,1.25,0.25,0.0,0.0,0.25,0.0,1.25,0.75,0.25,0.25,0.5,1.5,0.25,1.0,0.0,0.0,0.0,4.75,34.25
Fazenda Laranjeiras III,IT-PR-09,Araci,Araci (Fazenda Laranjeiras III) - IT-PR-09,-11.334248,-38.968638,Nordeste,RPGA do Rio Itapicuru,1.5,0.0,0.0,0.0,0.0,2.0,2.0,0.0,0.25,0.5,1.5,0.0,3.75,1.25,0.0,0.0,0.0,0.0,0.0,1.75,0.75,0.0,0.0,0.75,0.5,0.0,0.0,0.75,0.0,0.0,4.0,21.25
Olindina,IT-PR-11,Olindina,Olindina - IT-PR-11,-11.343693,-38.318892,Nordeste,RPGA do Rio Itapicuru,4.25,0.0,0.0,0.0,0.0,1.25,9.0,0.75,0.5,0.25,3.75,0.0,14.0,4.75,0.0,0.0,0.0,0.0,0.25,7.0,0.0,0.0,0.5,1.25,0.25,0.0,1.25,0.0,0.0,0.0,3.25,52.25
Itapicuru,IT-PR-12,Itapicuru,Itapicuru - IT-PR-12,-11.321193,-38.225003,Nordeste,RPGA do Rio Itapicuru,0.0,0.0,0.0,0.0,0.0,0.0,0.0,0.0,0.0,0.0,0.0,0.0,0.0,0.5,0.0,0.75,0.25,3.25,1.75,6.25,6.25,3.5,0.0,1.0,0.75,0.25,2.5,0.0,0.0,0.0,2.0,29.0
Boa Hora,IT-PR-13,Ribeira do Amparo,Ribeira do Amparo (Boa Hora) - IT-PR-13,-10.965,-38.5234,Nordeste,RPGA do Rio Itapicuru,5.75,0.25,2.5,0.0,0.0,0.25,3.0,4.0,1.0,3.75,0.25,0.0,5.25,5.0,0.0,0.25,0.75,0.0,0.25,5.75,17.25,0.5,0.0,1.25,0.25,0.0,2.75,0.25,0.0,0.0,2.25,62.5
Inhambupe,EBDA,Inhambupe,Inhambupe - EBDA,-11.784656,-38.351047,Nordeste,RPGA do Recôncavo Norte,0.0,0.0,4.0,0.0,6.0,1.5,0.0,2.5,0.0,0.0,5.0,10.0,9.0,2.0,0.0,0.0,10.0,0.0,5.0,9.0,0.0,0.0,7.5,7.0,0.0,2.5,6.0,0.0,0.0,10.0,0.0,97.0
Esplanada,EBDA,Esplanada,Esplanada - EBDA,-11.784656,-37.951038,Nordeste,RPGA do Recôncavo Norte,0.0,0.0,2.3,0.0,6.3,17.1,2.8,0.0,4.0,4.0,4.0,1.3,0.7,1.3,1.4,7.0,23.3,18.0,11.0,6.0,2.0,3.3,7.0,6.6,6.5,10.3,0.0,2.1,4.7,0.0,0.0,153.0
Entre Rios,EBDA,Entre Rios,Entre Rios - EBDA,-11.951326,-38.084374,Nordeste,RPGA do Recôncavo Norte,0.0,0.0,0.0,0.0,3.0,6.5,0.0,0.0,0.0,0.0,3.0,0.0,0.0,0.0,0.0,0.0,4.5,5.8,7.4,0.0,0.0,7.0,0.0,8.0,2.5,0.0,0.0,0.0,0.0,0.0,0.0,47.7
Rio Real,EBDA,Rio Real,Rio Real - EBDA,-11.48465,-37.934369,Nordeste,RPGA do Rio Real,0.0,2.1,3.4,4.0,6.4,10.0,0.0,1.8,1.0,5.4,0.0,5.0,2.2,0.6,8.0,4.2,12.0,2.0,4.0,2.6,3.0,1.2,3.0,8.0,1.0,0.0,0.0,0.0,0.0,6.0,1.0,97.9
Sátiro Dias,EBDA,Sátiro Dias,Sátiro Dias - EBDA,-11.58465,-38.584386,Nordeste,RPGA do Recôncavo Norte,0.0,0.0,0.0,0.0,6.5,6.0,0.0,3.0,0.0,0.0,0.0,0.0,2.5,0.0,0.0,0.0,0.0,0.0,12.0,0.0,0.0,0.0,11.0,0.0,0.0,0.0,0.0,5.0,0.0,10.0,0.0,56.0
Ribeira do Pombal,EBDA,Ribeira do Pombal,Ribeira do Pombal - EBDA,-10.834635,-38.534383,Nordeste,RPGA do Rio Itapicuru,1.4,1.5,0.0,0.0,2.7,7.4,0.3,2.2,3.0,0.7,0.0,7.6,0.0,0.5,7.5,0.0,7.0,1.0,4.0,4.9,4.7,0.5,3.3,0.3,0.7,0.0,0.0,0.0,0.0,0.0,1.5,62.7
Cipó,EBDA,Cipó,Cipó - EBDA,-11.101305,-38.517717,Nordeste,RPGA do Rio Itapicuru,0.0,0.0,0.0,0.0,0.0,5.9,0.8,1.8,1.2,0.0,0.0,5.5,7.8,0.0,0.0,0.0,0.0,1.1,6.1,16.2,0.0,0.0,0.0,6.4,0.0,1.4,0.0,0.0,0.0,0.0,0.0,54.2
Olindina_EBDA,EBDA,Olindina_EBDA,Olindina_EBDA - EBDA,-11.351311,-38.33438,Nordeste,RPGA do Rio Itapicuru,0.0,0.0,0.0,0.0,5.9,3.0,0.0,1.1,0.0,2.8,12.2,0.0,0.0,0.0,0.0,0.0,0.0,0.0,0.0,4.4,0.0,0.0,0.0,5.6,0.0,0.0,0.0,0.0,0.0,0.0,0.0,35.0
Antas,EBDA,Antas,Antas - EBDA,-10.401293,-38.334375,Nordeste,RPGA do Rio Vaza-Barris,2.0,3.0,0.0,0.0,0.0,20.0,0.0,1.0,0.0,9.0,0.0,0.0,0.0,0.0,0.0,0.0,5.0,0.0,0.0,8.0,0.0,10.0,0.0,0.0,1.0,0.0,0.0,0.0,0.0,0.0,0.0,59.0
Paripiranga,EBDA,Paripiranga,Paripiranga - EBDA,-10.684633,-37.851032,Nordeste,RPGA do Rio Vaza-Barris,2.5,0.0,0.0,0.0,18.9,7.8,0.0,3.3,0.0,6.0,5.7,0.0,0.0,0.0,0.0,0.0,7.0,6.9,0.0,9.1,0.0,3.3,0.0,0.0,8.0,2.5,0.0,0.0,2.0,0.0,0.0,83.0
Nova Soure,EBDA,Nova Soure,Nova Soure - EBDA,-11.251311,-38.484383,Nordeste,RPGA do Rio Itapicuru,0.0,0.0,0.0,0.0,1.1,5.7,0.0,0.0,0.0,0.0,0.0,3.8,4.5,0.0,0.0,0.0,0.0,0.0,9.7,1.3,0.0,2.0,0.0,3.1,7.0,1.1,0.0,0.0,0.0,0.0,0.0,39.31
Ribeira do Amparo,EBDA,Ribeira do Amparo,Ribeira do Amparo - EBDA,-11.034638,-38.43438,Nordeste,RPGA do Rio Itapicuru,0.0,0.0,0.0,0.0,0.0,6.4,1.6,1.3,3.2,0.0,0.0,5.4,3.5,0.0,0.0,0.0,1.1,4.2,5.8,6.6,0.0,0.9,0.0,1.0,2.8,2.7,0.0,0.0,0.0,2.0,0.0,48.5
Heliópolis,EBDA,Heliópolis,Heliópolis - EBDA,-10.667965,-38.284375,Nordeste,RPGA do Rio Real,0.0,0.0,0.0,0.0,0.0,8.3,0.0,0.0,0.0,0.0,0.0,6.1,0.0,0.0,0.0,0.0,0.0,0.0,0.0,0.0,0.0,0.0,0.0,0.0,3.3,0.0,0.0,0.0,0.0,0.0,0.0,17.7
Cícero Dantas,EBDA,Cícero Dantas,Cícero Dantas - EBDA,-10.584629,-38.384377,Nordeste,RPGA do Rio Real,2.0,2.5,0.0,0.0,0.0,7.5,5.0,2.5,0.0,1.5,0.0,5.0,2.5,0.0,2.0,0.0,0.0,2.0,0.0,4.5,0.0,12.0,7.0,0.0,0.0,2.0,0.0,0.0,7.0,0.0,0.0,65.0
Sítio do Quinto,EBDA,Sítio do Quinto,Sítio do Quinto - EBDA,-10.367959,-38.201038,Nordeste,RPGA do Rio Vaza-Barris,0.0,0.0,0.0,0.0,0.0,17.6,0.0,3.0,0.0,4.3,0.0,0.0,0.0,0.0,0.0,0.0,0.0,0.0,0.0,3.0,0.0,0.0,4.6,6.1,0.0,0.0,0.0,0.0,0.0,0.0,0.0,38.6
Pedro Alexandre,EBDA,Pedro Alexandre,Pedro Alexandre - EBDA,-10.017951,-37.884362,Nordeste,RPGA do Rio Vaza-Barris,17.5,2.7,0.0,0.0,0.0,8.7,0.0,3.8,0.0,5.0,0.0,0.0,0.0,0.0,0.0,0.0,3.2,2.5,0.0,0.0,0.0,0.0,3.7,0.0,0.0,0.0,0.0,0.0,2.0,0.0,0.0,49.1
Adustina,EBDA,Adustina,Adustina - EBDA,-10.534629,-38.117704,Nordeste,RPGA do Rio Vaza-Barris,0.0,0.0,0.0,0.0,8.4,0.0,0.0,2.5,0.0,6.0,0.0,0.0,0.0,0.0,0.0,0.0,0.0,4.4,0.0,2.0,0.0,3.0,0.0,0.0,3.0,0.0,0.0,0.0,0.0,0.0,0.0,29.3
Uauá,EBDA,Uauá,Uauá - EBDA,-9.834609,-39.484404,Nordeste,RPGA do Rio Vaza-Barris,0.0,0.0,0.0,0.0,0.0,0.0,0.0,8.2,0.0,0.0,0.0,0.0,0.0,0.0,0.0,0.0,0.0,0.0,0.0,0.0,0.0,0.0,0.0,0.0,0.0,0.0,0.0,0.0,0.0,0.0,0.0,8.2
Filadélfia,EBDA,Filadélfia,Filadélfia - EBDA,-10.734626,-40.134425,Nordeste,RPGA do Rio Itapicuru,5.0,0.0,0.0,0.0,0.0,5.0,0.0,0.0,0.0,12.0,0.0,0.0,0.0,0.0,0.0,0.0,0.0,0.0,0.0,20.0,0.0,0.0,0.0,0.0,0.0,0.0,0.0,0.0,0.0,0.0,0.0,42.0
Itiúba,EBDA,Itiúba,Itiúba - EBDA,-10.684626,-39.934419,Nordeste,RPGA do Rio Itapicuru,0.0,0.0,0.0,0.0,0.0,0.0,3.0,0.0,0.0,0.0,0.0,5.0,2.0,0.0,0.0,0.0,0.0,0.0,0.0,7.5,0.0,0.0,0.0,0.0,0.0,0.0,0.0,0.0,0.0,13.5,0.0,31.0
Andorinha,EBDA,Andorinha,Andorinha - EBDA,-10.33462,-39.834414,Nordeste,RPGA do Rio Itapicuru,0.0,0.0,0.0,0.0,0.0,3.5,2.0,1.0,0.0,0.0,0.0,0.0,0.0,0.0,0.0,0.0,0.0,0.0,0.0,0.0,0.0,0.0,0.0,0.0,0.0,0.0,0.0,0.0,0.0,3.0,0.0,9.5
Ponto Novo,EBDA,Ponto Novo,Ponto Novo - EBDA,-10.851296,-40.051089,Nordeste,RPGA do Rio Itapicuru,0.0,0.0,0.0,0.0,0.0,21.5,0.0,2.8,0.0,0.0,0.0,0.0,0.0,0.0,0.0,0.0,0.0,0.0,0.0,12.4,0.0,0.0,0.0,0.0,0.0,0.0,0.0,0.0,0.0,0.0,0.0,36.7
Caldeirão Grande,EBDA,Caldeirão Grande,Caldeirão Grande - EBDA,-11.017965,-40.301095,Nordeste,RPGA do Rio Itapicuru,0.0,0.0,0.0,0.0,0.0,12.0,15.0,0.0,0.0,0.0,0.0,0.0,0.0,5.0,0.0,0.0,0.0,0.0,0.0,9.0,0.0,0.0,0.0,0.0,0.0,0.0,0.0,0.0,0.0,10.0,0.0,51.0
Senhor do Bonfim,EBDA,Senhor do Bonfim,Senhor do Bonfim - EBDA,-10.451287,-40.184425,Nordeste,RPGA do Rio Itapicuru,7.5,0.0,0.9,0.0,0.0,0.0,15.5,4.1,1.9,3.5,0.0,0.0,4.3,0.0,0.9,0.0,1.1,0.0,0.0,0.3,4.4,0.2,0.0,2.6,1.2,0.0,0.0,0.0,0.0,0.0,9.3,57.7
Serrinha,EBDA,Serrinha,Serrinha - EBDA,-11.651317,-38.967731,Nordeste,RPGA do Recôncavo Norte,3.6,0.0,0.4,0.0,0.0,7.5,6.0,5.0,2.2,1.0,3.0,8.0,11.4,0.0,0.0,0.0,1.6,0.0,0.0,21.8,3.4,1.4,0.0,3.6,2.2,0.0,0.0,0.0,0.0,6.0,3.0,91.11
Conceição do Coité,EBDA,Conceição do Coité,Conceição do Coité - EBDA,-11.551314,-39.284404,Nordeste,RPGA do Rio Itapicuru,0.0,0.0,18.0,20.9,0.0,6.1,0.0,0.0,0.0,18.0,20.9,0.0,0.0,0.0,0.0,0.0,0.0,0.0,0.0,0.0,0.0,0.0,0.0,0.0,0.0,0.0,0.0,0.0,0.0,0.0,6.7,90.61
Valente,EBDA,Valente,Valente - EBDA,-11.417977,-39.48441,Nordeste,RPGA do Rio Paraguaçu,0.0,0.0,0.0,0.0,0.0,1.0,2.6,0.0,0.0,1.0,0.0,0.0,1.8,0.0,0.0,0.0,0.0,0.0,1.9,0.9,0.0,0.4,0.2,5.2,0.0,0.0,0.0,0.0,0.0,7.1,4.9,27.0
Paulo Afonso,EBDA,Paulo Afonso,Paulo Afonso - EBDA,-9.401269,-38.217702,Nordeste,RPGA dos Rios Macururé e Curaçá,0.4,4.5,7.8,0.0,0.0,1.0,3.5,0.2,0.4,0.0,0.6,0.0,0.0,0.1,0.0,0.0,0.0,0.4,0.0,0.0,0.0,0.0,0.3,0.0,0.2,0.0,1.7,0.0,0.0,0.0,0.0,21.1
Santa Brígida,EBDA,Santa Brígida,Santa Brígida - EBDA,-9.734611,-38.134368,Nordeste,RPGA do Riacho do Tará,8.1,2.6,0.0,0.0,2.5,6.0,0.0,0.0,0.0,0.0,0.0,0.0,0.0,0.0,0.0,0.0,2.0,0.0,0.0,0.0,0.0,1.3,0.0,0.5,0.0,1.5,0.0,0.0,0.0,0.0,0.0,24.5
Glória,EBDA,Glória,Glória - EBDA,-9.351269,-38.251038,Nordeste,RPGA dos Rios Macururé e Curaçá,0.0,5.3,0.0,0.0,0.0,5.7,3.0,0.0,0.0,0.0,0.0,0.0,0.0,0.0,0.0,0.0,0.0,0.0,0.0,0.0,0.0,0.0,0.0,0.0,0.0,0.0,0.0,0.0,0.0,0.0,0.0,14.0
Casa Nova,EBDA,Casa Nova,Casa Nova - EBDA,-9.08459,-40.617764,Norte,RPGA do Lago de Sobradinho,0.0,0.0,0.0,0.0,0.0,0.0,0.0,0.0,0.0,0.0,0.0,0.0,0.0,0.0,0.0,0.0,0.0,0.0,0.0,0.0,0.0,0.0,0.0,0.0,0.0,0.0,0.0,0.0,0.0,0.0,0.0,0.0
Remanso,EBDA,Remanso,Remanso - EBDA,-9.601263,-42.08447,Norte,RPGA do Lago de Sobradinho,0.0,0.0,0.0,0.0,0.0,0.0,0.0,0.0,0.0,0.0,0.0,0.0,0.0,0.0,0.0,0.0,0.0,0.0,0.0,0.0,0.0,0.0,0.0,0.0,0.0,0.0,0.0,0.0,0.0,0.0,0.0,0.0
Sento Sé,EBDA,Sento Sé,Sento Sé - EBDA,-9.734599,-41.851131,Norte,RPGA do Lago de Sobradinho,0.0,0.0,0.0,0.0,0.0,0.0,0.0,0.0,0.0,0.0,0.0,0.0,0.0,0.0,0.0,0.0,0.0,0.0,0.0,0.0,0.0,0.0,0.0,0.0,0.0,0.0,0.0,0.0,0.0,0.0,0.0,0.0
Juazeiro -EBDA,,Juazeiro -EBDA,Juazeiro -EBDA,-9.41793,-40.501095,Norte,RPGA dos Rios Macururé e Curaçá,0.0,0.0,0.0,0.0,0.0,0.0,0.0,0.0,0.0,0.0,0.0,0.0,0.0,0.0,0.0,0.0,0.0,0.0,0.0,0.0,0.0,0.0,0.0,0.0,0.0,0.0,0.0,0.0,0.0,0.0,0.0,0.0
Sobradinho,EBDA,Sobradinho,Sobradinho - EBDA,-9.334594,-40.81777,Norte,RPGA do Lago de Sobradinho,0.0,0.0,0.0,0.0,0.0,0.0,0.0,0.0,0.0,0.0,0.0,0.0,0.0,0.0,0.0,0.0,0.0,0.0,0.0,0.0,0.0,0.0,0.0,0.0,0.0,0.0,0.0,0.0,0.0,0.0,0.0,0.0
Central,EBDA,Central,Central - EBDA,-11.151293,-42.11781,Norte,RPGA dos Rios Verde e Jacaré,0.0,0.0,0.0,0.0,0.0,0.0,0.0,0.0,0.0,0.0,0.0,0.0,0.0,0.0,0.0,0.0,0.0,0.0,0.0,0.0,0.0,0.0,0.0,0.0,0.0,0.0,0.0,0.0,0.0,0.0,0.0,0.0
Ibipeba,EBDA,Ibipeba,Ibipeba - EBDA,-11.634638,-42.034476,Norte,RPGA dos Rios Verde e Jacaré,0.0,0.0,0.0,0.0,0.0,0.0,0.0,0.0,0.0,0.0,0.0,0.0,0.0,0.0,0.0,0.0,0.0,0.0,0.0,0.0,0.0,0.0,0.0,0.0,0.0,0.0,0.0,0.0,0.0,0.0,0.0,0.0
Ibititá,EBDA,Ibititá,Ibititá - EBDA,-11.523108,-41.976085,Norte,RPGA dos Rios Verde e Jacaré,0.0,0.0,0.0,0.0,0.0,0.0,0.0,0.0,0.0,0.0,0.0,0.0,0.0,0.0,0.0,0.0,0.0,0.0,0.0,0.0,0.0,0.0,0.0,0.0,0.0,0.0,0.0,0.0,0.0,0.0,0.0,0.0
Irecê,EBDA,Irecê,Irecê - EBDA,-11.317966,-41.867804,Norte,RPGA dos Rios Verde e Jacaré,0.0,0.0,0.0,0.0,0.0,0.0,0.0,0.0,0.0,0.0,0.0,0.0,0.0,0.0,0.0,0.0,0.0,0.0,0.0,0.0,0.0,0.0,0.0,0.0,0.0,0.0,0.0,0.0,0.0,0.0,0.0,0.0
João Dourado,EBDA,João Dourado,João Dourado - EBDA,-11.334633,-41.651131,Norte,RPGA dos Rios Verde e Jacaré,0.0,0.0,0.0,0.0,0.0,0.0,0.0,0.0,0.0,0.0,0.0,0.0,0.0,0.0,0.0,0.0,0.0,0.0,0.0,0.0,0.0,0.0,0.0,0.0,0.0,0.0,0.0,0.0,0.0,0.0,0.0,0.0
Jussara,EBDA,Jussara,Jussara - EBDA,-11.051296,-40.96778,Norte,RPGA do Rio Salitre,0.0,0.0,0.0,0.0,0.0,0.0,0.0,0.0,0.0,0.0,0.0,0.0,0.0,0.0,0.0,0.0,0.0,0.0,0.0,0.0,0.0,0.0,0.0,0.0,0.0,0.0,0.0,0.0,0.0,0.0,0.0,0.0
Lapão,EBDA,Lapão,Lapão - EBDA,-11.367966,-41.817803,Norte,RPGA dos Rios Verde e Jacaré,0.0,0.0,0.0,0.0,0.0,0.0,0.0,0.0,0.0,0.0,0.0,0.0,0.0,0.0,0.0,0.0,0.0,0.0,0.0,0.0,0.0,0.0,0.0,0.0,0.0,0.0,0.0,0.0,0.0,0.0,0.0,0.0
Presidente Dutra,EBDA,Presidente Dutra,Presidente Dutra - EBDA,-11.284632,-41.651131,Norte,RPGA dos Rios Verde e Jacaré,0.0,0.0,0.0,0.0,0.0,0.0,0.0,0.0,0.0,0.0,0.0,0.0,0.0,0.0,0.0,0.0,0.0,0.0,0.0,0.0,0.0,0.0,0.0,0.0,0.0,0.0,0.0,0.0,0.0,0.0,0.0,0.0
Uibaí,EBDA,Uibaí,Uibaí - EBDA,-11.334632,-42.134477,Norte,RPGA dos Rios Verde e Jacaré,0.0,0.0,0.0,0.0,0.0,0.0,0.0,0.0,0.0,0.0,0.0,0.0,0.0,0.0,0.0,0.0,0.0,0.0,0.0,0.0,0.0,0.0,0.0,0.0,0.0,0.0,0.0,0.0,0.0,0.0,0.0,0.0
Irecê,83182,Irecê,Irecê - 83182,-11.3,-41.866667,Norte,RPGA dos Rios Verde e Jacaré,0.0,0.0,0.0,0.0,0.0,0.0,0.0,0.0,0.0,0.0,0.0,0.0,0.0,0.0,0.0,0.0,0.0,0.0,0.0,0.0,0.0,0.0,0.0,0.0,0.0,0.0,0.0,0.0,0.0,0.0,0.0,0.0
Remanso,82979,Remanso,Remanso - 82979,-9.633333,-42.1,Norte,RPGA do Lago de Sobradinho,0.0,0.0,0.0,0.0,0.0,0.0,0.0,0.0,0.0,0.0,0.0,0.0,0.0,0.0,0.0,0.0,0.0,0.0,0.0,0.0,0.0,0.0,0.0,0.0,0.0,0.0,0.0,0.0,0.0,0.0,0.0,0.0
Delfino,A443,Umburanas,Umburanas (Delfino) - A443,-10.45492,-41.206996,Norte,RPGA do Rio Salitre,0.2,0.0,0.0,0.0,0.0,0.0,5.2,2.2,1.4,0.0,0.0,0.0,0.0,0.0,0.0,0.0,0.0,0.0,0.0,0.0,0.6,0.0,0.2,1.0,1.4,0.0,0.0,0.0,0.0,0.0,0.2,12.4
Remanso,A423,Remanso,Remanso - A423,-9.625693,-42.077214,Norte,RPGA do Lago de Sobradinho,0.0,0.0,0.0,0.0,0.0,0.0,0.0,0.0,0.0,0.0,0.0,0.0,0.0,0.0,0.0,0.0,0.0,0.0,0.0,0.0,0.0,0.0,0.0,0.0,0.0,0.0,0.0,0.0,0.0,0.0,0.0,0.0
Irecê,A424,Irecê,Irecê - A424,-11.328998,-41.864504,Norte,RPGA dos Rios Verde e Jacaré,0.0,0.0,0.0,0.0,0.0,0.0,0.0,0.0,0.0,0.0,0.0,0.0,0.0,0.0,0.0,0.0,0.0,0.0,0.0,0.0,0.0,0.0,0.0,0.0,0.0,0.0,0.0,0.0,0.0,0.0,0.0,0.0
Juazeiro,UEP - EMBRAPA -EBDA - EBDA,Juazeiro,Juazeiro - UEP - EMBRAPA -EBDA - EBDA,-9.41293,-40.499706,Norte,RPGA dos Rios Macururé e Curaçá,0.0,0.0,0.0,0.0,0.0,0.0,0.0,0.0,0.0,0.0,0.0,0.0,0.0,0.0,0.0,0.0,0.0,0.0,0.0,0.0,0.0,0.0,0.0,0.0,0.0,0.0,0.0,0.0,0.0,0.0,0.0,0.0
Juazeiro,Est. Exp. Caraíbas - EBDA,Juazeiro,Juazeiro - Est. Exp. Caraíbas - EBDA,-9.418208,-40.510817,Norte,RPGA dos Rios Macururé e Curaçá,0.0,0.0,0.0,0.0,0.0,0.0,7.0,0.0,0.0,0.0,0.0,0.0,0.0,0.0,0.0,0.0,0.0,0.0,0.0,0.0,0.0,0.0,0.0,0.0,0.0,0.0,0.0,0.0,0.0,0.0,0.0,7.0
Juazeiro,Fazenda Brasil Uvas,Juazeiro,Juazeiro - Fazenda Brasil Uvas,-9.316666,-40.183333,Norte,RPGA dos Rios Macururé e Curaçá,0.0,0.0,0.0,0.0,0.0,3.05,0.0,1.78,0.0,0.0,0.0,0.0,0.0,0.0,0.0,0.0,0.0,0.0,0.0,0.0,0.0,0.0,0.0,0.0,0.0,0.0,0.0,0.0,0.0,0.0,0.0,4.83
Juazeiro,Massaroca,Juazeiro,Juazeiro - Massaroca,-9.8,-40.233333,Norte,RPGA dos Rios Macururé e Curaçá,0.4,2.3,0.0,0.0,0.0,0.0,5.2,1.5,0.0,0.0,0.0,0.0,0.0,0.0,0.2,0.0,0.0,0.0,0.0,0.0,0.0,0.0,0.0,0.2,0.0,0.0,0.2,0.0,0.0,0.0,0.9,10.9
Juazeiro,Santa Helena,Juazeiro,Juazeiro - Santa Helena,-9.566666,-40.3,Norte,RPGA dos Rios Macururé e Curaçá,0.0,0.6,0.0,0.0,0.0,0.0,1.6,0.4,0.0,0.0,0.0,0.0,0.0,0.0,0.0,0.0,0.0,0.0,0.0,0.0,0.0,0.0,0.0,0.0,0.0,0.2,0.0,0.0,0.0,0.0,0.0,2.81
Juazeiro,48020000,Juazeiro,Juazeiro - 48020000,-9.4064,-40.5036,Norte,RPGA dos Rios Macururé e Curaçá,0.0,0.0,0.0,0.0,0.0,0.0,1.0,0.0,0.0,0.0,0.0,0.0,0.0,0.0,0.0,0.0,0.0,0.0,0.0,0.0,0.0,0.0,0.0,0.0,0.0,0.0,0.0,0.0,0.0,0.0,2.6,3.6
Irecê,VJ-CL-01,Irecê,Irecê - VJ-CL-01,-11.289166,-41.894166,Norte,RPGA dos Rios Verde e Jacaré,0.0,0.0,0.0,0.0,0.0,0.0,0.0,0.0,0.0,0.0,0.0,0.0,0.0,0.0,0.0,0.0,0.0,0.0,0.0,0.0,0.0,0.0,0.0,0.0,0.0,0.0,0.0,0.0,0.0,0.0,0.0,0.0
Jaguarari,IT-PR-28,Jaguarari,Jaguarari - IT-PR-28,-10.269489,-40.200344,Norte,RPGA do Rio Itapicuru,7.0,0.25,0.0,0.0,0.0,0.0,9.5,6.0,4.25,0.0,0.0,0.0,0.0,0.25,0.0,0.0,0.0,0.0,0.0,0.0,0.75,1.0,0.0,1.75,1.0,0.0,0.0,0.0,0.0,0.0,3.0,34.75
América Dourada,EBDA,América Dourada,América Dourada - EBDA,-11.384635,-41.584464,Norte,RPGA dos Rios Verde e Jacaré,0.0,0.0,0.0,0.0,0.0,0.0,0.0,0.0,0.0,0.0,0.0,0.0,0.0,0.0,0.0,0.0,0.0,0.0,0.0,0.0,0.0,0.0,0.0,0.0,0.0,0.0,0.0,0.0,0.0,0.0,0.0,0.0
São Gabriel,EBDA,São Gabriel,São Gabriel - EBDA,-11.134629,-41.867803,Norte,RPGA dos Rios Verde e Jacaré,0.0,0.0,0.0,0.0,0.0,0.0,0.0,0.0,0.0,0.0,0.0,0.0,0.0,0.0,0.0,0.0,0.0,0.0,0.0,0.0,0.0,0.0,0.0,0.0,0.0,0.0,0.0,0.0,0.0,0.0,0.0,0.0
Campo Formoso,EBDA,Campo Formoso,Campo Formoso - EBDA,-10.501287,-40.317761,Norte,RPGA do Rio Itapicuru,0.0,0.0,3.0,0.0,0.0,24.0,10.0,9.0,4.0,0.0,0.0,4.0,4.0,1.0,0.0,0.0,0.0,0.0,0.0,0.0,0.0,2.0,5.0,10.0,0.0,2.0,0.0,0.0,0.0,12.0,11.0,101.0
Jaguarari,EBDA,Jaguarari,Jaguarari - EBDA,-10.251284,-40.184423,Norte,RPGA do Rio Itapicuru,0.0,0.0,0.0,0.0,31.0,12.0,0.0,0.0,0.0,0.0,0.0,0.0,0.0,0.0,0.0,0.0,0.0,0.0,0.0,0.0,0.0,0.0,0.0,0.0,0.0,0.0,0.0,0.0,0.0,0.0,0.0,43.0
Fazenda Rio Brilhante,,Fazenda Rio Brilhante,Fazenda Rio Brilhante,-12.802859,-45.729985,Oeste,RPGA do Rio Grande,0.0,0.0,0.0,0.0,0.0,0.0,0.0,0.0,0.0,0.0,0.0,0.0,0.0,0.0,0.0,0.0,0.0,0.0,0.0,0.0,0.0,0.0,0.0,0.0,0.0,0.0,0.0,0.0,0.0,0.0,0.0,0.0
Fazenda Morete,,Fazenda Morete,Fazenda Morete,-13.222316,-45.154969,Oeste,"RPGA do Rio Corrente e Riachos do Ramalho, Serra Dourada e Brejo Velho",0.0,0.0,0.0,0.0,0.0,0.0,0.0,0.0,0.0,0.0,0.0,0.0,0.0,0.0,0.0,0.0,0.0,0.0,0.0,0.0,0.0,0.0,0.0,0.0,0.0,0.0,0.0,0.0,0.0,0.0,0.0,0.0
INMET,EBDA,Barreiras,Barreiras (INMET) - EBDA,-12.134635,-44.984551,Oeste,RPGA do Rio Grande,0.0,0.0,0.0,0.0,0.0,0.0,0.0,0.0,0.0,0.0,0.0,0.0,0.0,0.0,0.0,0.0,0.0,0.0,0.0,0.0,0.0,0.0,0.0,0.0,0.0,0.0,0.0,0.0,0.0,0.0,0.0,0.0
SEDE,EBDA,Formosa do Rio Preto,Formosa do Rio Preto (SEDE) - EBDA,-11.051281,-45.201218,Oeste,RPGA do Rio Grande,0.0,0.0,0.0,0.0,0.0,0.0,0.0,0.0,0.0,0.0,0.0,0.0,0.0,0.0,0.0,0.0,0.0,0.0,0.0,0.0,0.0,0.0,0.0,0.0,0.0,0.0,0.0,0.0,0.0,0.0,0.0,0.0
Ponte do Fortunato,,Ponte do Fortunato,Ponte do Fortunato,-14.642348,-45.503045,Oeste,RPGA do Rio Carinhanha,0.0,0.0,0.0,0.0,0.0,0.0,0.0,0.0,0.0,0.0,0.0,0.0,0.0,0.0,0.0,0.0,0.0,0.0,0.0,0.0,0.0,0.0,0.0,0.0,0.0,0.0,0.0,0.0,0.0,0.0,0.0,0.0
Correntina,A416,Correntina,Correntina - A416,-13.332386,-44.617376,Oeste,"RPGA do Rio Corrente e Riachos do Ramalho, Serra Dourada e Brejo Velho",0.0,0.0,0.0,0.0,0.0,0.0,0.0,0.0,0.0,0.0,0.0,0.0,0.0,0.0,0.0,0.0,0.0,0.0,0.0,0.0,0.0,0.0,0.0,0.0,0.0,0.0,0.0,0.0,0.0,0.0,0.0,0.0
Barreiras,83236,Barreiras,Barreiras - 83236,-12.155556,-45.007778,Oeste,RPGA do Rio Grande,0.0,0.0,0.0,0.0,0.0,0.0,0.0,0.0,0.0,0.0,0.0,0.0,0.0,0.0,0.0,0.0,0.0,0.0,0.0,0.0,0.0,0.0,0.0,0.0,0.0,0.0,0.0,0.0,0.0,0.0,0.0,0.0
Correntina,83286,Correntina,Correntina - 83286,-13.332222,-44.617222,Oeste,"RPGA do Rio Corrente e Riachos do Ramalho, Serra Dourada e Brejo Velho",0.0,0.0,0.0,0.0,0.0,0.0,0.0,0.0,0.0,0.0,0.0,0.0,0.0,0.0,0.0,0.0,0.0,0.0,0.0,0.0,0.0,0.0,0.0,0.0,0.0,0.0,0.0,0.0,0.0,0.0,0.0,0.0
SEDE,EBDA,Riachão das Neves,Riachão das Neves (SEDE) - EBDA,-11.747407,-44.911215,Oeste,RPGA do Rio Grande,0.0,0.0,0.0,0.0,0.0,0.0,0.0,0.0,0.0,0.0,0.0,0.0,0.0,0.0,0.0,0.0,0.0,0.0,0.0,0.0,0.0,0.0,0.0,0.0,0.0,0.0,0.0,0.0,0.0,0.0,0.0,0.0
Form. Rio Preto,46550000,Barreiras,Barreiras (Form. Rio Preto) - 46550000,-11.154444,-45.009166,Oeste,RPGA do Rio Grande,0.0,0.6,0.0,0.0,0.0,0.0,0.0,0.0,0.0,0.0,0.0,0.0,0.0,0.0,0.0,0.0,0.0,0.0,0.0,0.0,0.0,0.0,0.0,0.0,0.0,0.0,0.0,0.0,0.0,0.0,0.0,0.6
UEP,S. Francisco) - EBDA,Barreiras,Barreiras (UEP - S. Francisco) - EBDA,-12.167969,-44.984551,Oeste,RPGA do Rio Grande,0.0,0.0,0.0,0.0,0.0,0.0,0.0,0.0,0.0,0.0,0.0,0.0,0.0,0.0,0.0,0.0,0.0,0.0,0.0,0.0,0.0,0.0,0.0,0.0,0.0,0.0,0.0,0.0,0.0,0.0,0.0,0.0
Fz. Mutamba,EBDA,São Desidério,São Desidério (Fz. Mutamba) - EBDA,-12.364639,-44.974551,Oeste,RPGA do Rio Grande,0.0,0.0,0.0,0.0,0.0,0.0,0.0,0.0,0.0,0.0,0.0,0.0,0.0,0.0,0.0,0.0,0.0,0.0,0.0,0.0,0.0,0.0,0.0,0.0,0.0,0.0,0.0,0.0,0.0,0.0,0.0,0.0
Jaborandi,EBDA,Jaborandi,Jaborandi - EBDA,-13.620221,-44.43399,Oeste,"RPGA do Rio Corrente e Riachos do Ramalho, Serra Dourada e Brejo Velho",0.0,0.0,0.0,0.0,0.0,0.0,0.0,0.0,0.0,0.0,0.0,0.0,0.0,0.0,0.0,0.0,0.0,0.0,0.0,0.0,0.0,0.0,0.0,0.0,0.0,0.0,0.0,0.0,0.0,0.0,0.0,0.0
Poção,EBDA,Catolândia,Catolândia (Poção) - EBDA,-12.319361,-44.862326,Oeste,RPGA do Rio Grande,0.0,0.0,0.0,0.0,0.0,0.0,0.0,0.0,0.0,0.0,0.0,0.0,0.0,0.0,0.0,0.0,0.0,0.0,0.0,0.0,0.0,0.0,0.0,0.0,0.0,0.0,0.0,0.0,0.0,0.0,0.0,0.0
Arrojado,45770000,Correntina,Correntina (Arrojado) - 45770000,-13.4528,-44.5689,Oeste,"RPGA do Rio Corrente e Riachos do Ramalho, Serra Dourada e Brejo Velho",0.0,0.0,0.0,0.0,0.0,0.0,0.0,0.0,0.0,0.0,0.0,0.0,0.0,0.0,0.0,0.0,0.0,0.0,0.0,0.0,0.0,0.0,0.0,0.0,0.0,0.0,0.0,0.0,0.0,0.0,0.0,0.0
Correntina,45590000,Correntina,Correntina - 45590000,-13.3406,-44.6386,Oeste,"RPGA do Rio Corrente e Riachos do Ramalho, Serra Dourada e Brejo Velho",0.0,0.0,0.0,0.0,0.0,0.0,0.0,0.0,0.0,0.0,0.0,0.0,0.0,0.0,0.0,0.0,0.0,0.0,0.0,0.0,0.0,0.0,0.0,0.0,0.0,0.0,0.0,0.0,0.0,0.0,0.0,0.0
COACERAL,GR-CL-02,Formosa do Rio Preto,Formosa do Rio Preto (COACERAL) - GR-CL-02,-10.561944,-45.693333,Oeste,RPGA do Rio Grande,0.0,0.0,0.0,0.0,0.0,0.0,0.0,0.0,0.0,0.0,0.0,0.0,0.0,0.0,0.0,0.0,0.0,0.0,0.0,0.0,0.0,0.0,0.0,0.0,0.0,0.0,0.0,0.0,0.0,0.0,0.0,0.0
Barreiras,A402,Barreiras,Barreiras - A402,-12.124715,-45.027049,Oeste,RPGA do Rio Grande,0.0,0.0,0.0,0.0,0.0,0.0,0.0,0.0,0.0,0.0,0.0,0.0,0.0,0.0,0.0,0.0,0.0,0.0,0.0,0.0,0.0,0.0,0.0,0.0,0.0,0.0,0.0,0.0,0.0,0.0,0.0,0.0
Luís Eduardo Magalhães,A404,Luís Eduardo Magalhães,Luís Eduardo Magalhães - A404,-12.152394,-45.829745,Oeste,RPGA do Rio Grande,0.0,0.0,0.0,0.0,0.0,0.0,0.0,0.0,0.0,0.0,0.0,0.0,0.0,0.0,0.0,0.0,0.0,0.0,0.0,0.0,0.0,0.0,0.0,0.0,0.0,0.0,0.0,0.0,0.0,0.0,0.0,0.0
Barreiras,EBDA,Barreiras,Barreiras - EBDA,-12.084632,-45.6679,Oeste,RPGA do Rio Grande,0.0,0.0,0.0,0.0,0.0,0.0,0.0,0.0,0.0,0.0,0.0,0.0,0.0,0.0,0.0,0.0,0.0,0.0,0.0,0.0,0.0,0.0,0.0,0.0,0.0,0.0,0.0,0.0,0.0,0.0,0.0,0.0
São Desidério,R. Velha - GR-CL-01,São Desidério,São Desidério - R. Velha - GR-CL-01,-12.898055,-46.157222,Oeste,RPGA do Rio Grande,0.0,0.0,0.0,0.0,0.0,0.0,0.0,0.0,0.0,0.0,0.0,0.0,0.0,0.0,0.0,0.0,0.0,0.0,0.0,0.0,0.0,0.0,0.0,0.0,0.0,0.0,0.0,0.0,0.0,0.0,0.0,0.0
Santa Inês,EBDA,Santa Inês,Santa Inês - EBDA,-13.28468,-39.834426,Recôncavo,RPGA do Recôncavo Sul,0.0,0.0,4.0,1.0,0.0,5.0,1.0,3.0,8.0,0.0,0.0,0.0,0.0,0.0,0.0,0.0,4.0,0.0,0.0,1.0,3.0,2.0,1.0,6.0,1.0,0.0,0.0,0.0,1.0,0.0,2.0,43.0
Cruz das Almas,A406,Cruz das Almas,Cruz das Almas - A406,-12.675422,-39.08958,Recôncavo,RPGA do Rio Paraguaçu,0.6,0.0,6.8,0.4,0.2,7.6,12.8,0.6,2.2,6.0,0.6,0.2,4.6,3.4,0.2,0.2,8.8,7.4,0.0,5.4,8.4,4.4,7.0,3.4,8.0,0.6,0.2,0.0,0.0,1.8,10.2,112.01
Salvador,Canabrava,Salvador,Salvador - Canabrava,-12.924122,-38.429942,Recôncavo,RPGA do Recôncavo Norte,1.2,0.5,5.6,0.9,0.2,9.1,21.9,1.1,5.7,0.8,0.0,0.4,12.8,0.4,0.0,0.3,10.3,1.9,2.8,16.2,14.2,6.9,0.9,11.1,7.1,2.6,0.1,0.0,1.4,1.6,24.9,162.9
Salvador,Inema -Monte Serrat,Salvador,Salvador - Inema -Monte Serrat,-12.930789,-38.517167,Recôncavo,RPGA do Recôncavo Norte,0.0,1.2,4.8,1.9,1.1,8.5,9.1,1.0,5.8,5.8,1.3,0.2,6.0,1.8,0.0,0.0,20.4,1.5,8.4,12.4,14.8,28.4,0.5,2.6,3.6,0.6,0.0,0.0,0.7,10.1,34.8,187.3
Salvador,19 BC,Salvador,Salvador - 19 BC,-12.961069,-38.461056,Recôncavo,RPGA do Recôncavo Norte,1.5,1.1,2.6,2.1,0.4,12.7,3.2,0.1,3.8,0.4,0.0,0.0,11.3,0.0,0.0,0.6,17.0,1.9,5.7,17.5,8.2,12.1,0.0,3.2,5.3,5.7,0.2,0.0,3.2,3.6,8.2,131.6
Salvador,Base Naval/SSN,Salvador,Salvador - Base Naval/SSN,-12.796341,-38.489389,Recôncavo,RPGA do Recôncavo Norte,0.0,0.0,2.9,2.7,2.0,1.7,2.7,8.3,7.2,0.0,1.0,1.3,11.0,0.0,0.0,0.0,7.3,3.4,1.0,3.6,1.0,4.3,5.5,5.0,7.8,0.0,0.0,0.0,0.0,2.5,31.3,113.5
Salvador,Ilha Amarela,Salvador,Salvador - Ilha Amarela,-12.891344,-38.470778,Recôncavo,RPGA do Recôncavo Norte,3.4,0.2,9.0,1.6,1.4,4.1,38.8,0.8,5.7,0.2,0.1,0.0,10.4,4.4,0.0,0.0,11.6,3.0,7.6,3.7,9.0,2.8,1.2,9.4,8.6,0.5,0.0,0.0,0.1,0.7,44.1,182.4
Feira de Santana,A413,Feira de Santana,Feira de Santana - A413,-12.1962,-38.967384,Recôncavo,RPGA do Recôncavo Norte,0.0,0.0,2.8,0.0,0.0,0.4,8.4,0.8,1.0,2.4,0.2,0.0,4.0,3.2,0.0,0.0,1.0,1.8,0.8,0.8,1.6,0.6,2.8,1.0,2.2,0.0,0.0,0.2,0.0,2.4,28.4,66.81
Alagoinhas,83249,Alagoinhas,Alagoinhas - 83249,-12.148333,-38.425556,Recôncavo,RPGA do Recôncavo Norte,6.7,0.0,3.8,0.3,0.0,6.2,16.0,0.3,0.9,2.2,0.8,6.8,7.1,3.9,0.4,0.0,0.0,2.1,0.4,7.0,6.9,2.8,0.4,1.4,1.4,2.7,0.0,0.2,0.0,0.0,22.7,103.41
Cruz das Almas,83222,Cruz das Almas,Cruz das Almas - 83222,-12.666667,-39.083333,Recôncavo,RPGA do Rio Paraguaçu,0.3,0.0,7.1,0.3,0.0,7.8,15.8,0.2,2.0,6.2,0.4,0.0,5.1,3.4,0.0,0.0,9.8,8.4,0.0,6.4,9.6,4.3,7.2,3.8,8.7,0.5,0.0,0.0,0.0,2.0,12.2,121.51
Feira de Santana,83221,Feira de Santana,Feira de Santana - 83221,-12.196111,-38.967222,Recôncavo,RPGA do Recôncavo Norte,0.0,0.0,2.7,0.0,0.0,0.5,7.3,0.4,0.8,2.4,0.0,0.0,3.2,2.3,0.0,0.0,0.9,1.0,0.5,0.6,1.1,0.4,2.3,0.6,1.6,0.0,0.0,0.0,0.0,0.4,25.0,54.0
Amargosa,A434,Amargosa,Amargosa - A434,-13.009468,-39.616881,Recôncavo,RPGA do Recôncavo Sul,0.0,0.0,3.6,2.4,0.2,6.2,8.4,1.4,2.0,7.4,0.6,0.0,1.8,2.4,0.0,0.2,1.8,4.0,0.6,4.2,13.4,1.2,1.8,1.0,13.2,1.4,0.2,0.0,0.2,10.8,2.8,93.2
Feira de Santana,Fz.C. Mocó - EBDA,Feira de Santana,Feira de Santana - Fz.C. Mocó - EBDA,-12.267996,-38.967732,Recôncavo,RPGA do Rio Paraguaçu,5.0,2.5,0.0,0.0,12.0,8.0,6.0,0.0,0.0,0.0,0.0,0.0,8.0,0.0,0.0,0.0,8.3,0.0,0.0,0.0,5.0,0.0,0.0,0.0,3.5,0.0,0.0,0.0,0.0,0.0,0.0,58.3
Valença,A444,Valença,Valença - A444,-13.34361,-39.12667,Recôncavo,RPGA do Recôncavo Sul,0.0,0.0,8.4,11.2,1.0,54.4,25.2,7.6,19.4,13.0,3.6,0.2,7.4,8.2,0.2,0.2,11.8,8.4,2.2,15.0,20.0,6.4,2.0,0.8,12.0,4.2,0.2,0.0,1.6,22.2,17.0,283.8
Candeias,EMBASA,Candeias,Candeias - EMBASA,-12.663561,-38.533,Recôncavo,RPGA do Recôncavo Norte,0.7,0.0,2.6,0.7,0.0,3.3,18.3,1.1,6.0,5.4,11.8,0.0,15.7,6.2,0.0,0.0,4.8,2.7,2.4,4.2,10.2,2.7,0.3,13.4,18.5,0.0,0.0,0.0,0.0,0.0,35.0,166.01
Dias D´Ávila,EMBASA,Dias D´Ávila,Dias D´Ávila - EMBASA,-12.620505,-38.315217,Recôncavo,RPGA do Recôncavo Norte,0.0,0.0,6.37,4.0,0.0,3.87,30.0,3.37,2.0,9.7,0.0,0.0,28.75,0.0,0.0,0.0,7.5,2.75,0.0,29.0,11.5,5.5,0.15,3.0,0.2,0.25,0.0,0.52,0.0,8.7,30.0,187.13
São Sebastião do Passé-EMBASA,,São Sebastião do Passé-EMBASA,São Sebastião do Passé-EMBASA,-12.517449,-38.492165,Recôncavo,RPGA do Recôncavo Norte,2.5,0.0,2.6,0.75,2.6,1.5,25.9,0.0,3.4,1.2,2.3,0.0,24.4,0.4,0.0,0.0,2.5,0.1,2.1,0.55,20.6,3.5,1.1,3.7,0.8,0.8,0.0,0.0,0.0,0.7,29.9,133.9
Joanes II,322,Simões Filho,Simões Filho (Joanes II) - 322,-12.674147,-38.376254,Recôncavo,RPGA do Recôncavo Norte,3.4,0.0,6.2,2.3,0.4,5.4,24.3,4.0,6.0,5.4,3.2,0.0,15.7,0.2,0.0,0.0,1.8,0.0,2.0,11.0,24.0,3.2,0.3,4.4,8.3,1.2,0.0,0.0,0.0,0.0,24.8,157.5
Santa Helena,323,Camaçari,Camaçari (Santa Helena) - 323,-12.56202,-38.1606,Recôncavo,RPGA do Recôncavo Norte,6.9,0.2,4.9,0.0,0.0,4.9,11.1,1.4,5.6,2.2,1.2,1.5,45.2,0.6,0.0,0.0,5.4,0.0,0.6,31.2,9.2,9.8,1.2,7.4,13.2,2.6,1.6,8.7,0.0,1.2,29.6,207.4
Pedrão,EBDA,Pedrão,Pedrão - EBDA,-12.151329,-38.651056,Recôncavo,RPGA do Recôncavo Norte,0.0,10.0,0.0,10.0,0.0,10.5,0.0,0.0,0.0,0.0,0.0,10.0,9.5,0.0,0.0,0.0,0.0,0.0,0.0,20.0,0.0,0.0,0.0,0.0,14.0,0.0,0.0,0.0,0.0,13.0,14.0,111.0
Igrapiuna,01 - EBDA,Igrapiuna,Igrapiuna - 01 - EBDA,-13.818028,-39.13441,Recôncavo,RPGA do Recôncavo Sul,0.0,0.0,10.7,5.0,10.6,28.6,0.0,7.7,9.4,2.8,2.3,0.0,18.1,0.5,0.0,0.0,0.0,11.9,0.0,37.8,3.8,10.0,0.7,4.6,5.2,5.0,0.0,0.0,33.9,52.3,18.4,279.3
Taperoá,EBDA,Taperoá,Taperoá - EBDA,-13.539411,-39.099685,Recôncavo,RPGA do Recôncavo Sul,4.8,9.4,7.5,6.9,8.7,9.3,8.2,10.0,7.5,6.0,4.2,6.3,2.8,1.3,2.4,1.8,2.2,1.6,2.0,23.1,25.5,5.3,7.3,5.2,8.4,6.6,0.0,8.2,6.7,5.3,0.0,204.5
Ondina,83229,Salvador,Salvador (Ondina) - 83229,-13.005278,-38.505833,Recôncavo,RPGA do Recôncavo Norte,3.2,0.0,3.8,1.3,0.0,11.6,16.3,2.1,6.3,0.2,0.0,0.1,13.8,0.1,0.0,0.0,10.4,13.0,4.1,39.6,18.7,3.0,2.3,3.9,6.6,0.3,0.0,0.0,0.0,18.0,32.5,211.21
São Felipe,EBDA,São Felipe,São Felipe - EBDA,-12.848285,-39.08996,Recôncavo,RPGA do Recôncavo Sul,0.0,0.0,0.0,0.0,0.0,0.0,0.0,0.0,0.0,0.0,0.0,0.0,0.0,0.0,0.0,10.0,5.0,0.0,0.0,0.0,0.0,0.0,0.0,0.0,0.0,0.0,0.0,0.0,0.0,0.0,0.0,15.0
Feira de Santana,PG-PR-13,Feira de Santana,Feira de Santana - PG-PR-13,-12.268161,-38.96642,Recôncavo,RPGA do Rio Paraguaçu,0.5,0.0,1.75,0.0,0.0,0.5,10.25,0.0,0.0,3.5,0.0,0.0,3.0,15.5,0.0,0.0,2.75,6.0,1.25,0.5,0.0,0.5,0.5,0.5,3.75,0.0,0.0,0.5,0.25,0.25,24.5,76.25
Itatim,PG-PR-14,Itatim,Itatim - PG-PR-14,-12.720391,-39.700059,Recôncavo,RPGA do Rio Paraguaçu,0.0,0.0,0.5,0.75,0.25,1.0,4.0,0.25,0.25,0.5,0.25,0.0,0.0,0.75,0.0,0.0,0.0,0.0,0.0,0.25,1.75,0.0,3.0,0.0,1.0,0.75,0.0,0.0,0.0,2.0,0.0,17.25
Salvador,Dois de Julho MAS,Salvador,Salvador - Dois de Julho MAS,-12.979402,-38.51689,Recôncavo,RPGA do Recôncavo Norte,0.0,0.0,2.3,3.4,0.0,7.2,12.5,12.0,1.9,2.4,0.0,0.6,0.4,0.6,0.0,0.0,0.4,0.4,4.9,21.5,13.5,3.0,2.4,3.7,7.8,3.1,0.0,0.0,0.2,17.6,17.9,139.71
Salvador,Itapuã - RN-CL-01,Salvador,Salvador - Itapuã - RN-CL-01,-12.931388,-38.361111,Recôncavo,RPGA do Recôncavo Norte,1.2,0.4,4.2,0.7,0.1,8.7,22.5,1.2,5.4,0.6,0.0,0.3,12.1,0.3,0.0,0.0,9.9,1.7,2.8,15.0,14.3,5.6,0.7,10.1,5.9,2.2,0.1,0.0,1.1,1.2,26.5,154.8
Muritiba,PG-PR-12,Muritiba,Muritiba - PG-PR-12,-12.617895,-39.005591,Recôncavo,RPGA do Rio Paraguaçu,0.0,0.0,3.5,0.75,1.25,4.25,19.5,0.75,8.25,1.25,5.0,0.0,4.5,0.25,0.0,0.0,12.75,13.5,0.25,4.25,7.75,2.75,0.75,1.75,4.5,0.25,0.0,0.0,0.25,5.75,13.75,117.5
Amargosa,EBDA,Amargosa,Amargosa - EBDA,-13.034677,-39.601086,Recôncavo,RPGA do Recôncavo Sul,0.0,0.0,7.4,8.7,7.8,8.0,1.7,4.0,10.1,10.0,0.0,2.6,1.6,0.0,0.0,0.0,9.7,0.0,0.0,18.7,1.0,0.0,0.0,4.8,10.0,0.0,0.0,4.6,8.0,0.0,10.0,128.7
Santo Amaro,EBDA,Santo Amaro,Santo Amaro - EBDA,-12.551335,-38.701059,Recôncavo,RPGA do Recôncavo Norte,0.0,0.0,2.5,0.0,5.5,0.7,23.0,9.0,0.0,0.0,0.0,0.0,0.0,1.3,0.0,0.0,2.0,2.5,5.5,1.3,0.0,0.0,0.0,9.0,9.0,7.0,0.0,0.0,0.0,0.0,0.0,78.3
Itaparica,EBDA,Itaparica,Itaparica - EBDA,-12.884677,-38.684395,Recôncavo,RPGA do Recôncavo Sul,0.0,5.4,2.3,0.3,8.2,24.5,4.8,5.0,5.5,0.1,1.0,10.2,3.3,0.0,0.0,3.1,15.0,5.1,8.5,15.2,7.1,0.3,10.4,14.8,8.0,0.0,0.0,1.0,16.3,24.6,27.4,227.4
Muritiba,EBDA,Muritiba,Muritiba - EBDA,-12.618004,-38.984401,Recôncavo,RPGA do Rio Paraguaçu,0.0,0.0,0.0,0.0,0.0,22.5,2.0,10.0,0.5,5.0,0.0,6.0,2.5,0.0,0.0,0.0,30.0,0.0,0.0,15.0,4.0,0.0,0.0,7.5,0.0,0.0,0.0,0.0,5.0,17.5,0.0,127.5
Santo Antônio de Jesus,EBDA,Santo Antônio de Jesus,Santo Antônio de Jesus - EBDA,-12.96801,-39.267744,Recôncavo,RPGA do Recôncavo Sul,0.0,2.5,3.5,4.0,20.0,19.5,9.0,11.0,0.0,0.0,0.0,5.0,0.0,0.0,0.0,3.5,0.0,0.0,0.0,38.5,1.5,6.5,4.0,25.0,5.0,0.0,0.0,0.0,0.0,0.0,0.0,158.5
Gandu,EBDA,Gandu,Gandu - EBDA,-13.751359,-39.484419,Recôncavo,RPGA do Recôncavo Sul,0.0,0.0,2.5,8.0,9.1,3.4,6.5,3.3,5.22,1.3,3.4,0.0,1.1,2.9,0.0,0.0,0.9,1.0,0.0,3.1,8.7,4.7,4.6,0.0,10.0,1.0,0.0,0.0,9.1,10.5,3.4,103.72
Ubaíra,EBDA,Ubaíra,Ubaíra - EBDA,-13.268014,-39.667756,Recôncavo,RPGA do Recôncavo Sul,0.0,3.7,8.4,0.5,0.0,10.0,1.4,0.0,0.0,0.0,0.0,4.6,0.0,0.5,5.7,0.0,0.0,1.3,0.0,12.8,2.2,2.7,0.0,0.0,0.0,0.0,0.0,0.0,0.0,0.0,0.0,53.81
Castro Alves,EBDA,Castro Alves,Castro Alves - EBDA,-12.751338,-39.434413,Recôncavo,RPGA do Rio Paraguaçu,0.0,0.0,0.0,0.0,15.0,7.5,5.0,0.0,0.0,0.0,0.0,0.0,0.0,0.0,0.0,0.0,0.0,0.0,0.0,0.0,0.0,0.0,0.0,0.0,0.0,0.0,0.0,0.0,0.0,0.0,0.0,27.5
Cruz das Almas,EBDA,Cruz das Almas,Cruz das Almas - EBDA,-12.668004,-39.101071,Recôncavo,RPGA do Rio Paraguaçu,0.0,0.0,0.0,0.0,28.0,0.0,0.0,0.0,0.0,0.0,0.0,0.0,0.0,0.0,0.0,0.0,20.0,5.0,0.0,19.0,0.0,0.0,0.0,25.0,0.0,0.0,0.0,0.0,0.0,0.0,0.0,97.0
Conceição do Almeida,EBDA,Conceição do Almeida,Conceição do Almeida - EBDA,-12.768005,-39.16774,Recôncavo,RPGA do Recôncavo Sul,0.0,0.0,0.0,0.0,0.0,12.5,17.5,3.5,2.0,0.0,3.5,0.0,2.0,4.0,0.0,0.0,8.0,7.5,0.0,13.0,9.0,0.0,0.0,0.0,0.0,0.0,0.0,0.0,0.0,0.0,0.0,82.5
Alagoinhas,EBDA,Alagoinhas,Alagoinhas - EBDA,-12.134662,-38.434384,Recôncavo,RPGA do Recôncavo Norte,0.1,4.1,0.0,2.7,4.6,13.0,0.3,6.6,0.8,4.4,3.9,7.7,1.8,0.2,0.0,0.0,3.0,0.9,6.4,7.8,0.7,3.1,2.1,9.3,1.5,0.0,0.8,0.0,0.0,18.4,0.7,104.9
Aramari,EBDA,Aramari,Aramari - EBDA,-12.08466,-38.501053,Recôncavo,RPGA do Recôncavo Norte,0.0,0.0,0.0,0.0,6.8,11.6,0.0,3.4,2.0,4.4,0.0,7.8,9.2,1.0,0.0,0.0,0.0,1.9,9.0,8.8,2.3,0.0,0.0,4.2,6.4,1.2,0.8,0.0,0.0,10.0,4.8,95.6
Mata de São João,EBDA,Mata de São João,Mata de São João - EBDA,-12.534671,-38.30105,Recôncavo,RPGA do Recôncavo Norte,0.0,0.0,0.0,17.0,2.0,0.0,29.0,0.0,0.0,0.0,9.0,21.0,0.0,0.0,0.0,0.0,8.0,0.0,14.0,11.0,15.0,2.0,0.0,0.0,13.0,6.0,0.0,0.0,6.0,12.0,18.0,183.0
Catu,EBDA,Catu,Catu - EBDA,-12.351333,-38.384384,Recôncavo,RPGA do Recôncavo Norte,22.0,0.0,5.5,0.0,0.0,0.0,20.0,0.0,5.0,5.0,2.5,0.0,10.5,0.0,2.5,0.0,0.0,2.5,5.0,5.0,10.0,0.0,2.0,0.0,0.0,0.0,10.5,0.5,0.0,0.0,25.0,133.5
Salvador,CIA,Salvador,Salvador - CIA,-12.865789,-38.365219,Recôncavo,RPGA do Recôncavo Norte,1.0,0.0,10.0,0.0,0.0,6.0,40.0,2.0,8.0,1.5,0.0,1.0,15.0,1.0,0.0,0.0,4.0,2.0,0.0,16.0,20.0,3.0,2.0,20.0,10.0,0.0,0.0,0.0,0.0,0.0,40.0,202.5
Feira de Santana,EBDA,Feira de Santana,Feira de Santana - EBDA,-12.268274,-38.96801,Recôncavo,RPGA do Rio Paraguaçu,0.0,2.2,0.0,0.0,0.0,12.7,0.0,0.0,0.0,5.7,0.0,0.0,0.0,0.0,0.0,0.0,0.0,12.0,0.0,0.0,0.0,0.0,0.0,5.0,0.0,0.0,0.0,0.0,0.0,0.0,0.0,37.6
Abaeté,RN-PR-01,Salvador,Salvador (Abaeté) - RN-PR-01,-12.945407,-38.361404,Recôncavo,RPGA do Recôncavo Norte,1.0,0.0,0.0,0.0,0.0,7.4,24.2,1.4,4.4,0.0,0.0,0.0,1.0,0.0,0.0,0.0,8.8,1.0,2.8,11.6,14.6,1.6,0.0,7.0,2.4,1.0,0.0,0.0,0.0,0.0,31.4,121.6
Espinheira,,Espinheira,Espinheira,-14.283478,-41.75792,Sudoeste,RPGA do Rio de Contas,0.0,0.0,0.0,0.0,0.0,0.0,0.0,0.0,0.0,0.0,0.0,0.0,0.0,0.0,0.0,0.0,0.0,0.0,0.0,0.0,1.0,0.0,0.0,0.0,0.0,0.0,0.0,0.0,0.0,0.0,0.0,1.0
Maracás,EBDA,Maracás,Maracás - EBDA,-13.43468,-40.434443,Sudoeste,RPGA do Rio de Contas,0.0,0.0,0.0,0.0,0.0,0.0,0.0,0.0,0.0,0.0,0.0,0.0,0.0,0.0,0.0,0.0,0.0,0.0,0.0,0.0,0.0,0.0,7.0,0.0,0.0,0.0,3.0,0.0,0.0,0.0,0.0,10.0
Itiruçu,A407,Itiruçu,Itiruçu - A407,-13.52629,-40.12055,Sudoeste,RPGA do Recôncavo Sul,0.0,0.0,2.2,5.6,4.4,4.6,6.6,1.8,1.8,6.6,0.6,0.0,0.2,5.6,0.0,0.0,0.8,4.6,1.4,0.2,5.4,3.8,2.0,0.0,3.2,0.4,0.4,0.0,2.6,5.2,1.6,71.6
Vitória da Conquista,A414,Vitória da Conquista,Vitória da Conquista - A414,-14.886428,-40.80133,Sudoeste,RPGA do Rio Pardo,0.0,0.0,0.0,1.0,0.2,0.2,0.0,0.8,0.8,2.4,0.0,0.0,0.0,1.4,0.0,0.0,0.8,1.2,0.4,3.4,1.2,0.6,0.0,0.0,2.2,1.0,0.0,0.0,0.6,0.8,0.0,19.01
Condeúba,EBDA,Condeúba,Condeúba - EBDA,-14.884701,-41.984489,Sudoeste,RPGA do Rio de Contas,0.0,0.0,0.0,0.0,0.0,0.0,0.0,0.0,0.0,0.0,0.0,0.0,0.0,0.0,0.0,0.0,0.0,0.0,0.0,0.0,0.0,0.0,0.0,0.0,0.0,0.0,0.0,0.0,0.0,0.0,0.0,0.0
Brumado,EBDA,Brumado,Brumado - EBDA,-14.201356,-41.651143,Sudoeste,RPGA do Rio de Contas,0.0,0.0,0.0,0.0,0.0,0.0,0.0,0.0,0.0,0.0,0.0,0.0,0.0,0.0,0.0,0.0,0.0,0.0,0.0,0.0,0.0,0.0,0.0,0.0,0.0,0.0,0.0,0.0,0.0,0.0,0.0,0.0
Ituaçu,83292,Ituaçu,Ituaçu - 83292,-13.812778,-41.3,Sudoeste,RPGA do Rio de Contas,0.0,0.0,0.0,0.0,0.0,1.6,0.0,0.0,0.0,0.0,0.0,0.0,0.0,1.5,0.0,0.0,0.0,0.0,0.0,0.0,7.1,0.0,0.0,0.0,1.9,0.0,0.0,0.0,0.9,0.0,0.0,13.0
Vitória da Conquista,83344,Vitória da Conquista,Vitória da Conquista - 83344,-14.883333,-40.8,Sudoeste,RPGA do Rio Pardo,0.0,0.0,0.0,1.1,0.3,0.0,0.0,0.5,0.7,2.1,0.0,0.0,0.0,1.0,0.0,0.0,0.9,1.9,0.5,3.6,1.2,0.6,0.1,0.0,2.3,1.8,0.0,0.0,0.8,1.0,0.0,20.4
Jaguaquara,83295,Ituruçu,Ituruçu (Jaguaquara) - 83295,-13.527828,-40.119752,Sudoeste,RPGA do Recôncavo Sul,0.0,0.0,2.1,5.0,4.2,4.8,6.2,1.6,1.7,6.0,0.3,0.0,0.0,5.3,0.0,0.0,0.8,4.4,1.1,0.2,5.2,3.5,1.8,0.0,2.8,0.2,0.0,0.0,2.7,4.7,1.0,65.61
Brumado,A433,Brumado,Brumado - A433,-14.181886,-41.672281,Sudoeste,RPGA do Rio de Contas,0.0,0.0,0.0,0.0,0.0,0.6,0.2,0.0,0.0,0.0,0.0,0.0,0.0,0.0,0.0,0.0,0.0,0.0,0.0,0.0,4.8,0.0,0.0,0.0,0.2,0.0,0.0,0.0,0.0,0.0,0.0,5.8
Jequié,EBDA,Jequié,Jequié - EBDA,-13.851356,-40.084435,Sudoeste,RPGA do Rio de Contas,0.0,0.0,2.0,0.0,0.0,0.0,4.0,0.0,3.2,0.0,0.0,0.0,0.0,0.0,0.0,0.0,2.0,2.0,0.0,7.0,0.0,0.0,2.0,3.0,0.0,0.0,0.0,0.0,0.0,7.5,0.0,32.7
Ipiaú,A445,Ipiaú,Ipiaú - A445,-14.171304,-39.692502,Sudoeste,RPGA do Rio de Contas,0.2,0.2,2.2,8.4,1.6,7.6,3.8,1.8,7.6,2.0,0.2,0.0,3.0,2.8,0.0,0.2,0.2,1.2,9.4,1.2,18.0,8.6,5.2,2.0,9.4,0.2,0.2,0.0,1.0,6.8,1.0,106.01
Itapetinga,A446,Itapetinga,Itapetinga - A446,-15.24462,-40.22955,Sudoeste,RPGA do Rio Pardo,0.0,0.0,0.0,0.2,0.0,0.2,0.0,4.2,0.8,6.6,0.0,0.0,0.0,0.2,0.0,0.0,2.0,14.0,0.0,5.6,15.8,13.0,1.2,0.2,4.4,2.6,0.0,0.0,0.2,0.4,0.0,71.61
Jacaraci,EBDA,Jacaraci,Jacaraci - EBDA,-14.784698,-42.451167,Sudoeste,RPGA do Rio de Contas,0.0,0.0,0.0,0.0,0.0,0.0,0.0,0.0,0.0,0.0,0.0,0.0,0.0,0.0,0.0,0.0,0.0,0.0,0.0,0.0,0.0,0.0,0.0,0.0,0.0,0.0,0.0,0.0,0.0,0.0,0.0,0.0
Rio do Antônio,EBDA,Rio do Antônio,Rio do Antônio - EBDA,-14.318023,-42.117824,Sudoeste,RPGA do Rio de Contas,0.0,0.0,0.0,0.0,0.0,0.0,0.0,0.0,0.0,0.0,0.0,0.0,0.0,0.0,0.0,0.0,0.0,0.0,0.0,0.0,0.0,0.0,0.0,0.0,0.0,0.0,0.0,0.0,0.0,0.0,0.0,0.0
Ibiassucê,EBDA,Ibiassucê,Ibiassucê - EBDA,-14.2608,-42.258105,Sudoeste,RPGA do Rio de Contas,0.0,0.0,0.0,0.0,0.0,0.0,0.0,0.0,0.0,0.0,0.0,0.0,0.0,0.0,0.0,0.0,0.0,0.0,0.0,0.0,0.0,0.0,0.0,0.0,0.0,0.0,0.0,0.0,0.0,0.0,0.0,0.0
Aracatu,EBDA,Aracatu,Aracatu - EBDA,-14.42914,-41.463085,Sudoeste,RPGA do Rio de Contas,0.0,0.0,0.0,0.0,0.0,0.0,0.0,0.0,0.0,0.0,0.0,0.0,0.0,0.0,0.0,0.0,0.0,0.0,0.0,0.0,0.0,0.0,0.0,0.0,0.0,0.0,0.0,0.0,0.0,0.0,0.0,0.0
Cordeiros,EBDA,Cordeiros,Cordeiros - EBDA,-15.04026,-41.936155,Sudoeste,RPGA do Rio de Contas,0.0,0.0,0.0,0.0,0.0,0.0,0.0,0.0,0.0,0.0,0.0,0.0,0.0,0.0,0.0,0.0,0.0,0.0,0.0,0.0,0.0,0.0,0.0,0.0,0.0,0.0,0.0,0.0,0.0,0.0,0.0,0.0
Guajeru,EBDA,Guajeru,Guajeru - EBDA,-14.548306,-41.941155,Sudoeste,RPGA do Rio de Contas,0.0,0.0,0.0,0.0,0.0,0.0,0.0,0.0,0.0,0.0,0.0,0.0,0.0,0.0,0.0,0.0,0.0,0.0,0.0,0.0,0.0,0.0,0.0,0.0,0.0,0.0,0.0,0.0,0.0,0.0,0.0,0.0
Itiruçu,EBDA,Itiruçu,Itiruçu - EBDA,-13.534683,-40.151101,Sudoeste,RPGA do Rio de Contas,0.0,0.0,10.0,7.5,5.0,6.0,0.0,0.0,0.0,0.0,0.0,0.0,12.0,0.0,0.0,0.0,0.0,5.0,0.0,7.5,0.0,0.0,0.0,3.0,4.5,0.0,0.0,5.0,10.0,0.0,5.0,80.5
Ipiaú,EBDA,Ipiaú,Ipiaú - EBDA,-14.134698,-39.734428,Sudoeste,RPGA do Rio de Contas,0.0,0.0,2.3,5.5,1.8,6.4,1.5,1.2,3.8,2.2,0.0,0.0,2.6,6.0,0.0,0.0,0.0,5.8,0.4,11.5,13.0,6.6,9.7,0.4,5.7,6.8,4.3,0.0,2.4,10.7,1.6,112.2
Jaguaquara,EBDA,Jaguaquara,Jaguaquara - EBDA,-13.534684,-39.984431,Sudoeste,RPGA do Recôncavo Sul,0.0,0.0,4.5,0.0,2.5,3.0,5.0,1.0,0.0,3.0,0.0,0.0,0.5,0.0,0.0,2.0,0.0,0.0,0.0,2.5,2.5,3.5,0.0,1.5,0.0,0.5,0.0,0.0,5.0,2.0,6.5,45.5
Lajedo do Tabocal,EBDA,Lajedo do Tabocal,Lajedo do Tabocal - EBDA,-13.47635,-40.22416,Sudoeste,RPGA do Rio de Contas,0.0,0.0,10.0,2.5,7.5,6.0,0.0,1.5,1.0,0.0,0.0,0.0,0.0,0.0,0.0,0.0,0.0,0.0,0.0,0.0,7.5,5.0,0.0,2.5,2.5,0.0,0.0,3.0,5.0,2.5,2.5,59.0
Itaquara,EBDA,Itaquara,Itaquara - EBDA,-13.452183,-39.942209,Sudoeste,RPGA do Recôncavo Sul,0.0,0.0,6.0,0.0,4.0,5.0,7.0,8.0,0.0,0.0,5.0,0.0,0.0,0.0,0.0,0.0,4.0,0.0,0.0,0.0,3.0,8.0,0.0,3.5,0.0,0.0,0.0,0.0,7.0,10.0,8.0,78.5
Anagé,CO-CL-01,Anagé,Anagé - CO-CL-01,-14.618055,-41.149722,Sudoeste,RPGA do Rio de Contas,0.0,0.0,0.0,0.0,0.0,0.0,0.0,0.0,0.0,0.0,1.25,0.0,0.0,1.25,0.0,0.0,0.0,2.25,0.0,0.0,0.0,0.25,0.0,0.0,0.0,0.0,0.0,0.0,0.0,0.0,0.0,5.0
Jaguaquara,RS-CL-01,Jaguaquara,Jaguaquara - RS-CL-01,-13.573055,-39.940833,Sudoeste,RPGA do Recôncavo Sul,0.0,0.0,2.25,4.0,0.5,4.0,4.0,4.75,4.25,0.25,0.0,0.0,0.0,1.25,0.25,0.0,2.5,0.25,1.25,2.25,3.5,4.0,2.75,0.0,4.25,1.0,0.25,0.0,0.5,10.0,3.5,61.5
Jequié,CO-CL-03,Jequié,Jequié - CO-CL-03,-13.873055,-40.071944,Sudoeste,RPGA do Rio de Contas,0.0,0.0,0.0,1.75,0.0,0.0,0.0,1.5,0.25,1.0,0.0,0.0,0.0,0.0,0.0,0.0,0.5,0.0,0.25,0.0,8.5,0.5,0.75,0.0,1.0,0.0,0.0,0.0,0.25,3.25,0.25,19.75
Vitória da Conquista,PA-CL-01,Vitória da Conquista,Vitória da Conquista - PA-CL-01,-14.886111,-40.800833,Sudoeste,RPGA do Rio Pardo,0.0,0.0,0.0,0.5,0.25,0.0,0.0,0.25,0.5,2.0,0.0,0.0,0.0,1.0,0.0,0.0,0.5,1.5,0.0,2.75,0.75,0.0,0.5,0.0,1.5,0.75,0.0,0.0,0.25,0.75,0.0,13.75
Tremedal,CO-PR-03,Tremedal,Tremedal - CO-PR-03,-14.980998,-41.410135,Sudoeste,RPGA do Rio de Contas,0.0,0.0,0.0,0.0,0.0,0.0,0.0,0.0,0.0,0.0,0.0,0.0,0.0,0.0,0.0,0.0,0.0,0.0,0.0,0.0,1.5,0.0,0.0,0.0,0.0,0.0,0.0,0.0,0.0,0.0,0.0,1.5
Fz Nanci,53880000,Camacã,Camacã (Fz Nanci) - 53880000,-15.581395,-39.521095,Sul,RPGA do Rio Pardo,0.0,0.0,0.0,0.0,1.0,0.0,0.0,2.0,1.0,1.0,0.0,0.0,0.0,5.0,0.0,0.0,3.0,16.0,0.0,13.0,9.0,4.0,7.0,4.0,0.0,0.0,0.0,0.0,2.0,0.0,0.0,68.0
Ilhéus,A410,Ilhéus,Ilhéus - A410,-14.658803,-39.181438,Sul,RPGA do Leste,0.0,0.2,1.4,8.6,2.8,7.6,2.6,0.0,10.4,5.0,0.6,0.2,14.6,0.4,0.0,0.0,0.8,3.0,0.6,9.8,23.6,7.0,1.8,0.4,8.6,1.6,0.4,0.0,3.2,23.4,0.0,138.61
Canavieiras,83398,Canavieiras,Canavieiras - 83398,-15.666667,-38.95,Sul,RPGA do Rio Pardo,0.0,0.0,0.0,1.1,0.9,4.9,0.0,0.5,5.5,0.0,0.0,0.0,2.6,8.4,0.0,1.6,34.6,20.8,0.0,41.7,43.7,15.6,4.2,5.4,0.0,0.0,0.0,0.0,19.7,8.5,2.1,221.8
Caravelas,83498,Caravelas,Caravelas - 83498,-17.739167,-39.258333,Sul,"RPGA dos Rios Peruípe, Itanhém e Jucuruçu",0.0,0.0,0.0,1.9,0.0,0.0,0.2,4.0,4.7,2.2,0.0,0.0,1.3,0.0,0.0,5.0,5.3,0.0,8.6,64.0,10.2,6.0,0.0,0.0,8.1,0.0,0.0,1.0,18.2,0.2,0.0,140.9
Camacã,EBDA,Camacã,Camacã - EBDA,-15.418056,-39.501095,Sul,RPGA do Rio Pardo,0.0,3.0,4.0,0.0,0.0,0.0,0.0,5.5,4.5,15.6,2.5,0.0,0.0,6.6,1.1,2.4,0.0,8.9,0.0,7.4,0.0,0.0,20.0,10.0,9.8,0.0,5.5,0.0,4.6,2.5,0.0,113.9
Guaratinga,83446,Guaratinga,Guaratinga - 83446,-16.58,-39.78,Sul,"RPGA dos Rios dos Frades, Buranhém e Santo Antônio",0.0,0.0,0.0,0.0,0.8,0.0,0.0,3.4,2.0,0.0,3.0,0.0,0.0,1.0,0.0,0.0,4.4,23.0,0.0,20.0,21.4,9.8,0.0,0.0,3.4,0.0,0.0,0.0,0.0,0.3,0.0,92.5
Coaraci,EBDA,Coaraci,Coaraci - EBDA,-14.634708,-39.551092,Sul,RPGA do Leste,1.3,1.8,1.3,1.5,1.4,2.2,1.2,2.2,1.1,2.1,3.0,1.0,1.5,1.2,0.7,0.0,0.0,0.0,16.6,19.4,2.1,1.1,1.2,5.4,2.2,0.0,0.0,2.8,7.2,8.3,7.9,97.7
Ibicaraí,EBDA,Ibicaraí,Ibicaraí - EBDA,-14.868046,-39.584428,Sul,RPGA do Leste,0.0,0.0,0.0,0.0,4.5,3.0,0.6,1.1,8.4,0.0,0.0,0.0,4.6,8.5,0.0,0.8,0.0,12.1,0.0,0.8,10.9,5.6,2.8,3.6,3.0,2.0,0.3,0.0,1.7,3.3,0.0,77.6
Ilhéus,01 - EBDA,Ilhéus,Ilhéus - 01 - EBDA,-14.784713,-39.05108,Sul,RPGA do Leste,0.0,0.0,0.0,0.0,11.0,0.0,0.0,0.0,42.8,0.0,0.0,5.0,0.0,0.0,17.5,0.0,0.0,0.0,4.0,0.0,46.0,0.0,0.0,21.0,0.0,0.0,20.0,0.0,0.0,47.0,0.0,214.3
Ubaitaba,EBDA,Ubaitaba,Ubaitaba - EBDA,-14.318037,-39.31775,Sul,RPGA do Rio de Contas,0.0,0.0,10.0,0.0,6.5,2.0,10.5,0.0,11.0,6.0,0.0,0.4,5.6,7.8,0.0,0.0,0.0,0.0,8.0,25.0,7.5,5.0,4.0,2.0,2.0,0.0,0.0,0.0,0.0,6.0,0.0,119.3
Canavieiras,EBDA,Canavieiras,Canavieiras - EBDA,-15.684731,-38.95108,Sul,RPGA do Rio Pardo,0.0,0.0,0.0,1.0,0.0,0.0,6.8,0.4,5.1,0.0,0.0,0.0,0.1,0.0,0.0,5.3,22.4,9.3,0.0,42.6,0.0,43.3,0.0,6.8,0.0,0.0,0.0,0.0,21.0,0.0,1.8,165.91
Una,EBDA,Una,Una - EBDA,-15.301389,-39.084416,Sul,RPGA do Leste,0.0,0.0,8.4,0.2,10.8,0.0,0.0,16.8,4.3,0.0,0.0,5.1,0.0,0.0,0.0,2.6,16.5,0.0,25.8,30.1,12.9,0.0,5.8,18.1,0.0,0.0,3.4,8.3,4.2,16.6,0.0,189.9
Maraú,A438,Maraú,Maraú - A438,-13.90694,-38.97222,Sul,RPGA do Recôncavo Sul,0.0,0.0,18.2,9.0,4.0,19.6,28.4,6.2,9.8,9.4,3.6,0.2,4.2,11.0,0.0,0.0,1.6,9.8,2.2,22.6,18.0,4.6,0.0,9.2,9.8,4.4,0.0,0.0,15.6,64.2,12.4,298.0
Una,A437,Una,Una - A437,-15.280215,-39.09127,Sul,RPGA do Leste,0.0,0.2,0.0,7.8,0.6,9.2,0.0,2.2,21.6,3.2,0.8,0.2,3.2,0.2,0.0,0.0,2.4,6.0,1.0,26.2,26.8,9.4,0.2,9.0,22.8,0.8,0.2,0.0,14.2,7.0,0.0,175.2
Porto Seguro,A427,Porto Seguro,Porto Seguro - A427,-16.388977,-39.182389,Sul,"RPGA dos Rios dos Frades, Buranhém e Santo Antônio",0.2,0.0,0.2,1.0,5.0,0.2,0.2,7.8,12.6,0.0,2.4,0.2,0.2,0.0,0.2,3.0,30.4,0.8,8.8,99.8,26.2,3.4,1.2,1.8,7.0,0.0,0.2,0.2,23.0,2.4,0.2,238.6
Belmonte,A447,Belmonte,Belmonte - A447,-16.08487,-39.21726,Sul,"RPGA dos Rios dos Frades, Buranhém e Santo Antônio",0.0,0.2,0.2,0.0,5.6,0.2,0.0,5.8,13.2,0.4,14.6,0.0,7.0,0.4,0.0,8.4,21.2,2.6,0.6,64.8,21.6,12.8,0.4,6.8,19.6,0.0,0.2,0.0,6.0,0.6,0.0,213.2
Ilhéus,02 - EBDA,Ilhéus,Ilhéus - 02 - EBDA,-14.790269,-39.050524,Sul,RPGA do Leste,0.0,0.0,10.2,0.0,16.0,15.0,0.0,15.1,14.0,0.0,0.0,23.3,10.0,0.0,0.0,0.0,13.0,0.0,30.0,13.0,0.0,10.6,7.0,13.0,21.0,0.0,0.0,0.0,30.0,0.0,31.5,272.71
Itapitanga,EBDA,Itapitanga,Itapitanga - EBDA,-14.424149,-39.567758,Sul,RPGA do Rio de Contas,0.0,0.0,0.0,0.0,3.7,0.0,0.0,0.0,0.0,0.0,0.0,6.3,0.4,0.0,0.0,0.0,0.0,0.0,1.8,6.0,3.8,0.0,6.0,6.6,0.0,0.0,0.0,0.0,0.0,1.0,2.0,37.6
Medeiros Neto,EBDA,Medeiros Neto,Medeiros Neto - EBDA,-17.368089,-40.234458,Sul,"RPGA dos Rios Peruípe, Itanhém e Jucuruçu",0.0,0.0,0.0,0.0,0.0,0.0,1.0,2.0,1.0,0.0,0.0,0.0,2.0,0.0,0.0,1.0,0.0,0.0,14.0,10.0,9.0,0.0,0.0,5.0,0.0,0.0,0.0,4.0,6.0,0.0,0.0,55.0
Itanhém,EBDA,Itanhém,Itanhém - EBDA,-17.134752,-40.334459,Sul,"RPGA dos Rios Peruípe, Itanhém e Jucuruçu",0.5,0.0,0.0,0.0,0.0,2.6,0.0,0.0,0.0,0.0,0.0,4.6,2.0,1.8,0.0,0.0,0.0,3.9,0.0,0.0,0.0,0.0,0.0,0.0,0.0,0.0,0.0,2.5,5.5,0.0,0.0,23.4
Nova Viçosa,EBDA,Nova Viçosa,Nova Viçosa - EBDA,-17.884771,-39.38444,Sul,"RPGA dos Rios Peruípe, Itanhém e Jucuruçu",0.0,0.0,0.0,0.0,0.0,0.0,0.0,0.6,0.0,0.0,0.0,4.4,0.0,0.0,0.0,0.0,0.0,0.0,16.6,49.4,13.9,0.0,0.0,0.0,0.0,4.4,0.0,0.0,0.0,0.0,0.0,89.31
Mucuri,EBDA,Mucuri,Mucuri - EBDA,-18.084773,-39.55111,Sul,RPGA do Rio Mucuri,0.0,0.0,0.0,0.0,5.0,0.0,10.0,0.0,0.0,0.0,0.0,5.0,0.0,0.0,0.0,0.0,0.0,0.0,20.0,20.0,7.0,0.0,0.0,5.0,5.0,0.0,0.0,0.0,0.0,0.0,0.0,77.0
Itamaraju,EBDA,Itamaraju,Itamaraju - EBDA,-17.068089,-39.534438,Sul,"RPGA dos Rios Peruípe, Itanhém e Jucuruçu",0.0,0.0,0.0,0.0,0.0,0.0,0.0,0.9,4.6,0.0,0.0,0.0,0.0,0.0,0.0,3.7,12.0,7.3,4.0,4.0,12.0,8.3,0.0,0.0,7.5,0.0,0.0,0.0,1.7,5.0,0.0,71.0
Ubatã,EBDA,Ubatã,Ubatã - EBDA,-14.215256,-39.523867,Sul,RPGA do Rio de Contas,0.0,1.5,1.5,8.0,0.0,0.0,0.0,0.0,0.0,4.3,0.0,0.1,7.4,9.7,0.0,1.0,0.0,0.0,2.0,0.7,17.2,3.0,6.5,3.2,2.2,0.0,0.0,0.0,0.5,6.0,0.0,74.81
Ilhéus 03,EBDA,Ilhéus 03,Ilhéus 03 - EBDA,-14.793047,-39.049969,Sul,RPGA do Leste,0.0,0.0,3.4,10.0,1.8,7.9,1.4,0.0,8.1,1.4,10.0,0.0,17.8,1.1,2.4,3.0,0.0,0.0,4.5,10.1,0.0,11.8,0.0,1.7,0.0,2.8,0.0,0.0,6.9,16.1,0.0,122.2
Teixeira de Freitas,PJ-CL-01,Teixeira de Freitas,Teixeira de Freitas - PJ-CL-01,-17.575555,-39.732777,Sul,"RPGA dos Rios Peruípe, Itanhém e Jucuruçu",0.0,0.0,1.0,0.0,2.75,0.0,0.5,7.0,2.0,2.0,3.5,0.0,0.0,0.0,0.0,0.5,0.75,0.0,14.0,10.0,19.0,3.25,0.0,0.0,12.5,0.0,0.0,0.0,5.25,4.0,0.0,88.0
Camamu,EBDA,Camamu,Camamu - EBDA,-13.951362,-39.117744,Sul,RPGA do Recôncavo Sul,2.3,10.6,0.6,0.0,20.3,10.4,6.4,9.2,0.8,2.3,0.0,0.0,0.6,0.0,0.0,2.1,0.3,4.5,3.6,9.9,10.2,2.5,3.4,0.9,11.3,5.7,0.6,0.0,19.2,32.0,20.9,190.6
SEDE,EBDA,Angical,Angical (SEDE) - EBDA,-12.001302,-44.684543,São Francisco,RPGA do Rio Grande,0.0,0.0,0.0,0.0,0.0,0.0,0.0,0.0,0.0,0.0,0.0,0.0,0.0,0.0,0.0,0.0,0.0,0.0,0.0,0.0,0.0,0.0,0.0,0.0,0.0,0.0,0.0,0.0,0.0,0.0,0.0,0.0
SEDE,EBDA,Baianópolis,Baianópolis (SEDE) - EBDA,-12.301308,-44.53454,São Francisco,RPGA do Rio Grande,0.0,0.0,0.0,0.0,0.0,0.0,0.0,0.0,0.0,0.0,0.0,0.0,0.0,0.0,0.0,0.0,0.0,0.0,0.0,0.0,0.0,0.0,0.0,0.0,0.0,0.0,0.0,0.0,0.0,0.0,0.0,0.0
SEDE,EBDA,Cristópolis,Cristópolis (SEDE) - EBDA,-12.217972,-44.434539,São Francisco,RPGA do Rio Grande,0.0,0.0,0.0,0.0,0.0,0.0,0.0,0.0,0.0,0.0,0.0,0.0,0.0,0.0,0.0,0.0,0.0,0.0,0.0,0.0,0.0,0.0,0.0,0.0,0.0,0.0,0.0,0.0,0.0,0.0,0.0,0.0
SEDE,,Santa Rita de Cássia,Santa Rita de Cássia (SEDE),-11.001281,-44.517867,São Francisco,RPGA do Rio Grande,0.0,0.0,0.0,0.0,0.0,0.0,0.0,0.0,0.0,0.0,0.0,0.0,0.0,0.0,0.0,0.0,0.0,0.0,0.0,0.0,0.0,0.0,0.0,0.0,0.0,0.0,0.0,0.0,0.0,0.0,0.0,0.0
SEDE,EBDA,Wanderley,Wanderley (SEDE) - EBDA,-12.117972,-43.884524,São Francisco,RPGA do Rio Grande,0.0,0.0,0.0,0.0,0.0,0.0,0.0,0.0,0.0,0.0,0.0,0.0,0.0,0.0,0.0,0.0,0.0,0.0,0.0,0.0,0.0,0.0,0.0,0.0,0.0,0.0,0.0,0.0,0.0,0.0,0.0,0.0
Bom Jesus da Lapa,EBDA,Bom Jesus da Lapa,Bom Jesus da Lapa - EBDA,-13.251329,-43.417851,São Francisco,RPGA do Rio Carnaíba de Dentro,0.0,0.0,0.0,0.0,0.0,0.0,0.0,0.0,0.0,0.0,0.0,0.0,0.0,0.0,0.0,0.0,0.0,0.0,0.0,0.0,0.0,0.0,0.0,0.0,0.0,0.0,0.0,0.0,0.0,0.0,0.0,0.0
Carinhanha,EBDA,Carinhanha,Carinhanha - EBDA,-14.301347,-43.767864,São Francisco,"RPGA do Rio Corrente e Riachos do Ramalho, Serra Dourada e Brejo Velho",0.0,0.0,0.0,0.0,0.0,0.0,0.0,0.0,0.0,0.0,0.0,0.0,0.0,0.0,0.0,0.0,0.0,0.0,0.0,0.0,0.0,0.0,0.0,0.0,0.0,0.0,0.0,0.0,0.0,0.0,0.0,0.0
Ibotirama,EBDA,Ibotirama,Ibotirama - EBDA,-12.184644,-43.21784,São Francisco,RPGA dos Rios Paramirim e Santo Onofre,0.0,0.0,0.0,0.0,0.0,0.0,0.0,0.0,0.0,0.0,0.0,0.0,0.0,0.0,0.0,0.0,0.0,0.0,0.0,0.0,0.0,0.0,0.0,0.0,0.0,0.0,0.0,0.0,0.0,0.0,0.0,0.0
Paratinga,EBDA,Paratinga,Paratinga - EBDA,-12.684653,-43.184509,São Francisco,RPGA do Rio Carnaíba de Dentro,0.0,0.0,0.0,0.0,0.0,0.0,0.0,0.0,0.0,0.0,0.0,0.0,0.0,0.0,0.0,0.0,0.0,0.0,0.0,0.0,0.0,0.0,0.0,0.0,0.0,0.0,0.0,0.0,0.0,0.0,0.0,0.0
Riacho de Santana,EBDA,Riacho de Santana,Riacho de Santana - EBDA,-13.601338,-42.934507,São Francisco,RPGA do Rio Carnaíba de Dentro,0.0,0.0,0.0,0.0,0.0,0.0,0.0,0.0,0.0,0.0,0.0,0.0,0.0,0.0,0.0,0.0,0.0,0.0,0.0,0.0,0.0,0.0,0.0,0.0,0.0,0.0,0.0,0.0,0.0,0.0,0.0,0.0
Serra do Ramalho,EBDA,Serra do Ramalho,Serra do Ramalho - EBDA,-13.618002,-43.567857,São Francisco,"RPGA do Rio Corrente e Riachos do Ramalho, Serra Dourada e Brejo Velho",0.0,0.0,0.0,0.0,0.0,0.0,0.0,0.0,0.0,0.0,0.0,0.0,0.0,0.0,0.0,0.0,0.0,0.0,0.0,0.0,0.0,0.0,0.0,0.0,0.0,0.0,0.0,0.0,0.0,0.0,0.0,0.0
Santa Maria da Vitória,CT-PR-07,Santa Maria da Vitória,Santa Maria da Vitória - CT-PR-07,-13.384662,-44.184537,São Francisco,"RPGA do Rio Corrente e Riachos do Ramalho, Serra Dourada e Brejo Velho",0.0,0.0,0.0,0.0,0.0,0.0,0.0,0.0,0.0,0.0,0.0,0.0,0.0,0.0,0.0,0.0,0.0,0.0,0.0,0.0,0.0,0.0,0.0,0.0,0.0,0.0,0.0,0.0,0.0,0.0,0.0,0.0
Coribe,EBDA,Coribe,Coribe - EBDA,-13.834669,-44.451212,São Francisco,"RPGA do Rio Corrente e Riachos do Ramalho, Serra Dourada e Brejo Velho",0.0,0.0,0.0,0.0,0.0,0.0,0.0,0.0,0.0,0.0,0.0,0.0,0.0,0.0,0.0,0.0,0.0,0.0,0.0,0.0,0.0,0.0,0.0,0.0,0.0,0.0,0.0,0.0,0.0,0.0,0.0,0.0
Santana,EBDA,Santana,Santana - EBDA,-12.984656,-44.0512,São Francisco,"RPGA do Rio Corrente e Riachos do Ramalho, Serra Dourada e Brejo Velho",0.0,0.0,0.0,0.0,0.0,0.0,0.0,0.0,0.0,0.0,0.0,0.0,0.0,0.0,0.0,0.0,0.0,0.0,0.0,0.0,0.0,0.0,0.0,0.0,0.0,0.0,0.0,0.0,0.0,0.0,0.0,0.0
Iuiú,EBDA,Iuiú,Iuiú - EBDA,-14.40135,-43.551194,São Francisco,RPGA do Rio Carnaíba de Dentro,0.0,0.0,0.0,0.0,0.0,0.0,0.0,0.0,0.0,0.0,0.0,0.0,0.0,0.0,0.0,0.0,0.0,0.0,0.0,0.0,0.0,0.0,0.0,0.0,0.0,0.0,0.0,0.0,0.0,0.0,0.0,0.0
Malhada,EBDA,Malhada,Malhada - EBDA,-14.334683,-43.767866,São Francisco,RPGA do Rio Carnaíba de Dentro,0.0,0.0,0.0,0.0,0.0,0.0,0.0,0.0,0.0,0.0,0.0,0.0,0.0,0.0,0.0,0.0,0.0,0.0,0.0,0.0,0.0,0.0,0.0,0.0,0.0,0.0,0.0,0.0,0.0,0.0,0.0,0.0
Sebastião Laranjeiras,EBDA,Sebastião Laranjeiras,Sebastião Laranjeiras - EBDA,-14.534689,-42.967846,São Francisco,RPGA do Rio Verde Grande,0.0,0.0,0.0,0.0,0.0,0.0,0.0,0.0,0.0,0.0,0.0,0.0,0.0,0.0,0.0,0.0,0.0,0.0,0.0,0.0,0.0,0.0,0.0,0.0,0.0,0.0,0.0,0.0,0.0,0.0,0.0,0.0
Barra,EBDA,Barra,Barra - EBDA,-11.084623,-43.151167,São Francisco,RPGA do Rio Grande,0.0,0.0,0.0,0.0,0.0,0.0,0.0,0.0,0.0,0.0,0.0,0.0,0.0,0.0,0.0,0.0,0.0,0.0,0.0,0.0,0.0,0.0,0.0,0.0,0.0,0.0,0.0,0.0,0.0,0.0,0.0,0.0
Gentio do Ouro,EBDA,Gentio do Ouro,Gentio do Ouro - EBDA,-11.417965,-42.501152,São Francisco,RPGA dos Rios Verde e Jacaré,0.0,0.0,0.0,0.0,0.0,0.0,0.0,0.0,0.0,0.0,0.0,0.0,0.0,0.0,0.0,0.0,0.0,0.0,0.0,0.0,0.0,0.0,0.0,0.0,0.0,0.0,0.0,0.0,0.0,0.0,0.0,0.0
Santa Rita de Cássia,A415,Santa Rita de Cássia,Santa Rita de Cássia - A415,-11.002768,-44.524965,São Francisco,RPGA do Rio Grande,0.0,0.0,0.0,0.0,0.0,0.0,0.0,0.0,0.0,0.0,0.0,0.0,0.0,0.0,0.0,0.0,0.0,0.0,0.0,0.0,0.0,0.0,0.0,0.0,0.0,0.0,0.0,0.0,0.0,0.0,0.0,0.0
Bom Jesus da Lapa,A418,Bom Jesus da Lapa,Bom Jesus da Lapa - A418,-13.251094,-43.405365,São Francisco,RPGA do Rio Carnaíba de Dentro,0.0,0.0,0.0,0.0,0.0,0.0,0.0,0.0,0.0,0.0,0.0,0.0,0.0,0.0,0.0,0.0,0.0,0.0,0.0,0.0,0.0,0.0,0.0,0.0,0.0,0.0,0.0,0.0,0.0,0.0,0.0,0.0
Xique-Xique,EBDA,Xique-Xique,Xique-Xique - EBDA,-10.817951,-42.717822,São Francisco,RPGA dos Rios Paramirim e Santo Onofre,0.0,0.0,0.0,0.0,0.0,0.0,0.0,0.0,0.0,0.0,0.0,0.0,0.0,0.0,0.0,0.0,0.0,0.0,0.0,0.0,0.0,0.0,0.0,0.0,0.0,0.0,0.0,0.0,0.0,0.0,0.0,0.0
Brotas de Macaúbas,EBDA,Brotas de Macaúbas,Brotas de Macaúbas - EBDA,-12.001308,-42.617825,São Francisco,RPGA dos Rios Paramirim e Santo Onofre,0.0,0.0,0.0,0.0,0.0,0.0,0.0,0.0,0.0,0.0,0.0,0.0,0.0,0.0,0.0,0.0,0.0,0.0,0.0,0.0,0.0,0.0,0.0,0.0,0.0,0.0,0.0,0.0,0.0,0.0,0.0,0.0
Oliveira dos Brejinhos,EBDA,Oliveira dos Brejinhos,Oliveira dos Brejinhos - EBDA,-12.301314,-42.8845,São Francisco,RPGA dos Rios Paramirim e Santo Onofre,0.0,0.0,0.0,0.0,0.0,0.0,0.0,0.0,0.0,0.0,0.0,0.0,0.0,0.0,0.0,0.0,0.0,0.0,0.0,0.0,0.0,0.0,0.0,0.0,0.0,0.0,0.0,0.0,0.0,0.0,0.0,0.0
Barra,83179,Barra,Barra - 83179,-11.083333,-43.166667,São Francisco,RPGA do Rio Grande,0.0,0.0,0.0,0.0,0.0,0.0,0.0,0.0,0.0,0.0,0.0,0.0,0.0,0.0,0.0,0.0,0.0,0.0,0.0,0.0,0.0,0.0,0.0,0.0,0.0,0.0,0.0,0.0,0.0,0.0,0.0,0.0
Caetité,EBDA,Caetité,Caetité - EBDA,-14.068017,-42.484498,São Francisco,RPGA do Rio de Contas,0.0,0.0,0.0,0.0,0.0,0.0,0.0,0.0,0.0,0.0,0.0,0.0,0.0,0.0,0.0,0.0,0.0,0.0,0.0,6.0,0.0,0.0,0.0,0.0,0.0,0.0,0.0,0.0,0.0,0.0,0.0,6.0
Bom Jesus da Lapa,83288,Bom Jesus da Lapa,Bom Jesus da Lapa - 83288,-13.251389,-43.405278,São Francisco,RPGA do Rio Carnaíba de Dentro,0.0,0.0,0.0,0.0,0.0,0.0,0.0,0.0,0.0,0.0,0.0,0.0,0.0,0.0,0.0,0.0,0.0,0.0,0.0,0.0,0.0,0.0,0.0,0.0,0.0,0.0,0.0,0.0,0.0,0.0,0.0,0.0
Urandi,EBDA,Urandi,Urandi - EBDA,-14.768029,-42.651173,São Francisco,RPGA do Rio Verde Grande,0.0,0.0,0.0,0.0,0.0,0.0,0.0,0.0,0.0,0.0,0.0,0.0,0.0,0.0,0.0,0.0,0.0,0.0,0.0,0.0,0.0,0.0,0.0,0.0,0.0,0.0,0.0,0.0,0.0,0.0,0.0,0.0
Caetité,83339,Caetité,Caetité - 83339,-14.066667,-42.483333,São Francisco,RPGA do Rio de Contas,0.0,0.0,0.0,0.0,0.0,1.0,0.0,0.0,0.0,0.0,0.0,0.0,0.0,0.0,0.0,0.0,0.0,0.0,0.0,0.0,4.4,0.0,0.0,0.0,0.0,0.0,0.0,0.0,0.0,0.0,0.0,5.4
Paramirim,EBDA,Paramirim,Paramirim - EBDA,-13.434672,-42.234489,São Francisco,RPGA dos Rios Paramirim e Santo Onofre,0.0,0.0,0.0,0.0,0.0,0.0,0.0,0.0,0.0,0.0,0.0,0.0,0.0,0.0,0.0,0.0,0.0,0.0,0.0,0.0,0.0,0.0,0.0,0.0,0.0,0.0,0.0,0.0,0.0,0.0,0.0,0.0
Guanambí,EBDA,Guanambí,Guanambí - EBDA,-14.218017,-42.76784,São Francisco,RPGA do Rio Carnaíba de Dentro,0.0,0.0,0.0,0.0,0.0,0.0,0.0,0.0,0.0,0.0,0.0,0.0,0.0,0.0,0.0,0.0,0.0,0.0,0.0,0.0,0.0,0.0,0.0,0.0,0.0,0.0,0.0,0.0,0.0,0.0,0.0,0.0
Macaúbas,EBDA,Macaúbas,Macaúbas - EBDA,-13.017996,-42.684498,São Francisco,RPGA dos Rios Paramirim e Santo Onofre,0.0,0.0,0.0,0.0,0.0,0.0,0.0,0.0,0.0,0.0,0.0,0.0,0.0,0.0,0.0,0.0,0.0,0.0,0.0,5.2,0.0,0.0,0.0,0.0,0.0,0.0,0.0,0.0,0.0,0.0,0.0,5.2
Carinhanha,83408,Carinhanha,Carinhanha - 83408,-14.283333,-43.766667,São Francisco,"RPGA do Rio Corrente e Riachos do Ramalho, Serra Dourada e Brejo Velho",0.0,0.0,0.0,0.0,0.0,0.6,0.0,0.0,0.0,0.0,0.0,0.0,0.0,0.0,0.0,0.0,0.0,0.0,0.0,0.0,0.0,0.0,0.0,0.0,0.0,0.0,0.0,0.0,0.0,0.0,0.0,0.6
Palmas do Monte Alto,EBDA,Palmas do Monte Alto,Palmas do Monte Alto - EBDA,-14.268017,-43.167849,São Francisco,RPGA do Rio Carnaíba de Dentro,0.0,0.0,0.0,0.0,0.0,0.0,0.0,0.0,0.0,0.0,0.0,0.0,0.0,0.0,0.0,0.0,0.0,0.0,0.0,0.0,0.0,0.0,0.0,0.0,0.0,0.0,0.0,0.0,0.0,0.0,0.0,0.0
Santa Rita de Cássia,83076,Santa Rita de Cássia,Santa Rita de Cássia - 83076,-11.016667,-44.516667,São Francisco,RPGA do Rio Grande,0.0,0.0,0.0,0.0,0.0,0.0,0.0,0.0,0.0,0.0,0.0,0.0,0.0,0.0,0.0,0.0,0.0,0.0,0.0,0.0,0.0,0.0,0.0,0.0,0.0,0.0,0.0,0.0,0.0,0.0,0.0,0.0
Guanambí,A426,Guanambí,Guanambí - A426,-14.208123,-42.749647,São Francisco,RPGA do Rio Carnaíba de Dentro,0.0,0.0,0.0,0.0,0.0,0.0,0.0,0.0,0.0,0.0,0.0,0.0,0.0,0.0,0.0,0.0,0.0,0.0,0.0,0.0,0.0,0.0,0.0,0.0,0.0,0.0,0.0,0.0,0.0,0.0,0.0,0.0
Buritirama,A432,Buritirama,Buritirama - A432,-10.722925,-43.651203,São Francisco,RPGA do Rio Grande,0.0,0.0,0.0,0.0,0.0,0.0,0.0,0.0,0.0,0.0,0.0,0.0,0.0,0.0,0.0,0.0,0.0,0.0,0.0,0.0,0.0,0.0,0.0,0.0,0.0,0.0,0.0,0.0,0.0,0.0,0.0,0.0
Barra,A429,Barra,Barra - A429,-11.084858,-43.138998,São Francisco,RPGA do Rio Grande,0.0,0.0,0.0,0.0,0.0,0.0,0.0,0.0,0.0,0.0,0.0,0.0,0.0,0.0,0.0,0.0,0.0,0.0,0.0,0.0,0.0,0.0,0.0,0.0,0.0,0.0,0.0,0.0,0.0,0.0,0.0,0.0
Ibotirama,A439,Ibotirama,Ibotirama - A439,-12.19306,-43.21342,São Francisco,RPGA dos Rios Paramirim e Santo Onofre,0.0,0.0,0.0,0.0,0.0,0.0,0.0,0.0,0.0,0.0,0.0,0.0,0.0,0.0,0.0,0.0,0.0,0.0,0.0,0.0,0.0,0.0,0.0,0.0,0.0,0.0,0.0,0.0,0.0,0.0,0.0,0.0
Feira da Mata,EBDA,Feira da Mata,Feira da Mata - EBDA,-14.218288,-44.268154,São Francisco,RPGA do Rio Carinhanha,0.0,0.0,0.0,0.0,0.0,0.0,0.0,0.0,0.0,0.0,0.0,0.0,0.0,0.0,0.0,0.0,0.0,0.0,0.0,0.0,0.0,0.0,0.0,0.0,0.0,0.0,0.0,0.0,0.0,0.0,0.0,0.0
Canápolis,EBDA,Canápolis,Canápolis - EBDA,-13.06799,-44.201203,São Francisco,"RPGA do Rio Corrente e Riachos do Ramalho, Serra Dourada e Brejo Velho",0.0,0.0,0.0,0.0,0.0,0.0,0.0,0.0,0.0,0.0,0.0,0.0,0.0,0.0,0.0,0.0,0.0,0.0,0.0,0.0,0.0,0.0,0.0,0.0,0.0,0.0,0.0,0.0,0.0,0.0,0.0,0.0
Brejolândia,EBDA,Brejolândia,Brejolândia - EBDA,-12.384644,-43.967861,São Francisco,"RPGA do Rio Corrente e Riachos do Ramalho, Serra Dourada e Brejo Velho",0.0,0.0,0.0,0.0,0.0,0.0,0.0,0.0,0.0,0.0,0.0,0.0,0.0,0.0,0.0,0.0,0.0,0.0,0.0,0.0,0.0,0.0,0.0,0.0,0.0,0.0,0.0,0.0,0.0,0.0,0.0,0.0
Boquira,EBDA,Boquira,Boquira - EBDA,-12.801323,-42.801167,São Francisco,RPGA dos Rios Paramirim e Santo Onofre,0.0,0.0,0.0,0.0,0.0,0.0,0.0,0.0,0.0,0.0,0.0,0.0,0.0,0.0,0.0,0.0,0.0,0.0,0.0,0.0,0.0,0.0,0.0,0.0,0.0,0.0,0.0,0.0,0.0,0.0,0.0,0.0
Botuporã,EBDA,Botuporã,Botuporã - EBDA,-13.301335,-42.551164,São Francisco,RPGA dos Rios Paramirim e Santo Onofre,0.0,0.0,0.0,0.0,0.0,0.0,0.0,0.0,0.0,0.0,0.0,0.0,0.0,0.0,0.0,0.0,0.0,0.0,0.0,0.0,0.0,0.0,0.0,0.0,0.0,0.0,0.0,0.0,0.0,0.0,0.0,0.0
Licínio de Almeida,EBDA,Licínio de Almeida,Licínio de Almeida - EBDA,-14.634693,-42.567837,São Francisco,RPGA do Rio Verde Grande,0.0,0.0,0.0,0.0,0.0,0.0,0.0,0.0,0.0,0.0,0.0,0.0,0.0,0.0,0.0,0.0,0.0,0.0,0.0,0.0,0.0,0.0,0.0,0.0,0.0,0.0,0.0,0.0,0.0,0.0,0.0,0.0
Lagoa Real,EBDA,Lagoa Real,Lagoa Real - EBDA,-13.984681,-42.567834,São Francisco,RPGA do Rio Carnaíba de Dentro,0.0,0.0,0.0,0.0,0.0,0.0,0.0,0.0,0.0,0.0,0.0,0.0,0.0,0.0,0.0,0.0,0.0,0.0,0.0,0.0,0.0,0.0,0.0,0.0,0.0,0.0,0.0,0.0,0.0,0.0,0.0,0.0
Ibipitanga,EBDA,Ibipitanga,Ibipitanga - EBDA,-12.801326,-42.467825,São Francisco,RPGA dos Rios Paramirim e Santo Onofre,0.0,0.0,0.0,0.0,0.0,0.0,0.0,0.0,0.0,0.0,0.0,0.0,0.0,0.0,0.0,0.0,0.0,0.0,0.0,0.0,0.0,0.0,0.0,0.0,0.0,0.0,0.0,0.0,0.0,0.0,0.0,0.0
Tanque Novo,EBDA,Tanque Novo,Tanque Novo - EBDA,-13.501338,-42.501164,São Francisco,RPGA dos Rios Paramirim e Santo Onofre,0.0,0.0,0.0,0.0,0.0,0.0,0.0,0.0,0.0,0.0,0.0,0.0,0.0,0.0,0.0,0.0,0.0,0.0,0.0,0.0,0.0,0.0,0.0,0.0,0.0,0.0,0.0,0.0,0.0,0.0,0.0,0.0
Fz. São Rafael,EBDA,Baianópolis,Baianópolis (Fz. São Rafael) - EBDA,-12.307697,-44.535931,São Francisco,RPGA do Rio Grande,0.0,0.0,0.0,0.0,0.0,0.0,0.0,0.0,0.0,0.0,0.0,0.0,0.0,0.0,0.0,0.0,0.0,0.0,0.0,0.0,0.0,0.0,0.0,0.0,0.0,0.0,0.0,0.0,0.0,0.0,0.0,0.0
Cascudeiro,EBDA,Baianópolis,Baianópolis (Cascudeiro) - EBDA,-12.528533,-44.480095,São Francisco,RPGA do Rio Grande,0.0,0.0,0.0,0.0,0.0,0.0,0.0,0.0,0.0,0.0,0.0,0.0,0.0,0.0,0.0,0.0,0.0,0.0,0.0,0.0,0.0,0.0,0.0,0.0,0.0,0.0,0.0,0.0,0.0,0.0,0.0,0.0
Candiba,EBDA,Candiba,Candiba - EBDA,-14.412189,-42.868121,São Francisco,RPGA do Rio Carnaíba de Dentro,0.0,0.0,0.0,0.0,0.0,0.0,0.0,0.0,0.0,0.0,0.0,0.0,0.0,0.0,0.0,0.0,0.0,0.0,0.0,0.0,0.0,0.0,0.0,0.0,0.0,0.0,0.0,0.0,0.0,0.0,0.0,0.0
Caturama,EBDA,Caturama,Caturama - EBDA,-13.330226,-42.291989,São Francisco,RPGA dos Rios Paramirim e Santo Onofre,0.0,0.0,0.0,0.0,0.0,0.0,0.0,0.0,0.0,0.0,0.0,0.0,0.0,0.0,0.0,0.0,0.0,0.0,0.0,0.0,0.0,0.0,0.0,0.0,0.0,0.0,0.0,0.0,0.0,0.0,0.0,0.0
Tabocas do Brejo Velho,EBDA,Tabocas do Brejo Velho,Tabocas do Brejo Velho - EBDA,-12.70715,-44.008141,São Francisco,"RPGA do Rio Corrente e Riachos do Ramalho, Serra Dourada e Brejo Velho",0.0,0.0,0.0,0.0,0.0,0.0,0.0,0.0,0.0,0.0,0.0,0.0,0.0,0.0,0.0,0.0,0.0,0.0,0.0,0.0,0.0,0.0,0.0,0.0,0.0,0.0,0.0,0.0,0.0,0.0,0.0,0.0
Ouriçangas,EBDA,Angical,Angical (Ouriçangas) - EBDA,-12.008246,-44.696209,São Francisco,RPGA do Rio Grande,0.0,0.0,0.0,0.0,0.0,0.0,0.0,0.0,0.0,0.0,0.0,0.0,0.0,0.0,0.0,0.0,0.0,0.0,0.0,0.0,0.0,0.0,0.0,0.0,0.0,0.0,0.0,0.0,0.0,0.0,0.0,0.0
Buritirama,EBDA,Buritirama,Buritirama - EBDA,-10.709058,-43.632012,São Francisco,RPGA do Rio Grande,0.0,0.0,0.0,0.0,0.0,0.0,0.0,0.0,0.0,0.0,0.0,0.0,0.0,0.0,0.0,0.0,0.0,0.0,0.0,0.0,0.0,0.0,0.0,0.0,0.0,0.0,0.0,0.0,0.0,0.0,0.0,0.0
Sítio do Mato,EBDA,Sítio do Mato,Sítio do Mato - EBDA,-13.167995,-43.501185,São Francisco,"RPGA do Rio Corrente e Riachos do Ramalho, Serra Dourada e Brejo Velho",0.0,0.0,0.0,0.0,0.0,0.0,0.0,0.0,0.0,0.0,0.0,0.0,0.0,0.0,0.0,0.0,0.0,0.0,0.0,0.0,0.0,0.0,0.0,0.0,0.0,0.0,0.0,0.0,0.0,0.0,0.0,0.0
Matina,EBDA,Matina,Matina - EBDA,-13.918012,-42.834506,São Francisco,RPGA do Rio Carnaíba de Dentro,0.0,0.0,0.0,0.0,0.0,0.0,0.0,0.0,0.0,0.0,0.0,0.0,0.0,0.0,0.0,0.0,0.0,0.0,0.0,0.0,0.0,0.0,0.0,0.0,0.0,0.0,0.0,0.0,0.0,0.0,0.0,0.0
Igaporã,EBDA,Igaporã,Igaporã - EBDA,-13.701341,-42.75117,São Francisco,RPGA do Rio Carnaíba de Dentro,0.0,0.0,0.0,0.0,0.0,0.0,0.0,0.0,0.0,0.0,0.0,0.0,0.0,0.0,0.0,0.0,0.0,0.0,0.0,0.0,0.0,0.0,0.0,0.0,0.0,0.0,0.0,0.0,0.0,0.0,0.0,0.0
Serra Dourada,EBDA - EBDA,Serra Dourada,Serra Dourada - EBDA - EBDA,-12.751317,-43.951194,São Francisco,"RPGA do Rio Corrente e Riachos do Ramalho, Serra Dourada e Brejo Velho",0.0,0.0,0.0,0.0,0.0,0.0,0.0,0.0,0.0,0.0,0.0,0.0,0.0,0.0,0.0,0.0,0.0,0.0,0.0,0.0,0.0,0.0,0.0,0.0,0.0,0.0,0.0,0.0,0.0,0.0,0.0,0.0
Fazenda Piabanha,,Fazenda Piabanha,Fazenda Piabanha,-14.59737,-42.38433,São Francisco,RPGA do Rio de Contas,0.0,0.0,0.0,0.0,0.0,0.0,0.0,0.0,0.0,0.0,0.0,0.0,0.0,0.0,0.0,0.0,0.0,0.0,0.0,0.0,0.5,0.25,0.0,0.0,0.0,0.0,0.0,0.0,0.0,0.0,0.0,0.75
