nome_estacao,codigo,municipio,estacao,latitude,longitude,regiao,rpga,01_07_13,02_07_13,03_07_13,04_07_13,05_07_13,06_07_13,07_07_13,08_07_13,09_07_13,10_07_13,11_07_13,12_07_13,13_07_13,14_07_13,15_07_13,16_07_13,17_07_13,18_07_13,19_07_13,20_07_13,21_07_13,22_07_13,23_07_13,24_07_13,25_07_13,26_07_13,27_07_13,28_07_13,29_07_13,30_07_13,31_07_13,total
Boa Vista do Tupim,EBDA,Boa Vista do Tupim,Boa Vista do Tupim - EBDA,-12.651332,-40.60111,Chapada Diamantina,RPGA do Rio Paraguaçu,0.0,0.0,0.0,8.5,0.0,0.0,0.0,0.0,0.0,0.0,0.0,0.0,0.0,0.0,0.0,0.0,0.0,0.0,0.0,0.0,0.0,0.0,0.0,0.0,0.0,0.0,0.0,0.0,0.0,0.0,0.0,8.5
Iaçu,EBDA,Iaçu,Iaçu - EBDA,-12.768002,-40.217768,Chapada Diamantina,RPGA do Rio Paraguaçu,0.0,0.0,0.0,8.8,0.0,2.0,0.0,0.0,0.0,0.0,2.0,0.0,0.0,0.0,0.0,0.0,0.0,0.0,0.0,0.0,0.0,0.0,0.0,0.0,0.0,0.0,0.0,0.0,0.0,0.0,0.0,12.8
Itaberaba,EBDA,Itaberaba,Itaberaba - EBDA,-12.534663,-40.301101,Chapada Diamantina,RPGA do Rio Paraguaçu,0.0,0.0,0.0,11.5,0.0,10.0,0.0,0.0,0.0,0.0,4.5,0.0,0.0,0.0,0.0,0.0,0.0,0.0,0.0,0.0,0.0,0.0,0.0,0.0,0.0,0.0,4.7,3.8,0.0,0.0,0.0,34.5
Itaetê,EBDA,Itaetê,Itaetê - EBDA,-12.984669,-40.984455,Chapada Diamantina,RPGA do Rio Paraguaçu,0.0,0.0,0.0,8.6,0.0,0.0,0.0,0.0,0.0,0.0,3.3,0.0,0.0,0.0,0.0,0.0,0.0,0.0,0.0,0.0,0.0,0.0,0.0,0.0,0.0,0.0,6.0,0.0,0.0,0.0,0.0,17.9
Marcionílio Souza,EBDA,Marcionílio Souza,Marcionílio Souza - EBDA,-13.001338,-40.534443,Chapada Diamantina,RPGA do Rio Paraguaçu,0.0,0.0,0.0,5.0,0.0,0.0,0.0,0.0,0.0,0.0,0.0,0.0,0.0,0.0,0.0,0.0,0.0,0.0,0.0,0.0,0.0,0.0,0.0,0.0,0.0,0.0,0.0,0.0,0.0,0.0,0.0,5.0
Ruy Barbosa,EBDA,Ruy Barbosa,Ruy Barbosa - EBDA,-12.284657,-40.501107,Chapada Diamantina,RPGA do Rio Paraguaçu,0.0,0.0,0.0,6.0,0.0,0.0,0.0,0.0,0.0,0.0,4.0,0.0,2.0,0.0,0.0,0.0,0.0,0.0,0.0,0.0,0.0,0.0,0.0,0.0,0.0,2.0,8.0,2.0,0.0,0.0,0.0,24.0
Utinga,EBDA,Utinga,Utinga - EBDA,-12.08465,-41.101122,Chapada Diamantina,RPGA do Rio Paraguaçu,0.0,0.0,0.0,0.0,0.0,0.0,0.0,0.0,0.0,0.0,0.0,0.0,0.0,0.0,0.0,0.0,0.0,0.0,0.0,0.0,0.0,0.0,0.0,0.0,0.0,0.0,0.0,0.0,0.0,0.0,0.0,0.0
Barra do Mendes,EBDA,Barra do Mendes,Barra do Mendes - EBDA,-11.817975,-42.06781,Chapada Diamantina,RPGA dos Rios Verde e Jacaré,0.0,0.0,0.0,0.0,0.0,0.0,0.0,0.0,0.0,0.0,0.0,0.0,0.0,0.0,0.0,0.0,0.0,0.0,0.0,0.0,0.0,0.0,0.0,0.0,0.0,0.0,0.0,0.0,0.0,0.0,0.0,0.0
Cafarnaum,EBDA,Cafarnaum,Cafarnaum - EBDA,-11.684641,-41.484462,Chapada Diamantina,RPGA dos Rios Verde e Jacaré,0.0,0.0,0.0,0.0,0.0,0.0,0.0,0.0,0.0,0.0,0.0,0.0,0.0,0.0,0.0,0.0,0.0,0.0,0.0,0.0,0.0,0.0,0.0,0.0,0.0,0.0,0.0,0.0,0.0,0.0,0.0,0.0
Canarana,EBDA,Canarana,Canarana - EBDA,-11.684641,-41.751137,Chapada Diamantina,RPGA dos Rios Verde e Jacaré,0.0,0.0,0.0,0.0,0.0,0.0,0.0,0.0,0.0,0.0,0.0,0.0,0.0,0.0,0.0,0.0,0.0,0.0,0.0,0.0,0.0,0.0,0.0,0.0,0.0,0.0,0.0,0.0,0.0,0.0,0.0,0.0
Andaraí,EBDA,Andaraí,Andaraí - EBDA,-12.801332,-41.317795,Chapada Diamantina,RPGA do Rio Paraguaçu,0.0,0.0,0.0,0.0,0.0,0.0,0.0,0.0,0.0,0.0,0.0,0.0,0.0,0.0,0.0,0.0,0.0,0.0,0.0,0.0,0.0,0.0,0.0,0.0,0.0,0.0,15.0,0.0,0.0,0.0,0.0,15.0
Iraquara,EBDA,Iraquara,Iraquara - EBDA,-12.234651,-41.617801,Chapada Diamantina,RPGA do Rio Paraguaçu,0.0,0.0,0.0,0.0,0.0,0.0,0.0,0.0,0.0,0.0,0.0,0.0,0.0,0.0,0.0,0.0,0.0,0.0,0.0,0.0,0.0,0.0,0.0,0.0,0.0,0.0,0.0,0.0,0.0,0.0,0.0,0.0
Mucugê,EBDA,Mucugê,Mucugê - EBDA,-13.001335,-41.367798,Chapada Diamantina,RPGA do Rio Paraguaçu,0.0,0.0,0.0,0.0,0.0,1.4,1.7,1.3,0.0,0.0,0.0,0.0,0.0,0.0,0.0,0.0,0.0,0.0,0.0,0.0,0.0,0.0,0.0,0.0,0.0,0.0,0.0,0.0,0.0,0.0,0.0,4.4
Piatã,EBDA,Piatã,Piatã - EBDA,-13.201338,-41.751143,Chapada Diamantina,RPGA do Rio de Contas,0.0,0.0,0.0,0.0,0.0,0.0,0.0,0.0,0.0,0.0,11.6,21.2,0.0,0.0,0.0,0.0,0.0,0.0,0.0,0.0,0.0,0.0,0.0,0.0,0.0,0.0,0.0,0.0,0.0,0.0,0.0,32.8
Seabra,EBDA,Seabra,Seabra - EBDA,-12.417987,-41.767806,Chapada Diamantina,RPGA do Rio Paraguaçu,0.0,0.0,0.0,0.0,0.0,5.0,1.2,0.0,1.2,0.0,0.0,0.0,0.0,0.0,0.0,0.0,0.0,0.0,0.0,0.0,0.0,0.0,0.0,0.0,0.0,0.0,7.3,0.0,0.0,0.0,0.0,14.7
Livramento do Brumado,EBDA,Livramento do Brumado,Livramento do Brumado - EBDA,-13.651344,-41.834479,Chapada Diamantina,RPGA do Rio de Contas,0.0,0.0,0.0,0.0,0.0,0.0,0.0,0.0,0.0,0.0,0.0,0.0,0.0,0.0,0.0,0.0,0.0,0.0,0.0,0.0,0.0,0.0,0.0,0.0,0.0,0.0,0.0,0.0,0.0,0.0,0.0,0.0
Lençóis,A425,Lençóis,Lençóis - A425,-12.557854,-41.388808,Chapada Diamantina,RPGA do Rio Paraguaçu,0.0,0.0,0.0,0.0,1.2,8.4,2.2,0.8,2.4,0.2,0.0,0.8,0.0,1.2,0.2,0.0,0.0,0.0,0.0,1.4,0.0,0.0,0.0,0.2,0.0,8.0,22.8,0.6,0.2,0.0,0.0,50.6
Lagoa Bonita,PG-PR-15,Iacú,Iacú (Lagoa Bonita) - PG-PR-15,-12.931506,-40.226468,Chapada Diamantina,RPGA do Rio Paraguaçu,0.0,0.0,0.0,0.0,3.0,0.75,0.0,1.5,0.0,0.0,0.0,0.0,0.0,0.0,0.0,0.0,0.0,0.0,0.0,0.0,0.0,0.0,0.0,0.0,0.0,0.0,4.0,0.25,0.25,0.0,0.0,9.75
João Amaro,PG-PR-16,Iaçu,Iaçu (João Amaro) - PG-PR-16,-12.800391,-40.363139,Chapada Diamantina,RPGA do Rio Paraguaçu,0.0,0.0,0.0,0.0,3.75,2.75,0.75,2.5,0.0,0.0,0.0,1.0,0.0,0.0,0.0,0.0,0.0,0.0,0.0,0.0,0.0,0.0,0.0,0.0,0.0,0.0,4.75,0.0,0.0,0.0,0.0,15.5
Boa Vista Tupim,PG-PR-17,Boa Vista Tupim,Boa Vista Tupim - PG-PR-17,-12.65622,-40.589813,Chapada Diamantina,RPGA do Rio Paraguaçu,0.0,0.0,0.0,0.0,10.0,4.25,0.0,0.25,0.0,0.0,0.0,3.25,0.25,0.25,0.0,0.0,0.0,0.0,0.0,0.0,0.0,0.0,0.0,0.0,0.0,0.0,1.25,0.0,0.0,0.0,0.0,19.5
Ruy Barbosa,PG-PR-18,Ruy Barbosa,Ruy Barbosa - PG-PR-18,-12.285653,-40.513698,Chapada Diamantina,RPGA do Rio Paraguaçu,0.0,0.0,0.0,0.0,3.75,0.25,0.0,0.0,0.0,0.0,0.0,3.5,0.5,0.25,0.0,0.0,0.0,0.0,0.0,0.0,0.0,0.0,0.0,0.0,0.0,0.5,5.25,1.0,1.5,0.0,0.0,16.5
Boninal,PG-PR-19,Boninal,Boninal - PG-PR-19,-12.67656,-41.8464,Chapada Diamantina,RPGA do Rio Paraguaçu,0.0,0.0,0.0,0.0,1.25,0.0,0.0,0.0,1.0,0.0,0.0,0.0,0.0,0.0,0.0,0.0,0.0,0.0,0.0,0.0,0.0,0.0,0.0,0.0,0.0,0.75,19.0,0.0,0.0,0.0,0.0,22.0
Fazenda Cruz,PG-PR-20,Piatã,Piatã (Fazenda Cruz) - PG-PR-20,-12.90705,-41.86708,Chapada Diamantina,RPGA do Rio Paraguaçu,0.0,0.0,0.0,0.0,0.25,0.0,0.0,0.0,1.0,0.0,0.0,0.0,0.0,0.0,0.0,0.0,0.0,0.0,0.0,0.0,0.0,0.0,0.0,0.0,0.0,0.0,7.0,0.0,0.0,0.0,0.0,8.25
Wagner,PG-PR-22,Wagner,Wagner - PG-PR-22,-12.289538,-41.161774,Chapada Diamantina,RPGA do Rio Paraguaçu,0.0,0.0,0.0,0.25,5.0,4.25,0.0,0.0,0.0,0.0,0.0,1.75,0.75,0.5,0.0,0.0,0.0,0.0,0.0,0.0,0.0,0.0,0.0,0.0,0.0,1.25,3.25,0.5,0.0,0.0,0.0,17.5
Utinga,PG-PR-23,Utinga,Utinga - PG-PR-23,-12.030089,-41.058714,Chapada Diamantina,RPGA do Rio Paraguaçu,0.0,0.0,0.0,0.0,0.5,1.0,0.0,0.0,0.0,0.0,0.0,3.25,1.0,3.5,0.0,0.0,0.0,0.0,0.0,0.25,0.0,0.0,0.0,0.0,0.0,0.75,1.25,0.75,0.25,0.0,0.0,12.5
Guiné,PG-PR-24,Mucugê,Mucugê (Guiné) - PG-PR-24,-12.771772,-41.540679,Chapada Diamantina,RPGA do Rio Paraguaçu,0.0,0.0,0.0,0.25,3.25,2.0,0.5,0.5,1.75,0.0,0.0,1.25,0.0,0.0,0.0,0.0,0.0,0.0,0.0,0.0,0.0,0.0,0.0,0.0,0.0,0.5,4.25,0.0,0.0,0.0,0.0,14.25
Piatã,CO-CL-04,Piatã,Piatã - CO-CL-04,-13.164166,-41.770833,Chapada Diamantina,RPGA do Rio de Contas,0.0,0.0,0.0,0.5,6.75,5.25,0.0,0.0,7.0,0.0,1.5,6.5,0.5,0.0,0.0,0.0,0.0,0.0,0.0,0.0,0.0,0.0,0.0,0.0,0.0,0.0,13.75,0.0,0.0,0.0,0.0,41.75
Palmeiras,EBDA,Palmeiras,Palmeiras - EBDA,-12.46799,-41.617801,Chapada Diamantina,RPGA do Rio Paraguaçu,0.0,0.0,0.0,0.0,0.0,0.0,0.0,0.0,0.0,0.0,0.0,7.0,0.0,0.0,0.0,0.0,0.0,0.0,0.0,0.0,0.0,0.0,0.0,0.0,0.0,0.0,7.0,9.0,0.0,0.0,0.0,23.0
Itaberaba,A408,Itaberaba,Itaberaba - A408,-12.524062,-40.299714,Chapada Diamantina,RPGA do Rio Paraguaçu,0.0,0.0,0.0,0.6,14.0,5.8,1.0,0.2,0.0,0.0,0.0,4.4,1.8,0.0,0.0,0.0,0.0,0.0,0.0,0.0,0.0,0.0,0.0,0.0,0.0,2.0,2.2,0.4,0.6,0.4,0.0,33.4
Macajuba,A412,Macajuba,Macajuba - A412,-12.131694,-40.354222,Chapada Diamantina,RPGA do Rio Paraguaçu,0.0,0.0,0.0,0.8,2.8,6.2,5.8,0.4,0.0,0.0,0.4,8.8,3.2,1.2,0.2,0.2,0.0,0.0,0.0,0.0,0.0,0.0,0.0,0.0,0.0,2.4,6.2,6.6,1.4,0.8,0.0,47.4
Itaberaba,83244,Itaberaba,Itaberaba - 83244,-12.516667,-40.283333,Chapada Diamantina,RPGA do Rio Paraguaçu,0.0,0.0,0.0,0.7,13.3,5.0,0.5,0.1,0.0,0.0,0.0,3.9,1.2,0.0,0.0,0.0,0.0,0.0,0.0,0.0,0.0,0.0,0.0,0.0,0.0,2.2,1.3,0.5,0.3,0.3,0.0,29.3
Lençóis,83242,Lençóis,Lençóis - 83242,-12.5575,-41.388889,Chapada Diamantina,RPGA do Rio Paraguaçu,0.0,0.0,0.0,0.0,1.0,8.1,2.2,0.8,2.2,0.2,0.0,0.6,0.0,0.9,0.0,0.0,0.0,0.0,0.0,1.3,0.0,0.0,0.0,0.2,0.0,8.1,22.6,0.0,0.0,0.0,0.0,48.2
Morro do Chapéu,83184,Morro do Chapéu,Morro do Chapéu - 83184,-11.216667,-41.216667,Chapada Diamantina,RPGA do Rio Salitre,0.0,0.0,0.0,1.0,0.2,8.8,0.8,0.6,0.0,1.1,0.3,2.3,0.8,3.1,0.1,0.0,0.0,0.0,0.0,0.9,0.0,0.0,0.0,0.0,0.0,1.7,3.2,2.7,1.6,0.6,0.1,29.91
Piatã,A430,Piatã,Piatã - A430,-13.155681,-41.774125,Chapada Diamantina,RPGA do Rio de Contas,0.0,0.0,0.2,1.4,8.4,7.4,0.6,0.2,8.6,0.0,2.2,11.0,1.6,0.6,0.0,0.2,0.0,0.0,0.0,0.0,0.2,0.0,0.0,0.0,0.0,0.0,21.0,0.0,0.4,0.0,0.0,64.01
Rio de Contas,EBDA,Rio de Contas,Rio de Contas - EBDA,-13.51801,-41.834479,Chapada Diamantina,RPGA do Rio de Contas,0.0,0.0,0.0,0.0,0.0,0.0,0.0,0.0,0.0,0.0,0.0,0.0,0.0,0.0,0.0,0.0,0.0,0.0,0.0,0.0,0.0,0.0,0.0,0.0,0.0,0.0,0.0,0.0,0.0,0.0,0.0,0.0
Érico Cardoso,EBDA,Érico Cardoso,Érico Cardoso - EBDA,-13.419116,-42.14143,Chapada Diamantina,RPGA dos Rios Paramirim e Santo Onofre,0.0,0.0,0.0,0.0,0.0,0.0,0.0,0.0,0.0,0.0,0.0,0.0,0.0,0.0,0.0,0.0,0.0,0.0,0.0,0.0,0.0,0.0,0.0,0.0,0.0,0.0,0.0,0.0,0.0,0.0,0.0,0.0
Dom Basílio,EBDA,Dom Basílio,Dom Basílio - EBDA,-13.761625,-41.772535,Chapada Diamantina,RPGA do Rio de Contas,0.0,0.0,0.0,0.0,0.0,0.0,0.0,0.0,0.0,0.0,0.0,0.0,0.0,0.0,0.0,0.0,0.0,0.0,0.0,0.0,0.0,0.0,0.0,0.0,0.0,0.0,0.0,0.0,0.0,0.0,0.0,0.0
São Félix do Coribe,EBDA,São Félix do Coribe,São Félix do Coribe - EBDA,-13.401899,-41.19585,Chapada Diamantina,RPGA do Rio Paraguaçu,0.0,0.0,0.0,0.0,0.0,0.0,0.0,0.0,0.0,0.0,0.0,0.0,0.0,0.0,0.0,0.0,0.0,0.0,0.0,0.0,0.0,0.0,0.0,0.0,0.0,0.0,0.0,0.0,0.0,0.0,0.0,0.0
Nova Vista,EBDA,Andaraí,Andaraí (Nova Vista) - EBDA,-12.151323,-40.267765,Chapada Diamantina,RPGA do Rio Paraguaçu,0.0,0.0,0.0,0.0,0.0,0.0,0.0,0.0,0.0,0.0,0.0,0.0,0.0,0.0,0.0,0.0,0.0,0.0,0.0,0.0,0.0,0.0,0.0,0.0,0.0,0.0,25.0,0.0,0.0,0.0,0.0,25.0
Ubiraitá,EBDA,Andaraí,Andaraí (Ubiraitá) - EBDA,-12.684663,-41.051122,Chapada Diamantina,RPGA do Rio Paraguaçu,0.0,0.0,0.0,0.0,0.0,0.0,0.0,0.0,0.0,0.0,0.0,0.0,0.0,0.0,0.0,0.0,0.0,0.0,0.0,0.0,0.0,0.0,0.0,0.0,0.0,0.0,27.0,0.0,0.0,0.0,0.0,27.0
Itaetê,,Itaetê,Itaetê,-12.991944,-40.960833,Chapada Diamantina,RPGA do Rio Paraguaçu,0.0,0.0,0.0,0.0,6.4,3.6,0.2,0.0,0.0,0.2,0.0,2.6,0.2,0.0,0.0,0.0,0.0,0.0,0.0,0.0,0.0,0.0,0.0,0.0,0.0,0.2,6.2,0.0,0.0,0.0,0.0,19.6
Rio do Pires,EBDA,Rio do Pires,Rio do Pires - EBDA,-13.12911,-42.2931,Chapada Diamantina,RPGA dos Rios Paramirim e Santo Onofre,0.0,0.0,0.0,0.0,0.0,0.0,0.0,0.0,0.0,0.0,0.0,0.0,0.0,0.0,0.0,0.0,0.0,0.0,0.0,0.0,0.0,0.0,0.0,0.0,0.0,0.0,0.0,0.0,0.0,0.0,0.0,0.0
Lajedinho,EBDA,Lajedinho,Lajedinho - EBDA,-12.357157,-40.90695,Chapada Diamantina,RPGA do Rio Paraguaçu,0.0,0.0,0.0,0.0,18.5,0.0,0.0,0.0,0.0,0.0,0.0,0.0,0.0,0.0,0.0,0.0,0.0,0.0,0.0,0.0,0.0,0.0,0.0,0.0,0.0,0.0,0.0,0.0,0.0,0.0,0.0,18.5
Macajuba,EBDA,Macajuba,Macajuba - EBDA,-12.137154,-40.361101,Chapada Diamantina,RPGA do Rio Paraguaçu,0.0,0.0,0.0,2.0,0.0,15.0,0.0,0.0,0.0,0.0,0.0,0.0,0.0,0.0,0.0,0.0,0.0,0.0,0.0,0.0,0.0,0.0,0.0,0.0,0.0,0.0,0.0,0.0,0.0,0.0,0.0,17.0
Mulungu do Morro,EBDA,Mulungu do Morro,Mulungu do Morro - EBDA,-11.967425,-41.640023,Chapada Diamantina,RPGA do Rio Paraguaçu,0.0,0.0,0.0,0.0,0.0,0.0,0.0,0.0,0.0,0.0,0.0,0.0,0.0,0.0,0.0,0.0,0.0,0.0,0.0,0.0,0.0,0.0,0.0,0.0,0.0,0.0,0.0,0.0,0.0,0.0,0.0,0.0
Marcionílio Souza,PG-CL-03,Marcionílio Souza,Marcionílio Souza - PG-CL-03,-13.00021,-40.537783,Chapada Diamantina,RPGA do Rio Paraguaçu,0.0,0.0,0.0,0.0,0.0,0.5,0.0,0.0,0.0,0.0,0.0,1.25,0.0,0.0,0.0,0.0,0.0,0.0,0.0,0.0,0.0,0.0,0.0,0.0,0.0,0.0,6.5,0.0,0.0,0.0,0.0,8.25
Seabra,PG-PR-01,Seabra,Seabra - PG-PR-01,-12.428149,-41.770409,Chapada Diamantina,RPGA do Rio Paraguaçu,0.0,0.0,0.0,0.0,0.25,2.25,0.75,0.5,0.25,0.25,0.0,0.0,0.0,0.0,0.0,0.0,0.0,0.0,0.0,0.0,0.0,0.0,0.0,0.0,0.0,0.75,4.5,0.0,0.0,0.0,0.0,9.5
Tapiramutá,PG-PR-09,Tapiramutá,Tapiramutá - PG-PR-09,-11.838502,-40.791761,Chapada Diamantina,RPGA do Rio Paraguaçu,0.0,0.0,0.25,4.25,5.0,8.25,3.75,0.25,0.0,0.5,0.5,8.25,2.5,5.75,0.25,0.0,0.0,0.0,0.0,0.0,0.0,0.0,0.0,0.0,0.0,4.75,7.0,6.75,4.75,5.25,0.0,68.0
Ventura,PG-PR-10,Morro do Chapéu,Morro do Chapéu (Ventura) - PG-PR-10,-11.650911,-40.951765,Chapada Diamantina,RPGA do Rio Paraguaçu,0.0,0.0,0.0,0.5,0.25,3.0,0.25,0.0,0.0,0.0,0.25,1.0,0.5,0.5,0.25,0.25,0.0,0.0,0.0,0.0,0.0,0.0,0.0,0.0,0.0,0.5,1.0,1.25,0.5,0.0,0.0,10.0
Bonito,PG-PR-11,Bonito,Bonito - PG-PR-11,-11.98993,-41.25429,Chapada Diamantina,RPGA do Rio Paraguaçu,0.0,0.0,0.0,1.75,3.25,9.0,0.25,0.5,0.25,0.25,0.75,18.75,2.75,4.75,0.0,0.25,0.0,0.0,0.0,0.5,0.0,0.0,0.0,0.0,0.0,4.5,13.0,13.75,0.5,1.25,0.0,76.0
Jeremoabo,EBDA,Jeremoabo,Jeremoabo - EBDA,-10.067951,-38.351041,Nordeste,RPGA do Rio Vaza-Barris,0.0,0.0,4.1,2.9,3.0,3.5,0.0,0.0,1.3,17.5,0.0,16.0,41.0,1.0,0.0,0.0,0.0,5.4,3.8,0.0,2.7,0.0,0.0,0.0,4.0,14.9,0.9,0.0,6.3,0.0,4.4,132.71
Coronel João Sá,EBDA,Coronel João Sá,Coronel João Sá - EBDA,-10.284624,-37.917698,Nordeste,RPGA do Rio Vaza-Barris,0.0,0.0,0.0,23.3,0.0,4.3,4.0,0.0,7.4,6.9,5.4,0.5,13.0,16.7,0.0,0.0,0.0,0.0,8.6,4.1,0.0,0.0,2.8,0.9,3.6,15.5,0.8,0.0,0.0,4.5,0.0,122.3
Abaré,EBDA,Abaré,Abaré - EBDA,-8.71792,-39.117725,Nordeste,RPGA dos Rios Macururé e Curaçá,0.0,0.0,0.0,0.0,0.0,0.0,0.0,0.0,0.0,0.0,0.0,0.0,0.0,0.0,0.0,0.0,0.0,0.0,0.0,0.0,0.0,0.0,0.0,0.0,0.0,0.0,0.0,0.0,0.0,0.0,0.0,0.0
Chorrochó,EBDA,Chorrochó,Chorrochó - EBDA,-8.984593,-39.101059,Nordeste,RPGA dos Rios Macururé e Curaçá,0.0,0.0,0.0,0.0,0.0,0.0,0.0,0.0,0.0,5.0,0.0,0.0,15.0,0.0,0.0,0.0,0.0,0.0,0.0,0.0,0.0,0.0,0.0,0.0,0.0,0.0,0.0,0.0,0.0,0.0,0.0,20.0
Rodelas,EBDA,Rodelas,Rodelas - EBDA,-8.83459,-38.751049,Nordeste,RPGA dos Rios Macururé e Curaçá,0.0,0.0,0.0,0.0,0.0,0.0,0.0,0.0,0.0,0.0,0.0,1.7,1.7,0.7,0.0,0.0,0.0,0.0,0.6,0.0,0.0,0.0,0.0,0.0,0.0,0.0,0.0,0.0,0.0,0.0,0.0,4.7
Macururé,EBDA,Macururé,Macururé - EBDA,-9.16793,-39.051056,Nordeste,RPGA dos Rios Macururé e Curaçá,0.0,0.0,0.0,0.0,0.0,0.0,0.0,0.0,0.0,0.0,0.0,0.0,0.0,0.0,0.0,0.0,0.0,0.0,0.0,0.0,0.0,0.0,0.0,0.0,0.0,0.0,0.0,0.0,0.0,0.0,0.0,0.0
Curaçá,EBDA,Curaçá,Curaçá - EBDA,-8.98459,-39.90108,Nordeste,RPGA dos Rios Macururé e Curaçá,0.0,0.0,0.0,0.0,0.0,0.0,0.0,4.4,0.0,0.0,0.0,0.0,0.0,0.0,0.0,0.0,0.0,0.0,0.0,0.0,0.0,0.0,0.0,0.0,0.0,0.0,0.0,0.0,0.0,0.0,0.0,4.4
Riachão do Jacuípe_EBDA,,Riachão do Jacuípe_EBDA,Riachão do Jacuípe_EBDA,-11.801317,-39.384408,Nordeste,RPGA do Rio Paraguaçu,0.0,0.0,5.0,0.0,0.0,0.0,0.0,0.0,0.0,0.0,0.0,7.0,15.0,0.0,0.0,0.0,0.0,0.0,0.0,0.0,0.0,0.0,0.0,0.0,0.0,2.0,17.5,10.0,0.0,0.0,0.0,56.5
Santa Bárbara,EBDA,Santa Bárbara,Santa Bárbara - EBDA,-11.984657,-38.984398,Nordeste,RPGA do Recôncavo Norte,0.0,0.0,0.0,0.0,0.0,0.0,0.0,28.0,0.0,0.0,6.5,0.0,45.0,0.0,0.0,0.0,0.0,0.0,0.0,0.0,0.0,0.0,8.5,0.0,0.0,18.0,20.0,0.0,0.0,0.0,0.0,126.0
Senhor do Bonfim,A428,Senhor do Bonfim,Senhor do Bonfim - A428,-10.443072,-40.148244,Nordeste,RPGA do Rio Itapicuru,0.0,0.0,0.0,0.0,0.0,0.4,16.6,0.0,0.0,3.6,0.4,2.8,2.8,18.4,0.6,0.0,0.0,0.0,2.8,20.0,0.2,0.0,0.0,0.6,0.0,1.0,19.2,3.6,1.4,0.0,0.0,94.4
Cansanção,EBDA,Cansanção,Cansanção - EBDA,-10.66796,-39.501074,Nordeste,RPGA do Rio Itapicuru,0.0,0.0,0.0,0.0,0.0,2.3,2.3,0.0,0.0,0.0,0.0,0.0,0.0,0.0,0.0,0.0,1.2,4.4,2.5,0.0,0.0,0.0,0.0,0.0,0.0,0.0,10.8,8.4,0.0,0.0,0.0,31.9
Tucano,EBDA,Tucano,Tucano - EBDA,-10.971302,-38.781056,Nordeste,RPGA do Rio Itapicuru,0.0,0.0,0.0,0.0,0.0,7.0,0.0,3.0,8.0,4.0,0.0,0.0,10.0,10.0,0.0,0.0,0.0,0.0,0.0,0.0,0.0,1.0,0.0,2.0,0.0,13.0,7.0,0.0,0.0,0.0,9.0,74.0
Banzaê,EBDA,Banzaê,Banzaê - EBDA,-10.584629,-38.617717,Nordeste,RPGA do Rio Itapicuru,0.0,0.0,3.0,7.5,0.0,11.0,0.0,6.0,10.0,17.5,2.5,14.0,46.0,2.0,0.0,0.0,0.0,12.5,6.0,0.0,1.0,0.0,0.0,0.0,0.0,10.0,10.0,0.0,2.5,0.0,10.0,171.5
Paulo Afonso,A411,Paulo Afonso,Paulo Afonso - A411,-9.379325,-38.227424,Nordeste,RPGA dos Rios Macururé e Curaçá,0.0,0.0,2.4,7.0,0.2,4.2,4.4,0.0,0.0,2.6,7.4,0.0,7.4,17.0,7.4,0.0,0.0,0.0,11.2,0.2,0.0,0.0,0.0,2.4,1.6,0.2,2.4,0.2,0.8,14.2,0.2,93.41
Cipó,83192,Cipó,Cipó - 83192,-11.083333,-38.516667,Nordeste,RPGA do Rio Itapicuru,0.0,0.0,0.0,0.4,2.5,0.8,8.3,0.6,1.9,4.8,4.1,0.2,2.3,16.6,0.2,0.1,0.0,0.0,0.5,8.1,0.2,0.0,1.0,0.9,2.1,1.1,31.9,2.6,0.0,0.0,0.2,91.4
Jacobina,83186,Jacobina,Jacobina - 83186,-11.172778,-40.534167,Nordeste,RPGA do Rio Itapicuru,0.0,0.0,0.0,3.9,0.0,0.0,5.0,0.5,0.3,3.1,0.3,13.1,1.0,13.8,0.4,0.0,0.0,0.0,0.0,6.2,0.0,0.0,0.0,0.0,0.0,2.4,13.7,10.0,3.1,0.0,2.4,79.2
Monte Santo,83090,Monte Santo,Monte Santo - 83090,-10.4425,-39.331111,Nordeste,RPGA do Rio Itapicuru,0.0,0.0,0.0,0.0,3.2,0.8,3.1,0.0,0.0,3.6,0.3,1.2,7.3,8.7,1.9,0.0,0.0,0.0,5.1,10.0,0.0,0.0,0.0,0.2,0.0,1.2,13.2,4.0,0.0,0.1,0.0,63.9
Paulo Afonso,82986,Paulo Afonso,Paulo Afonso - 82986,-9.379325,-38.227424,Nordeste,RPGA dos Rios Macururé e Curaçá,0.0,0.0,2.3,6.4,0.3,3.5,3.7,0.0,0.0,2.0,6.1,0.0,6.4,15.3,6.5,0.0,0.0,0.0,10.3,0.0,0.0,0.0,0.0,1.7,1.3,0.0,2.1,0.0,0.5,12.0,0.0,80.4
Serrinha,83190,Serrinha,Serrinha - 83190,-11.633333,-38.966667,Nordeste,RPGA do Recôncavo Norte,0.0,0.0,0.0,0.1,1.4,1.1,9.5,0.2,1.3,0.8,3.2,1.6,3.3,14.1,0.9,0.0,0.0,0.0,3.4,4.3,0.0,0.0,0.6,2.5,0.0,12.9,38.6,7.7,0.3,0.0,3.8,111.6
Conde,A431,Conde,Conde - A431,-12.03622,-37.68322,Nordeste,RPGA do Rio Itapicuru,0.2,1.2,0.0,1.6,1.4,4.2,5.2,1.6,7.0,8.8,6.4,0.2,16.0,15.8,1.0,0.2,0.2,0.0,15.0,6.8,0.2,0.2,2.2,0.0,2.0,0.6,38.0,0.8,0.0,1.8,2.8,141.41
Uauá,A435,Uauá,Uauá - A435,-9.833617,-39.495631,Nordeste,RPGA do Rio Vaza-Barris,0.0,0.0,0.0,0.0,0.4,0.0,0.0,0.0,0.0,0.2,1.2,0.0,1.0,7.6,0.0,0.0,0.0,0.0,0.2,2.8,0.0,0.0,0.0,0.0,0.0,0.0,1.4,2.2,0.0,0.4,0.0,17.4
Euclides da Cunha,A442,Euclides da Cunha,Euclides da Cunha - A442,-10.537233,-38.996605,Nordeste,RPGA do Rio Itapicuru,0.2,0.2,0.0,0.4,5.2,2.0,5.4,0.2,5.4,7.0,11.6,1.4,10.8,20.8,2.4,0.2,0.0,0.0,7.8,5.2,0.0,0.0,0.2,3.6,0.0,4.2,15.8,8.0,0.0,0.2,0.2,118.4
Queimadas,A436,Queimadas,Queimadas - A436,-10.984645,-39.617009,Nordeste,RPGA do Rio Itapicuru,0.0,0.0,0.0,0.0,0.0,0.0,14.0,0.0,0.2,2.4,0.8,5.4,0.6,20.0,0.2,0.2,0.0,0.0,0.6,29.0,0.2,0.0,0.0,0.0,0.0,1.0,59.4,6.6,2.2,0.0,2.2,145.0
Jacobina,A440,Jacobina,Jacobina - A440,-11.205136,-40.464979,Nordeste,RPGA do Rio Itapicuru,0.0,0.0,0.0,5.0,0.0,0.2,8.8,0.2,1.2,5.0,1.2,7.8,1.0,11.8,0.2,0.0,0.2,0.0,0.0,13.8,0.0,0.2,0.0,0.8,0.0,6.0,16.2,8.8,1.4,0.4,4.6,94.81
Serrinha,A441,Serrinha,Serrinha - A441,-11.664586,-39.022946,Nordeste,RPGA do Rio Paraguaçu,0.0,0.0,0.0,0.4,1.2,1.4,8.0,1.2,1.0,1.4,3.4,3.6,3.4,13.0,0.4,0.0,0.0,0.0,3.6,5.4,0.2,0.0,1.0,1.8,0.0,10.8,34.0,7.0,0.2,0.2,4.6,107.2
EBDA Alagoinhas,EBDA,Itapicuru,Itapicuru (EBDA Alagoinhas) - EBDA,-11.317978,-38.217708,Nordeste,RPGA do Rio Itapicuru,0.0,0.0,0.0,4.0,3.0,5.0,2.0,5.0,0.0,10.0,7.5,1.0,45.0,1.5,0.0,0.0,0.0,2.0,9.0,0.0,0.0,0.0,9.0,2.5,15.0,44.0,5.0,0.0,0.0,6.0,6.0,182.5
Canudos,EBDA - EBDA,Canudos,Canudos - EBDA - EBDA,-9.897945,-39.027448,Nordeste,RPGA do Rio Vaza-Barris,0.0,0.0,0.0,0.0,0.0,0.0,0.0,0.0,0.0,0.0,0.0,0.0,0.0,0.0,0.0,0.0,0.0,0.0,0.0,0.0,0.0,0.0,0.0,0.0,0.0,0.0,0.0,0.0,0.0,0.0,0.0,0.0
Tijuaçú,EBDA,Senhor do Bomfim,Senhor do Bomfim (Tijuaçú) - EBDA,-10.617957,-40.134423,Nordeste,RPGA do Rio Itapicuru,0.0,0.0,0.0,0.0,0.0,4.0,0.0,0.0,6.0,0.0,0.0,12.0,9.0,5.0,0.0,0.0,0.0,8.0,23.0,0.0,0.0,0.0,0.0,0.0,0.0,0.0,0.0,0.0,0.0,0.0,0.0,67.0
Faz. Boa Esperança,EBDA,Pindobaçu,Pindobaçu (Faz. Boa Esperança) - EBDA,-10.734626,-40.367764,Nordeste,RPGA do Rio Itapicuru,0.0,0.0,0.0,0.0,0.0,10.0,0.0,0.0,0.0,2.0,0.0,3.0,38.0,0.0,0.0,0.0,0.0,0.0,15.0,0.0,0.0,0.0,0.0,0.0,0.0,2.0,21.0,10.0,0.0,0.0,0.0,101.0
Pedras Altas,50430000,Capim Grosso,Capim Grosso (Pedras Altas) - 50430000,-11.18288,-40.04725,Nordeste,RPGA do Rio Itapicuru,0.0,0.0,0.0,0.6,0.0,0.0,3.4,0.2,0.0,0.2,0.8,5.2,0.2,5.8,0.2,0.0,0.0,0.0,0.0,5.6,0.0,0.0,0.0,0.4,0.0,0.0,1.6,0.0,0.0,0.0,0.0,24.2
Ponto Novo,50380000,Ponto Novo,Ponto Novo - 50380000,-10.845,-40.1128,Nordeste,RPGA do Rio Itapicuru,0.0,0.0,0.0,0.4,0.0,0.0,6.4,0.2,0.0,0.0,0.4,1.4,1.2,12.2,0.0,0.0,0.0,0.0,0.0,6.8,0.0,0.0,0.0,0.0,0.0,0.4,8.6,0.0,0.2,0.6,0.2,39.01
Fátima,EBDA,Fátima,Fátima - EBDA,-10.594074,-38.217985,Nordeste,RPGA do Rio Vaza-Barris,0.0,0.0,0.0,0.0,5.0,7.5,0.0,5.0,10.0,8.0,0.0,0.0,15.0,2.5,0.0,0.0,0.0,14.0,8.0,6.0,3.0,0.0,5.0,2.0,2.5,0.0,23.0,0.0,5.0,1.0,12.5,135.0
Novo Triunfo,EBDA,Novo Triunfo,Novo Triunfo - EBDA,-10.348512,-38.409377,Nordeste,RPGA do Rio Vaza-Barris,0.0,0.0,0.0,0.0,0.0,9.0,0.0,1.0,0.5,9.0,0.0,20.0,30.0,0.0,0.0,0.0,0.0,10.0,10.0,8.0,0.0,0.0,0.0,0.0,0.0,19.0,0.0,0.0,0.0,0.0,5.0,121.5
Jandaíra,EBDA,Jandaíra,Jandaíra - EBDA,-11.565486,-37.785476,Nordeste,RPGA do Rio Real,0.0,0.0,3.0,3.4,8.5,0.0,3.5,0.0,9.0,12.5,9.0,0.0,10.0,57.0,0.0,9.0,0.0,0.0,3.5,3.5,3.0,5.0,0.0,1.0,5.0,20.0,20.0,20.0,1.0,0.0,0.0,206.9
Acajutiba,EBDA,Acajutiba,Acajutiba - EBDA,-11.663542,-38.01826,Nordeste,RPGA do Rio Itapicuru,0.0,3.0,4.1,1.0,2.4,16.7,8.2,5.0,15.2,9.1,4.4,35.7,17.2,4.0,0.3,0.0,0.0,6.9,4.3,0.0,0.1,8.3,0.7,2.7,3.0,98.5,2.4,0.0,0.0,0.0,9.7,262.9
Ipirá,PG-CL-02,Ipirá,Ipirá - PG-CL-02,-12.14986,-39.76454,Nordeste,RPGA do Rio Paraguaçu,0.0,0.0,0.0,1.5,3.5,8.5,4.25,0.0,0.0,0.75,2.5,8.0,5.0,7.0,0.0,0.0,0.0,0.0,0.0,0.75,0.0,0.0,0.0,0.0,0.0,2.25,8.0,5.75,4.75,0.5,0.0,63.0
Serrinha,RN-CL-02,Serrinha,Serrinha - RN-CL-02,-11.648333,-38.982777,Nordeste,RPGA do Recôncavo Norte,1.25,0.75,0.75,1.5,1.25,2.0,16.75,5.25,0.75,2.5,3.75,10.5,5.25,29.5,1.0,0.25,1.0,1.25,4.25,3.5,0.5,1.0,0.75,2.75,0.25,7.25,31.25,7.5,1.0,0.5,5.5,151.25
Valente,PG-PR-04,Valente,Valente - PG-PR-04,-11.40119,-39.458099,Nordeste,RPGA do Rio Paraguaçu,4.25,0.0,4.5,2.25,0.0,0.75,9.5,1.0,0.5,1.0,0.75,1.75,0.75,12.75,0.0,0.0,0.0,0.0,1.0,1.25,0.0,0.0,0.0,0.0,0.0,1.75,26.75,5.0,0.25,0.0,1.5,77.25
Pintadas,PG-PR-05,Pintadas,Pintadas - PG-PR-05,-11.837311,-39.969786,Nordeste,RPGA do Rio Paraguaçu,0.0,0.0,0.0,1.25,1.0,1.0,3.0,0.0,0.0,1.5,1.5,1.25,1.75,15.25,0.25,0.0,0.0,0.0,0.0,0.0,0.0,0.0,0.0,0.0,0.0,1.25,8.5,2.25,6.0,0.0,0.0,45.75
Pé de Serra,PG-PR-06,Pé de Serra,Pé de Serra - PG-PR-06,-11.833423,-39.623663,Nordeste,RPGA do Rio Paraguaçu,0.0,0.0,0.0,0.75,0.5,1.75,3.5,0.0,0.5,0.25,0.25,1.5,3.0,15.5,0.0,0.0,0.0,0.0,0.0,0.5,0.0,0.0,0.0,0.0,0.0,0.0,17.0,4.25,0.5,0.25,0.5,50.5
Itapeipu,IT-PR-34,Jacobina,Jacobina (Itapeipu) - IT-PR-34,-11.315629,-40.356742,Nordeste,RPGA do Rio Itapicuru,0.0,0.0,0.0,0.25,0.0,0.0,2.25,0.5,1.0,5.0,0.75,2.5,0.5,7.5,0.0,0.0,0.0,0.0,0.0,6.0,0.0,0.0,0.0,0.0,0.0,3.75,10.75,3.75,3.0,0.0,4.5,52.0
Caém,IT-PR-35,Caém,Caém - IT-PR-35,-11.093399,-40.437579,Nordeste,RPGA do Rio Itapicuru,0.0,0.0,0.0,1.25,0.0,0.25,4.5,0.0,2.5,7.75,2.0,9.75,1.75,19.25,1.25,0.0,0.25,0.0,0.0,11.5,0.0,0.0,0.0,0.0,0.0,4.5,21.75,7.25,5.5,0.0,3.5,104.5
Tombador Araújo,IT-PR-36,Jacobina,Jacobina (Tombador Araújo) - IT-PR-36,-11.168677,-40.670642,Nordeste,RPGA do Rio Itapicuru,0.0,0.0,0.0,0.25,0.0,0.0,2.75,0.5,0.25,2.5,0.25,5.0,0.25,13.0,0.5,0.0,0.0,0.0,0.0,1.5,0.0,0.0,0.0,0.0,0.0,3.0,7.0,4.0,6.75,0.25,2.25,50.0
Conceição do Coité,IT-PR-14,Conceição do Coité,Conceição do Coité - IT-PR-14,-11.526752,-39.313095,Nordeste,RPGA do Rio Itapicuru,0.0,0.0,0.0,0.0,0.0,0.0,0.75,1.75,0.0,0.5,0.5,3.25,1.0,8.25,0.0,0.0,0.0,0.0,0.0,2.75,0.0,0.0,0.0,0.25,0.0,4.5,23.25,5.0,0.25,0.0,1.25,53.25
Riacho da Onça,IT-PR-15,Queimadas,Queimadas (Riacho da Onça) - IT-PR-15,-11.24424,-39.790055,Nordeste,RPGA do Rio Itapicuru,0.0,0.0,0.0,0.0,0.0,0.0,8.25,0.75,0.0,0.0,0.5,1.25,0.25,5.25,0.0,0.0,0.0,0.0,0.0,1.5,0.0,0.0,0.0,2.0,0.0,0.75,12.75,2.25,1.5,0.0,0.0,37.0
Povoado Rio do Peixe,IT-PR-16,Queimadas,Queimadas (Povoado Rio do Peixe) - IT-PR-16,-11.097292,-39.524491,Nordeste,RPGA do Rio Itapicuru,0.0,0.0,0.0,0.0,0.0,0.0,12.25,0.0,0.0,0.5,0.5,0.25,0.0,5.0,0.25,0.0,0.0,0.0,0.0,12.0,0.0,0.0,0.0,0.0,0.0,0.0,22.5,3.0,0.0,0.0,1.0,57.25
Santaluz,IT-PR-17,Santaluz,Santaluz - IT-PR-17,-11.24831,-39.37563,Nordeste,RPGA do Rio Itapicuru,0.0,0.0,0.0,0.0,0.0,0.0,2.25,0.25,0.0,1.5,0.5,2.25,0.0,3.5,0.0,0.25,0.0,0.0,1.0,2.25,0.0,0.0,0.0,0.0,0.0,0.5,21.0,1.0,0.25,0.0,1.75,38.25
Fazenda Boa Vista,IT-PR-18,Uauá,Uauá (Fazenda Boa Vista) - IT-PR-18,-10.05893,-39.706158,Nordeste,RPGA do Rio Itapicuru,0.0,0.0,0.0,0.0,1.0,0.0,0.0,0.0,0.0,1.0,0.0,0.25,1.5,8.5,0.0,0.0,0.0,0.0,1.75,5.75,0.0,0.0,0.0,0.0,0.0,0.0,8.5,1.0,0.25,0.0,0.75,30.25
Nordestina,IT-PR-22,Nordestina,Nordestina - IT-PR-22,-10.826728,-39.437543,Nordeste,RPGA do Rio Itapicuru,0.0,0.0,0.0,0.0,0.0,0.25,1.75,2.75,0.75,1.75,0.75,4.25,1.25,9.0,2.0,0.25,0.0,0.0,0.75,11.25,0.0,0.0,0.0,0.0,0.0,3.25,26.5,5.5,0.75,0.0,0.5,73.25
Açude Monteiro,IT-PR-23,Nordestina,Nordestina (Açude Monteiro) - IT-PR-23,-10.77645,-39.559491,Nordeste,RPGA do Rio Itapicuru,0.0,0.0,0.0,0.0,0.0,0.5,8.75,0.5,0.0,0.5,0.0,4.5,0.5,5.0,0.75,0.0,0.0,0.0,1.0,10.0,0.0,0.0,0.0,1.0,0.0,0.5,21.5,6.75,0.75,0.0,0.0,62.5
Pedra Vermelha,IT-PR-24,Monte Santo,Monte Santo (Pedra Vermelha) - IT-PR-24,-10.454497,-39.559488,Nordeste,RPGA do Rio Itapicuru,0.0,0.0,0.0,0.0,3.25,0.25,4.75,0.0,0.0,1.0,0.75,0.5,4.25,2.25,4.5,0.0,0.0,0.0,0.75,4.0,0.0,0.0,0.0,1.5,0.0,0.5,4.5,2.5,0.5,0.0,0.5,36.25
Quijingue,IT-PR-25,Quijingue,Quijingue - IT-PR-25,-10.783951,-39.20809,Nordeste,RPGA do Rio Itapicuru,0.0,0.0,0.0,0.0,0.5,0.0,4.0,0.25,0.0,1.25,0.5,0.0,2.5,4.0,2.75,0.0,0.0,0.0,0.75,2.75,0.0,0.0,0.0,0.25,0.0,0.0,7.5,4.5,0.25,0.0,6.0,37.75
Umbuzeiro,IT-PR-32,Olindina,Olindina (Umbuzeiro) - IT-PR-32,-11.454252,-38.455844,Nordeste,RPGA do Rio Itapicuru,0.0,0.0,0.0,0.0,0.0,0.25,1.25,1.75,2.0,3.75,3.5,1.25,5.75,12.5,1.75,0.0,0.0,0.0,1.5,4.0,1.75,0.0,1.75,2.75,0.75,12.5,28.25,5.75,0.0,0.0,0.0,92.75
Curral Falso,IT-PR-01,Ribeira do Pombal,Ribeira do Pombal (Curral Falso) - IT-PR-01,-10.697843,-38.5714,Nordeste,RPGA do Rio Itapicuru,0.0,0.0,0.0,0.75,8.0,4.0,15.75,0.25,6.25,5.25,12.5,0.25,8.25,11.25,0.0,0.0,0.0,0.0,8.25,3.5,0.0,1.0,0.0,1.5,0.75,0.5,6.5,6.25,0.0,1.0,0.5,102.25
Ribeira do Pombal,IT-PR-04,Ribeira do Pombal,Ribeira do Pombal - IT-PR-04,-10.823399,-38.545844,Nordeste,RPGA do Rio Itapicuru,0.0,0.0,0.0,2.0,6.0,2.75,2.5,0.5,7.75,4.5,10.5,2.0,4.0,18.0,1.0,0.0,0.0,0.0,7.25,2.25,0.0,0.0,0.0,1.25,2.75,0.5,12.5,13.75,0.0,0.5,0.0,102.25
BR 116 E. Cunha / Tucano,IT-PR-05,Quijingue,Quijingue (BR 116 E. Cunha / Tucano) - IT-PR-05,-10.7105,-38.9227,Nordeste,RPGA do Rio Itapicuru,0.0,0.0,0.0,0.0,3.75,0.75,0.5,0.75,2.0,3.75,1.5,0.5,1.75,4.0,1.5,0.0,0.0,0.0,2.75,2.25,0.0,0.0,0.0,0.75,0.25,0.25,8.5,4.0,0.25,0.0,0.0,39.75
Crisópolis,IT-PR-08,Crisópolis,Crisópolis - IT-PR-08,-11.510923,-38.120832,Nordeste,RPGA do Rio Itapicuru,0.0,0.0,0.0,5.25,0.75,9.25,2.0,0.5,1.5,8.0,7.25,0.0,23.5,18.75,0.5,0.0,0.0,0.0,3.5,4.5,0.0,0.0,3.5,1.75,1.75,10.75,53.0,1.75,0.0,0.0,0.0,157.75
Fazenda Laranjeiras III,IT-PR-09,Araci,Araci (Fazenda Laranjeiras III) - IT-PR-09,-11.334248,-38.968638,Nordeste,RPGA do Rio Itapicuru,0.0,0.0,0.0,0.25,0.0,0.0,0.5,0.75,0.75,0.5,0.0,0.75,1.25,10.5,2.0,0.0,0.0,0.0,0.0,6.25,0.25,0.0,0.0,1.75,0.0,3.0,30.25,2.75,0.25,0.0,1.25,63.0
Olindina,IT-PR-11,Olindina,Olindina - IT-PR-11,-11.343693,-38.318892,Nordeste,RPGA do Rio Itapicuru,0.0,0.0,0.0,0.25,0.5,5.0,2.5,0.75,3.25,2.5,7.5,0.5,11.75,21.75,0.5,0.0,0.0,0.0,1.5,8.75,0.0,0.0,3.0,1.75,1.5,7.0,27.25,0.5,0.0,0.0,2.0,110.0
Itapicuru,IT-PR-12,Itapicuru,Itapicuru - IT-PR-12,-11.321193,-38.225003,Nordeste,RPGA do Rio Itapicuru,0.0,0.25,0.0,0.0,1.0,5.75,1.0,1.5,3.0,5.0,5.0,0.75,10.75,28.0,0.0,0.0,0.25,0.0,1.0,6.25,0.0,0.0,0.0,0.0,0.0,0.0,0.0,0.0,0.0,0.0,0.0,69.5
Boa Hora,IT-PR-13,Ribeira do Amparo,Ribeira do Amparo (Boa Hora) - IT-PR-13,-10.965,-38.5234,Nordeste,RPGA do Rio Itapicuru,0.0,0.0,0.0,0.75,1.25,0.25,7.0,0.25,7.75,5.75,7.5,0.75,4.5,22.25,0.75,0.0,0.0,0.0,6.0,2.25,0.0,0.0,0.25,1.75,2.0,1.75,18.25,11.75,0.0,0.0,0.0,102.75
Tanquinho,EBDA,Tanquinho,Tanquinho - EBDA,-11.96799,-39.101068,Nordeste,RPGA do Rio Paraguaçu,0.0,0.0,2.1,0.0,2.8,5.0,0.0,0.0,0.0,0.0,6.3,1.6,46.2,1.5,0.0,0.0,0.0,0.0,0.0,4.6,0.0,0.0,6.0,0.0,3.0,3.1,8.0,3.54,0.0,0.0,3.5,97.24
Inhambupe,EBDA,Inhambupe,Inhambupe - EBDA,-11.784656,-38.351047,Nordeste,RPGA do Recôncavo Norte,0.0,0.0,7.5,0.0,0.0,12.0,0.0,2.5,4.0,6.0,4.5,9.0,30.0,2.5,0.0,0.0,0.0,0.0,10.0,0.0,0.0,0.0,9.0,0.0,12.0,47.0,9.0,0.0,0.0,2.5,6.0,173.5
Esplanada,EBDA,Esplanada,Esplanada - EBDA,-11.784656,-37.951038,Nordeste,RPGA do Recôncavo Norte,0.0,0.0,0.0,0.0,0.0,8.8,8.6,5.4,2.0,9.0,4.4,25.0,20.0,25.0,0.0,0.0,0.0,11.8,9.5,0.0,0.0,9.7,0.8,7.0,2.7,30.0,23.0,18.6,0.0,3.6,11.0,235.9
Entre Rios,EBDA,Entre Rios,Entre Rios - EBDA,-11.951326,-38.084374,Nordeste,RPGA do Recôncavo Norte,0.0,0.0,0.0,0.0,0.0,0.0,0.0,0.0,0.0,0.0,5.0,15.0,16.5,4.0,0.0,0.0,0.0,2.0,4.0,6.0,8.0,3.0,10.0,15.0,18.0,15.0,12.0,6.0,4.0,0.0,0.0,143.5
Rio Real,EBDA,Rio Real,Rio Real - EBDA,-11.48465,-37.934369,Nordeste,RPGA do Rio Real,0.0,0.0,0.0,2.2,0.0,17.4,0.0,2.2,10.0,11.6,1.6,10.0,41.0,1.0,0.1,0.0,8.2,0.0,13.2,0.0,0.0,2.4,1.8,2.2,36.0,70.8,15.0,0.0,0.2,0.3,5.8,253.0
Sátiro Dias,EBDA,Sátiro Dias,Sátiro Dias - EBDA,-11.58465,-38.584386,Nordeste,RPGA do Recôncavo Norte,0.0,0.0,0.0,0.0,0.0,11.0,0.0,0.0,7.5,0.0,5.5,0.0,20.0,2.0,0.0,0.0,0.0,3.0,0.0,0.0,0.0,0.0,9.0,0.0,0.0,27.0,45.0,6.0,0.0,0.0,16.0,152.0
Ribeira do Pombal,EBDA,Ribeira do Pombal,Ribeira do Pombal - EBDA,-10.834635,-38.534383,Nordeste,RPGA do Rio Itapicuru,0.0,0.0,2.1,7.5,2.1,6.0,0.8,8.3,3.3,10.3,2.4,4.0,22.8,0.7,0.0,0.0,0.0,8.7,6.4,0.0,0.0,0.0,1.6,3.3,0.7,13.3,17.0,0.5,0.6,0.0,9.4,131.8
Cipó,EBDA,Cipó,Cipó - EBDA,-11.101305,-38.517717,Nordeste,RPGA do Rio Itapicuru,0.0,0.0,0.0,2.8,0.0,9.5,1.8,2.0,5.0,7.5,0.0,0.0,22.7,0.5,0.0,0.0,0.0,0.5,7.4,0.0,0.0,0.0,1.7,1.9,0.0,26.8,4.2,0.0,0.0,0.0,9.5,103.8
Olindina_EBDA,EBDA,Olindina_EBDA,Olindina_EBDA - EBDA,-11.351311,-38.33438,Nordeste,RPGA do Rio Itapicuru,0.0,0.0,0.0,0.0,0.0,8.0,0.0,1.8,2.0,4.0,2.5,5.0,30.0,0.0,0.0,0.0,0.0,1.7,5.8,0.0,0.0,5.5,2.8,7.4,11.6,31.0,0.0,0.0,0.0,0.0,4.4,123.5
Antas,EBDA,Antas,Antas - EBDA,-10.401293,-38.334375,Nordeste,RPGA do Rio Vaza-Barris,0.0,0.0,5.0,3.0,0.0,0.0,10.0,6.0,10.0,0.0,10.0,0.0,52.0,0.0,0.0,0.0,0.0,21.0,0.0,4.0,4.0,1.0,5.0,0.0,6.0,0.0,15.0,0.0,7.0,0.0,14.0,173.0
Paripiranga,EBDA,Paripiranga,Paripiranga - EBDA,-10.684633,-37.851032,Nordeste,RPGA do Rio Vaza-Barris,0.0,0.0,0.0,5.6,0.0,11.6,0.0,12.2,8.3,13.9,0.0,5.0,62.8,0.0,0.0,0.0,0.0,35.6,0.0,5.0,0.0,0.0,2.8,0.0,10.0,31.0,0.0,0.0,0.0,2.5,16.7,223.0
Nova Soure,EBDA,Nova Soure,Nova Soure - EBDA,-11.251311,-38.484383,Nordeste,RPGA do Rio Itapicuru,0.0,0.0,0.0,6.1,6.1,2.2,1.0,2.1,6.8,4.2,1.4,0.0,38.2,2.5,0.0,0.0,0.0,1.7,11.0,7.0,0.0,0.0,8.4,1.1,8.6,35.3,4.1,0.0,0.0,0.0,7.8,155.6
Ribeira do Amparo,EBDA,Ribeira do Amparo,Ribeira do Amparo - EBDA,-11.034638,-38.43438,Nordeste,RPGA do Rio Itapicuru,0.0,0.0,0.0,0.0,0.0,16.6,3.5,7.0,3.2,9.8,0.0,0.0,22.0,1.7,0.0,0.0,0.0,3.3,3.5,0.0,0.0,0.0,1.5,1.2,4.8,28.5,7.6,0.0,0.0,0.0,8.0,122.2
Heliópolis,EBDA,Heliópolis,Heliópolis - EBDA,-10.667965,-38.284375,Nordeste,RPGA do Rio Real,0.0,0.0,0.0,0.0,0.0,0.0,0.0,11.0,8.3,5.5,0.0,5.0,15.0,0.0,0.0,0.0,0.0,5.8,0.0,0.0,0.0,0.0,12.2,0.0,0.0,5.5,11.1,0.0,0.0,2.5,13.3,95.2
Cícero Dantas,EBDA,Cícero Dantas,Cícero Dantas - EBDA,-10.584629,-38.384377,Nordeste,RPGA do Rio Real,0.0,0.0,2.0,5.0,3.0,7.0,0.0,12.5,10.0,17.5,0.0,13.0,38.0,0.0,0.0,0.0,0.0,20.0,7.0,0.0,0.0,0.0,3.0,0.0,5.5,12.0,9.0,0.0,5.0,0.0,19.0,188.5
Sítio do Quinto,EBDA,Sítio do Quinto,Sítio do Quinto - EBDA,-10.367959,-38.201038,Nordeste,RPGA do Rio Vaza-Barris,0.0,0.0,6.4,0.0,4.8,9.9,0.0,4.6,15.3,24.3,0.0,5.2,19.4,0.0,0.0,0.0,0.0,19.3,15.0,0.0,0.0,0.0,4.3,0.0,0.0,27.7,0.0,0.0,4.7,0.0,24.6,185.5
Pedro Alexandre,EBDA,Pedro Alexandre,Pedro Alexandre - EBDA,-10.017951,-37.884362,Nordeste,RPGA do Rio Vaza-Barris,0.0,0.0,7.5,1.7,0.0,2.0,8.0,1.2,10.5,6.4,0.0,10.5,44.0,1.0,0.0,0.0,0.0,14.3,3.2,0.0,2.7,0.0,5.5,0.0,8.5,10.0,0.0,0.0,3.6,0.0,0.0,140.6
Adustina,EBDA,Adustina,Adustina - EBDA,-10.534629,-38.117704,Nordeste,RPGA do Rio Vaza-Barris,0.0,0.0,0.0,2.0,0.0,0.0,7.0,9.0,8.0,2.0,1.5,0.0,14.0,7.0,3.0,0.0,2.0,6.0,12.0,4.0,0.0,0.0,6.0,6.0,0.0,0.0,0.0,6.5,6.0,8.0,7.0,117.0
Uauá,EBDA,Uauá,Uauá - EBDA,-9.834609,-39.484404,Nordeste,RPGA do Rio Vaza-Barris,0.0,0.0,0.0,0.0,0.0,0.0,0.0,0.0,0.0,0.0,0.0,0.0,0.0,0.0,0.0,0.0,0.0,0.0,0.0,0.0,0.0,0.0,0.0,0.0,0.0,0.0,0.0,1.2,0.0,0.0,0.0,1.2
Filadélfia,EBDA,Filadélfia,Filadélfia - EBDA,-10.734626,-40.134425,Nordeste,RPGA do Rio Itapicuru,0.0,0.0,0.0,0.0,0.0,26.0,0.0,0.0,0.0,0.0,4.0,0.0,18.0,0.0,0.0,0.0,0.0,0.0,0.0,10.0,0.0,0.0,0.0,0.0,0.0,10.0,20.0,10.0,0.0,0.0,0.0,98.0
Itiúba,EBDA,Itiúba,Itiúba - EBDA,-10.684626,-39.934419,Nordeste,RPGA do Rio Itapicuru,0.0,0.0,0.0,0.0,0.0,7.5,0.0,0.0,0.0,2.5,3.0,2.5,8.0,0.0,0.0,0.0,0.0,2.0,9.0,0.0,0.0,0.0,0.0,0.0,1.0,14.0,8.5,1.0,0.0,3.5,0.0,62.5
Andorinha,EBDA,Andorinha,Andorinha - EBDA,-10.33462,-39.834414,Nordeste,RPGA do Rio Itapicuru,0.0,0.0,0.0,0.0,0.0,10.0,0.0,0.0,2.0,0.0,1.0,0.0,10.0,3.0,0.0,0.0,0.5,10.0,0.0,0.0,0.0,0.0,0.0,0.0,0.0,23.0,8.0,0.0,29.0,0.0,16.0,112.5
Ponto Novo,EBDA,Ponto Novo,Ponto Novo - EBDA,-10.851296,-40.051089,Nordeste,RPGA do Rio Itapicuru,0.0,0.0,0.0,0.0,0.0,6.5,0.0,0.0,0.0,0.0,3.8,1.2,20.0,0.0,0.0,0.0,0.0,0.0,0.0,5.2,0.0,0.0,0.0,0.0,0.0,0.0,12.7,10.5,0.0,0.0,2.0,61.91
Caldeirão Grande,EBDA,Caldeirão Grande,Caldeirão Grande - EBDA,-11.017965,-40.301095,Nordeste,RPGA do Rio Itapicuru,0.0,0.0,0.0,0.0,0.0,5.0,0.0,0.0,0.0,6.0,0.0,0.0,20.0,0.0,0.0,0.0,0.0,0.0,3.0,2.0,0.0,0.0,0.0,0.0,0.0,0.0,0.0,0.0,0.0,0.0,0.0,36.0
Senhor do Bonfim,EBDA,Senhor do Bonfim,Senhor do Bonfim - EBDA,-10.451287,-40.184425,Nordeste,RPGA do Rio Itapicuru,0.0,0.0,0.0,0.0,0.0,26.1,0.5,0.0,3.7,0.0,0.0,3.4,6.0,26.8,0.0,0.0,0.0,0.0,2.8,13.5,0.0,0.0,0.0,0.0,0.5,0.0,29.2,6.8,0.3,0.0,0.0,119.6
Serrinha,EBDA,Serrinha,Serrinha - EBDA,-11.651317,-38.967731,Nordeste,RPGA do Recôncavo Norte,3.0,0.0,2.0,0.1,1.4,6.0,9.5,0.2,1.3,0.8,3.2,1.6,18.0,14.1,0.9,0.0,0.0,0.0,6.0,4.3,0.0,0.0,2.0,2.5,18.0,4.5,5.0,2.8,0.0,0.2,7.6,115.0
Conceição do Coité,EBDA,Conceição do Coité,Conceição do Coité - EBDA,-11.551314,-39.284404,Nordeste,RPGA do Rio Itapicuru,0.0,0.0,0.0,0.0,0.0,6.7,0.0,0.0,0.0,5.6,6.7,0.0,0.0,0.0,0.0,0.0,0.0,0.0,0.0,5.5,0.0,0.0,0.0,0.0,0.0,18.0,20.9,0.0,0.0,0.0,2.2,65.6
Euclides da Cunha,EBDA,Euclides da Cunha,Euclides da Cunha - EBDA,-10.501293,-39.017728,Nordeste,RPGA do Rio Itapicuru,0.2,0.2,0.0,5.4,0.2,7.4,0.0,1.6,6.8,13.6,4.2,6.2,0.0,0.0,0.0,0.0,0.0,0.0,12.8,20.2,0.0,0.0,3.6,0.2,3.2,5.0,19.4,0.4,0.0,0.2,5.0,115.81
Valente,EBDA,Valente,Valente - EBDA,-11.417977,-39.48441,Nordeste,RPGA do Rio Paraguaçu,0.0,0.0,0.0,0.0,13.0,1.8,0.0,0.0,2.5,1.4,3.0,1.0,14.3,0.3,0.0,0.0,0.0,0.0,1.0,1.9,0.0,0.0,0.0,0.0,2.4,26.5,8.4,0.9,0.0,0.0,3.3,81.7
Paulo Afonso,EBDA,Paulo Afonso,Paulo Afonso - EBDA,-9.401269,-38.217702,Nordeste,RPGA dos Rios Macururé e Curaçá,0.0,0.0,2.3,6.4,0.3,3.5,3.7,0.0,0.0,2.0,6.1,0.0,6.4,15.3,6.5,0.0,0.0,0.0,10.3,0.0,0.0,0.0,0.0,1.7,1.3,0.0,2.1,0.0,0.5,12.0,0.0,80.4
Santa Brígida,EBDA,Santa Brígida,Santa Brígida - EBDA,-9.734611,-38.134368,Nordeste,RPGA do Riacho do Tará,0.0,0.0,10.0,0.0,0.0,50.0,0.0,0.0,2.7,12.0,0.0,8.2,5.0,3.0,0.0,0.0,0.0,12.0,5.5,0.0,0.0,0.0,1.5,0.0,1.3,9.5,0.0,0.0,4.8,0.0,0.0,125.5
Glória,EBDA,Glória,Glória - EBDA,-9.351269,-38.251038,Nordeste,RPGA dos Rios Macururé e Curaçá,0.0,0.0,1.0,11.0,0.0,0.0,0.0,0.0,1.0,2.0,6.0,0.0,0.0,0.0,5.0,0.0,0.0,0.0,10.0,0.0,0.0,1.0,0.0,2.0,1.0,2.3,0.0,0.0,1.6,0.0,0.0,43.9
Casa Nova,EBDA,Casa Nova,Casa Nova - EBDA,-9.08459,-40.617764,Norte,RPGA do Lago de Sobradinho,0.0,0.0,0.0,0.0,0.0,0.0,0.0,0.0,0.0,0.0,0.0,0.0,0.0,0.0,0.0,0.0,0.0,0.0,0.0,0.0,0.0,0.0,0.0,0.0,0.0,0.0,0.0,0.0,0.0,0.0,0.0,0.0
Remanso,EBDA,Remanso,Remanso - EBDA,-9.601263,-42.08447,Norte,RPGA do Lago de Sobradinho,0.0,0.0,0.0,0.0,0.0,0.0,0.0,0.0,0.0,0.0,0.0,0.0,0.0,0.0,0.0,0.0,0.0,0.0,0.0,0.0,0.0,0.0,0.0,0.0,0.0,0.0,0.0,0.0,0.0,0.0,0.0,0.0
Sento Sé,EBDA,Sento Sé,Sento Sé - EBDA,-9.734599,-41.851131,Norte,RPGA do Lago de Sobradinho,0.0,0.0,0.0,0.0,0.0,0.0,0.0,0.0,0.0,0.0,0.0,0.0,0.0,2.4,0.0,0.0,0.0,0.0,0.0,0.0,0.0,0.0,0.0,0.0,0.0,0.0,0.0,0.0,0.0,0.0,0.0,2.4
Juazeiro -EBDA,,Juazeiro -EBDA,Juazeiro -EBDA,-9.41793,-40.501095,Norte,RPGA dos Rios Macururé e Curaçá,0.0,0.0,0.0,0.0,0.0,0.0,0.0,0.0,0.0,0.0,0.0,0.0,0.0,0.0,0.0,0.0,0.0,0.0,0.0,0.0,0.0,0.0,0.0,0.0,0.0,0.0,0.0,0.0,0.0,0.0,0.0,0.0
Sobradinho,EBDA,Sobradinho,Sobradinho - EBDA,-9.334594,-40.81777,Norte,RPGA do Lago de Sobradinho,0.0,0.0,0.0,0.0,0.0,0.0,0.0,0.0,0.0,0.0,0.0,0.0,0.0,0.0,0.0,0.0,0.0,0.0,0.0,0.0,0.0,0.0,0.0,0.0,0.0,0.0,0.0,0.0,0.0,0.0,0.0,0.0
Central,EBDA,Central,Central - EBDA,-11.151293,-42.11781,Norte,RPGA dos Rios Verde e Jacaré,0.0,0.0,0.0,0.0,0.0,0.0,0.0,0.0,0.0,0.0,0.0,0.0,0.0,0.0,0.0,0.0,0.0,0.0,0.0,0.0,0.0,0.0,0.0,0.0,0.0,0.0,0.0,0.0,0.0,0.0,0.0,0.0
Ibipeba,EBDA,Ibipeba,Ibipeba - EBDA,-11.634638,-42.034476,Norte,RPGA dos Rios Verde e Jacaré,0.0,0.0,0.0,0.0,0.0,0.0,0.0,0.0,0.0,0.0,0.0,0.0,0.0,0.0,0.0,0.0,0.0,0.0,0.0,0.0,0.0,0.0,0.0,0.0,0.0,0.0,0.0,0.0,0.0,0.0,0.0,0.0
Ibititá,EBDA,Ibititá,Ibititá - EBDA,-11.523108,-41.976085,Norte,RPGA dos Rios Verde e Jacaré,0.0,0.0,0.0,0.0,0.0,0.0,0.0,0.0,0.0,0.0,0.0,0.0,0.0,0.0,0.0,0.0,0.0,0.0,0.0,0.0,0.0,0.0,0.0,0.0,0.0,0.0,0.0,0.0,0.0,0.0,0.0,0.0
Irecê,EBDA,Irecê,Irecê - EBDA,-11.317966,-41.867804,Norte,RPGA dos Rios Verde e Jacaré,0.0,0.0,0.0,0.0,0.0,0.0,0.0,0.0,0.0,0.0,0.0,0.0,0.0,0.0,0.0,0.0,0.0,0.0,0.0,0.0,0.0,0.0,0.0,0.0,0.0,0.0,0.0,0.0,0.0,0.0,0.0,0.0
João Dourado,EBDA,João Dourado,João Dourado - EBDA,-11.334633,-41.651131,Norte,RPGA dos Rios Verde e Jacaré,0.0,0.0,0.0,0.0,0.0,0.0,0.0,0.0,0.0,0.0,0.0,0.0,0.0,0.0,0.0,0.0,0.0,0.0,0.0,0.0,0.0,0.0,0.0,0.0,0.0,0.0,0.0,0.0,0.0,0.0,0.0,0.0
Jussara,EBDA,Jussara,Jussara - EBDA,-11.051296,-40.96778,Norte,RPGA do Rio Salitre,0.0,0.0,0.0,0.0,0.0,0.0,0.0,0.0,0.0,0.0,0.0,0.0,0.0,0.0,0.0,0.0,0.0,0.0,0.0,0.0,0.0,0.0,0.0,0.0,0.0,0.0,0.0,0.0,0.0,0.0,0.0,0.0
Lapão,EBDA,Lapão,Lapão - EBDA,-11.367966,-41.817803,Norte,RPGA dos Rios Verde e Jacaré,0.0,0.0,0.0,0.0,0.0,0.0,0.0,0.0,0.0,0.0,0.0,0.0,0.0,0.0,0.0,0.0,0.0,0.0,0.0,0.0,0.0,0.0,0.0,0.0,0.0,0.0,0.0,0.0,0.0,0.0,0.0,0.0
Presidente Dutra,EBDA,Presidente Dutra,Presidente Dutra - EBDA,-11.284632,-41.651131,Norte,RPGA dos Rios Verde e Jacaré,0.0,0.0,0.0,0.0,0.0,0.0,0.0,0.0,0.0,0.0,0.0,0.0,0.0,0.0,0.0,0.0,0.0,0.0,0.0,0.0,0.0,0.0,0.0,0.0,0.0,0.0,0.0,0.0,0.0,0.0,0.0,0.0
Uibaí,EBDA,Uibaí,Uibaí - EBDA,-11.334632,-42.134477,Norte,RPGA dos Rios Verde e Jacaré,0.0,0.0,0.0,0.0,0.0,0.0,0.0,0.0,0.0,0.0,0.0,0.0,0.0,0.0,0.0,0.0,0.0,0.0,0.0,0.0,0.0,0.0,0.0,0.0,0.0,0.0,0.0,0.0,0.0,0.0,0.0,0.0
Remanso,A423,Remanso,Remanso - A423,-9.625693,-42.077214,Norte,RPGA do Lago de Sobradinho,0.0,0.0,0.0,0.0,0.0,0.0,0.0,0.0,0.0,0.0,0.0,0.0,0.0,2.2,0.0,0.0,0.0,0.0,0.0,0.4,0.0,0.0,0.0,0.0,0.0,0.0,0.0,0.0,0.0,0.0,0.0,2.6
Irecê,A424,Irecê,Irecê - A424,-11.328998,-41.864504,Norte,RPGA dos Rios Verde e Jacaré,0.0,0.0,0.0,0.0,0.0,1.6,0.0,0.0,0.0,0.0,0.0,0.0,0.0,0.0,0.0,0.0,0.0,0.0,0.0,0.0,0.0,0.0,0.0,0.0,0.0,0.0,0.0,0.0,0.0,0.0,0.0,1.6
América Dourada,EBDA,América Dourada,América Dourada - EBDA,-11.384635,-41.584464,Norte,RPGA dos Rios Verde e Jacaré,0.0,0.0,0.0,0.0,0.0,0.0,0.0,0.0,0.0,0.0,0.0,0.0,0.0,0.0,0.0,0.0,0.0,0.0,0.0,0.0,0.0,0.0,0.0,0.0,0.0,0.0,0.0,0.0,0.0,0.0,0.0,0.0
São Gabriel,EBDA,São Gabriel,São Gabriel - EBDA,-11.134629,-41.867803,Norte,RPGA dos Rios Verde e Jacaré,0.0,0.0,0.0,0.0,0.0,0.0,0.0,0.0,0.0,0.0,0.0,0.0,0.0,0.0,0.0,0.0,0.0,0.0,0.0,0.0,0.0,0.0,0.0,0.0,0.0,0.0,0.0,0.0,0.0,0.0,0.0,0.0
Irecê,83182,Irecê,Irecê - 83182,-11.3,-41.866667,Norte,RPGA dos Rios Verde e Jacaré,0.0,0.0,0.0,0.0,0.0,0.6,0.0,0.0,0.0,0.0,0.0,0.0,0.0,0.0,0.0,0.0,0.0,0.0,0.0,0.0,0.0,0.0,0.0,0.0,0.0,0.0,0.0,0.0,0.0,0.0,0.0,0.6
Remanso,82979,Remanso,Remanso - 82979,-9.633333,-42.1,Norte,RPGA do Lago de Sobradinho,0.0,0.0,0.0,0.0,0.0,0.0,0.0,0.0,0.0,0.0,0.0,0.0,0.0,1.4,0.0,0.0,0.0,0.0,0.0,0.2,0.0,0.0,0.0,0.0,0.0,0.0,0.0,0.0,0.0,0.0,0.0,1.6
Delfino,A443,Umburanas,Umburanas (Delfino) - A443,-10.45492,-41.206996,Norte,RPGA do Rio Salitre,0.0,0.0,0.0,1.8,0.0,0.0,1.4,0.0,0.0,0.0,0.2,1.0,0.0,5.8,0.0,0.0,0.0,0.0,0.0,2.0,0.0,0.0,0.0,0.0,0.0,0.0,2.4,2.4,1.4,0.0,0.0,18.4
Juazeiro,UEP - EMBRAPA -EBDA - EBDA,Juazeiro,Juazeiro - UEP - EMBRAPA -EBDA - EBDA,-9.41293,-40.499706,Norte,RPGA dos Rios Macururé e Curaçá,0.0,0.0,0.0,0.0,0.0,0.0,0.0,0.0,0.0,0.0,0.0,0.0,0.0,0.0,0.0,0.0,0.0,0.0,0.0,0.0,0.0,0.0,0.0,0.0,0.0,0.0,0.0,0.0,0.0,0.0,0.0,0.0
Juazeiro,Est. Exp. Caraíbas - EBDA,Juazeiro,Juazeiro - Est. Exp. Caraíbas - EBDA,-9.418208,-40.510817,Norte,RPGA dos Rios Macururé e Curaçá,0.0,0.0,0.0,0.0,0.0,0.0,0.0,0.0,0.0,0.0,0.0,0.0,0.0,0.0,0.0,0.0,0.0,0.0,0.0,0.0,0.0,0.0,0.0,0.0,0.0,0.0,0.0,0.0,18.0,0.0,0.0,18.0
Mandacaru,Convencional,Juazeiro,Juazeiro (Mandacaru) - Convencional,-9.401263,-40.434428,Norte,RPGA dos Rios Macururé e Curaçá,0.0,0.0,0.0,0.0,0.0,0.0,0.0,0.0,0.0,0.0,0.0,0.0,0.0,4.4,0.0,0.0,0.0,0.0,0.0,1.8,0.0,0.0,0.0,0.0,0.0,0.0,0.3,0.0,0.0,3.8,0.0,10.3
Juazeiro,Salitre,Juazeiro,Juazeiro - Salitre,-9.5,-40.633333,Norte,RPGA dos Rios Macururé e Curaçá,0.0,0.0,0.0,0.0,0.0,0.0,0.0,0.0,0.0,0.0,0.0,0.0,0.0,8.9,0.0,0.0,0.0,0.0,0.0,0.7,0.0,0.0,0.0,0.0,0.0,0.0,0.0,0.7,0.0,0.0,0.0,10.3
Juazeiro,48020000,Juazeiro,Juazeiro - 48020000,-9.4064,-40.5036,Norte,RPGA dos Rios Macururé e Curaçá,0.0,0.0,0.0,0.0,0.0,0.0,0.0,0.0,0.0,0.0,0.0,0.0,0.0,3.8,0.2,0.0,0.0,0.0,0.0,8.0,0.0,0.0,0.0,0.0,0.0,0.0,0.0,0.0,0.0,1.2,0.0,13.2
Irecê,VJ-CL-01,Irecê,Irecê - VJ-CL-01,-11.289166,-41.894166,Norte,RPGA dos Rios Verde e Jacaré,0.0,0.0,0.0,0.0,0.0,0.0,0.0,0.0,0.0,0.0,0.0,0.0,0.0,0.0,0.0,0.0,0.0,0.0,0.0,0.0,0.0,0.0,0.0,0.0,0.0,0.0,0.0,0.0,0.0,0.0,0.0,0.0
Santa Rosa,SM-PR-01,Jaguarari,Jaguarari (Santa Rosa) - SM-PR-01,-10.098374,-39.869774,Norte,RPGA dos Rios Macururé e Curaçá,0.0,0.0,0.0,0.0,0.0,0.0,1.0,0.0,0.0,1.0,3.0,0.5,2.75,11.5,2.25,0.0,0.0,0.0,2.0,6.0,0.0,0.0,0.0,0.0,0.0,2.75,9.75,2.5,2.75,2.5,0.5,50.75
Jaguarari,IT-PR-28,Jaguarari,Jaguarari - IT-PR-28,-10.269489,-40.200344,Norte,RPGA do Rio Itapicuru,0.0,0.0,0.0,0.0,0.5,0.5,10.25,0.0,0.0,1.5,0.25,2.0,1.5,10.75,0.25,0.0,0.0,0.0,0.75,11.75,0.0,0.0,0.0,0.0,0.0,0.25,21.25,8.75,1.5,0.0,0.0,71.75
Campo Formoso,EBDA,Campo Formoso,Campo Formoso - EBDA,-10.501287,-40.317761,Norte,RPGA do Rio Itapicuru,0.0,1.0,3.0,0.0,0.0,14.0,3.0,1.0,5.0,3.0,15.0,6.0,4.5,2.0,0.0,0.0,0.0,0.0,16.0,0.0,0.0,0.0,2.0,0.0,3.0,29.0,28.0,9.0,0.0,0.0,10.0,154.5
Jaguarari,EBDA,Jaguarari,Jaguarari - EBDA,-10.251284,-40.184423,Norte,RPGA do Rio Itapicuru,0.0,0.0,0.0,0.0,0.0,22.0,0.0,0.0,0.0,0.0,0.0,0.0,0.0,0.0,0.0,0.0,0.0,0.0,40.0,0.0,0.0,0.0,0.0,0.0,0.0,23.0,15.0,13.0,0.0,0.0,0.0,113.0
INMET,EBDA,Barreiras,Barreiras (INMET) - EBDA,-12.134635,-44.984551,Oeste,RPGA do Rio Grande,0.0,0.0,0.0,0.0,0.0,0.0,0.0,0.0,0.0,0.0,0.0,0.0,0.0,0.0,0.0,0.0,0.0,0.0,0.0,0.0,0.0,0.0,0.0,0.0,0.0,0.0,0.0,0.0,0.0,0.0,0.0,0.0
SEDE,EBDA,Formosa do Rio Preto,Formosa do Rio Preto (SEDE) - EBDA,-11.051281,-45.201218,Oeste,RPGA do Rio Grande,0.0,0.0,0.0,0.0,0.0,0.0,0.0,0.0,0.0,0.0,0.0,0.0,0.0,0.0,0.0,0.0,0.0,0.0,0.0,0.0,0.0,0.0,0.0,0.0,0.0,0.0,0.0,0.0,0.0,0.0,0.0,0.0
Form. Rio Preto,46550000,Barreiras,Barreiras (Form. Rio Preto) - 46550000,-11.154444,-45.009166,Oeste,RPGA do Rio Grande,0.0,0.0,0.0,0.0,0.0,0.0,0.0,0.0,0.0,0.0,0.0,0.0,0.0,0.0,0.0,0.0,0.0,0.0,0.0,0.0,0.0,0.0,0.0,0.0,0.0,0.0,0.0,0.0,0.0,0.0,0.0,0.0
COACERAL,GR-CL-02,Formosa do Rio Preto,Formosa do Rio Preto (COACERAL) - GR-CL-02,-10.561944,-45.693333,Oeste,RPGA do Rio Grande,0.0,0.0,0.0,0.0,0.0,0.0,0.0,0.0,0.0,0.0,0.0,0.0,0.0,0.0,0.0,0.0,0.0,0.0,0.0,0.0,0.0,0.0,0.0,0.0,0.0,0.0,0.0,0.0,0.0,0.0,0.0,0.0
Barreiras,A402,Barreiras,Barreiras - A402,-12.124715,-45.027049,Oeste,RPGA do Rio Grande,0.0,0.0,0.0,0.0,0.0,0.0,0.0,0.0,0.0,0.0,0.0,0.0,0.0,0.0,0.0,0.0,0.0,0.0,0.0,0.0,0.0,0.0,0.0,0.0,0.0,0.0,0.0,0.0,0.0,0.0,0.0,0.0
Luís Eduardo Magalhães,A404,Luís Eduardo Magalhães,Luís Eduardo Magalhães - A404,-12.152394,-45.829745,Oeste,RPGA do Rio Grande,0.0,0.0,0.0,0.0,0.0,0.0,0.0,0.0,0.0,0.0,0.0,0.0,0.0,0.0,0.0,0.0,0.0,0.4,0.0,0.0,0.0,0.0,0.0,0.0,0.0,0.0,0.0,0.0,0.0,0.0,0.0,0.4
Barreiras,EBDA,Barreiras,Barreiras - EBDA,-12.084632,-45.6679,Oeste,RPGA do Rio Grande,0.0,0.0,0.0,0.0,0.0,0.0,0.0,0.0,0.0,0.0,0.0,0.0,0.0,0.0,0.0,0.0,0.0,0.0,0.0,0.0,0.0,0.0,0.0,0.0,0.0,0.0,0.0,0.0,0.0,0.0,0.0,0.0
São Desidério,R. Velha - GR-CL-01,São Desidério,São Desidério - R. Velha - GR-CL-01,-12.898055,-46.157222,Oeste,RPGA do Rio Grande,0.0,0.0,0.0,0.0,0.0,0.0,0.0,0.0,0.0,0.0,0.0,0.0,0.0,0.0,0.0,0.0,0.0,0.0,0.0,0.0,0.0,0.0,0.0,0.0,0.0,0.0,0.0,0.0,0.0,0.0,0.0,0.0
Fazenda Rio Brilhante,,Fazenda Rio Brilhante,Fazenda Rio Brilhante,-12.802859,-45.729985,Oeste,RPGA do Rio Grande,0.0,0.0,0.0,0.0,0.0,0.0,0.0,0.0,0.0,0.0,0.0,0.0,0.0,0.0,0.0,0.0,0.0,0.0,0.0,0.0,0.0,0.0,0.0,0.0,0.0,0.0,0.0,0.0,0.0,0.0,0.0,0.0
Fazenda Buritis,,Fazenda Buritis,Fazenda Buritis,-12.643967,-45.453029,Oeste,RPGA do Rio Grande,0.0,0.0,0.0,0.0,0.0,0.0,0.0,0.0,0.0,0.0,0.0,0.0,0.0,0.0,0.0,0.0,0.0,0.0,0.0,0.0,0.0,0.0,0.0,0.0,0.0,0.0,0.0,0.0,0.0,0.0,0.0,0.0
Fazenda Catarinense,,Fazenda Catarinense,Fazenda Catarinense,-13.286201,-46.028331,Oeste,RPGA do Rio Grande,0.0,0.0,0.0,0.0,0.0,0.0,0.0,0.0,0.0,0.0,0.0,0.0,0.0,0.0,0.0,0.0,0.0,0.0,0.0,0.0,0.0,0.0,0.0,0.0,0.0,0.0,0.0,0.0,0.0,0.0,0.0,0.0
Fazenda Morete,,Fazenda Morete,Fazenda Morete,-13.222316,-45.154969,Oeste,"RPGA do Rio Corrente e Riachos do Ramalho, Serra Dourada e Brejo Velho",0.0,0.0,0.0,0.0,0.0,0.0,0.0,0.0,0.0,0.0,0.0,0.0,0.0,0.0,0.0,0.0,0.0,0.0,0.0,0.0,0.0,0.0,0.0,0.0,0.0,0.0,0.0,0.0,0.0,0.0,0.0,0.0
Rosário,CT-PR-03,Correntina,Correntina (Rosário) - CT-PR-03,-13.940105,-46.188064,Oeste,"RPGA do Rio Corrente e Riachos do Ramalho, Serra Dourada e Brejo Velho",0.0,0.0,0.2,0.2,0.2,1.8,1.0,0.0,0.0,0.4,0.0,0.4,0.0,0.0,0.0,0.0,0.0,0.0,0.0,0.0,0.0,0.0,0.0,0.0,0.0,0.0,0.0,0.0,0.0,0.0,0.0,4.2
Ponte do Fortunato,,Ponte do Fortunato,Ponte do Fortunato,-14.642348,-45.503045,Oeste,RPGA do Rio Carinhanha,0.0,0.0,0.0,0.0,0.0,0.0,0.0,0.0,0.0,0.0,0.0,0.0,0.0,0.0,0.0,0.0,0.0,0.0,0.0,0.0,0.0,0.0,0.0,0.0,0.0,0.0,0.0,0.0,0.0,0.0,0.0,0.0
Correntina,A416,Correntina,Correntina - A416,-13.332386,-44.617376,Oeste,"RPGA do Rio Corrente e Riachos do Ramalho, Serra Dourada e Brejo Velho",0.0,0.0,0.0,0.0,0.0,0.0,0.0,0.0,0.0,0.0,0.0,0.0,0.0,0.0,0.0,0.0,0.0,0.0,0.0,0.0,0.0,0.0,0.0,0.0,0.0,0.0,0.0,0.0,0.0,0.0,0.0,0.0
Barreiras,83236,Barreiras,Barreiras - 83236,-12.155556,-45.007778,Oeste,RPGA do Rio Grande,0.0,0.0,0.0,0.0,0.0,0.0,0.0,0.0,0.0,0.0,0.0,0.0,0.0,0.0,0.0,0.0,0.0,0.0,0.0,0.0,0.0,0.0,0.0,0.0,0.0,0.0,0.0,0.0,0.0,0.0,0.0,0.0
SEDE,EBDA,Riachão das Neves,Riachão das Neves (SEDE) - EBDA,-11.747407,-44.911215,Oeste,RPGA do Rio Grande,0.0,0.0,0.0,0.0,0.0,0.0,0.0,0.0,0.0,0.0,0.0,0.0,0.0,0.0,0.0,0.0,0.0,0.0,0.0,0.0,0.0,0.0,0.0,0.0,0.0,0.0,0.0,0.0,0.0,0.0,0.0,0.0
UEP,S. Francisco) - EBDA,Barreiras,Barreiras (UEP - S. Francisco) - EBDA,-12.167969,-44.984551,Oeste,RPGA do Rio Grande,0.0,0.0,0.0,0.0,0.0,0.0,0.0,0.0,0.0,0.0,0.0,0.0,0.0,0.0,0.0,0.0,0.0,0.0,0.0,0.0,0.0,0.0,0.0,0.0,0.0,0.0,0.0,0.0,0.0,0.0,0.0,0.0
Fz. Mutamba,EBDA,São Desidério,São Desidério (Fz. Mutamba) - EBDA,-12.364639,-44.974551,Oeste,RPGA do Rio Grande,0.0,0.0,0.0,0.0,0.0,0.0,0.0,0.0,0.0,0.0,0.0,0.0,0.0,0.0,0.0,0.0,0.0,0.0,0.0,0.0,0.0,0.0,0.0,0.0,0.0,0.0,0.0,0.0,0.0,0.0,0.0,0.0
Jaborandi,EBDA,Jaborandi,Jaborandi - EBDA,-13.620221,-44.43399,Oeste,"RPGA do Rio Corrente e Riachos do Ramalho, Serra Dourada e Brejo Velho",0.0,0.0,0.0,0.0,0.0,0.0,0.0,0.0,0.0,0.0,0.0,0.0,0.0,0.0,0.0,0.0,0.0,0.0,0.0,0.0,0.0,0.0,0.0,0.0,0.0,0.0,0.0,0.0,0.0,0.0,0.0,0.0
Poção,EBDA,Catolândia,Catolândia (Poção) - EBDA,-12.319361,-44.862326,Oeste,RPGA do Rio Grande,0.0,0.0,0.0,0.0,0.0,0.0,0.0,0.0,0.0,0.0,0.0,0.0,0.0,0.0,0.0,0.0,0.0,0.0,0.0,0.0,0.0,0.0,0.0,0.0,0.0,0.0,0.0,0.0,0.0,0.0,0.0,0.0
Arrojado,45770000,Correntina,Correntina (Arrojado) - 45770000,-13.4528,-44.5689,Oeste,"RPGA do Rio Corrente e Riachos do Ramalho, Serra Dourada e Brejo Velho",0.0,0.0,0.0,0.0,0.0,0.0,0.0,0.0,0.0,0.0,0.0,0.0,0.0,0.0,0.0,0.0,0.0,0.0,0.0,0.0,0.0,0.0,0.0,0.0,0.0,0.0,0.0,0.0,0.0,0.0,0.0,0.0
Correntina,45590000,Correntina,Correntina - 45590000,-13.3406,-44.6386,Oeste,"RPGA do Rio Corrente e Riachos do Ramalho, Serra Dourada e Brejo Velho",0.0,0.0,0.0,0.0,0.0,0.0,0.0,0.0,0.0,0.0,0.0,0.0,0.0,0.0,0.0,0.0,0.0,0.0,0.0,0.0,0.0,0.0,0.0,0.0,0.0,0.0,0.0,0.0,0.0,0.0,0.0,0.0
Santa Inês,EBDA,Santa Inês,Santa Inês - EBDA,-13.28468,-39.834426,Recôncavo,RPGA do Recôncavo Sul,0.0,0.0,0.0,5.0,5.0,2.0,5.0,1.0,0.0,0.0,0.0,5.0,2.0,0.0,0.0,0.0,0.0,0.0,0.0,0.0,0.0,0.0,0.0,0.0,0.0,0.0,0.0,2.0,2.0,0.0,0.0,29.0
Santo Estêvão,EBDA,Santo Estêvão,Santo Estêvão - EBDA,-12.434665,-39.251074,Recôncavo,RPGA do Rio Paraguaçu,0.0,0.0,7.0,4.7,7.5,9.0,6.0,4.2,0.0,7.9,10.0,2.3,5.5,1.5,0.0,0.0,0.0,0.0,0.0,0.0,0.0,0.0,5.1,0.0,8.0,17.0,11.0,9.0,3.9,0.0,0.0,119.6
São Sebastião do Passé,EBDA,São Sebastião do Passé,São Sebastião do Passé - EBDA,-12.518004,-38.501056,Recôncavo,RPGA do Recôncavo Norte,0.0,9.0,0.0,0.0,0.0,10.0,5.7,0.0,15.3,10.0,12.7,0.0,0.0,15.0,0.0,0.0,0.0,0.0,0.0,0.0,0.0,0.0,0.0,0.0,12.0,24.0,42.0,9.0,0.0,0.0,0.0,164.7
Ondina,83229,Salvador,Salvador (Ondina) - 83229,-13.005278,-38.505833,Recôncavo,RPGA do Recôncavo Norte,1.2,1.5,1.0,9.1,3.5,14.6,2.3,17.3,0.2,2.4,9.6,10.3,3.9,3.5,22.5,0.1,0.0,0.8,0.0,6.5,0.2,0.6,0.2,0.0,2.0,22.3,38.5,17.6,5.0,0.0,1.3,198.0
Feira de Santana,PG-PR-13,Feira de Santana,Feira de Santana - PG-PR-13,-12.268161,-38.96642,Recôncavo,RPGA do Rio Paraguaçu,0.25,0.0,0.0,6.25,2.75,4.0,1.5,0.25,0.0,0.75,7.5,3.5,7.75,9.0,1.25,0.25,0.0,0.0,0.0,3.0,0.0,0.0,0.75,0.5,0.0,5.5,17.75,2.5,0.5,1.0,4.75,81.25
Itatim,PG-PR-14,Itatim,Itatim - PG-PR-14,-12.720391,-39.700059,Recôncavo,RPGA do Rio Paraguaçu,0.0,0.0,0.0,0.0,9.0,2.75,1.75,0.75,0.0,0.0,0.25,0.25,0.0,0.0,0.0,0.0,0.0,0.0,0.0,0.25,0.0,0.0,0.0,0.25,0.0,0.25,1.0,0.25,1.5,0.25,0.0,18.5
Salvador,CIA,Salvador,Salvador - CIA,-12.865789,-38.365219,Recôncavo,RPGA do Recôncavo Norte,0.0,0.0,0.0,5.0,0.0,3.0,10.0,3.0,0.0,12.0,20.0,8.0,8.0,6.0,3.0,0.0,0.0,0.0,2.0,16.0,0.0,0.0,2.0,0.0,5.0,10.0,20.0,30.0,6.0,4.0,4.0,177.0
Feira de Santana,EBDA,Feira de Santana,Feira de Santana - EBDA,-12.268274,-38.96801,Recôncavo,RPGA do Rio Paraguaçu,0.0,0.0,6.0,0.0,7.4,0.0,1.6,0.0,0.9,0.0,11.7,0.0,19.4,0.0,0.0,0.0,0.0,0.0,3.8,0.0,0.0,0.0,1.6,0.0,8.4,0.0,17.4,3.1,1.4,0.0,5.3,88.0
Cruz das Almas,A406,Cruz das Almas,Cruz das Almas - A406,-12.675422,-39.08958,Recôncavo,RPGA do Rio Paraguaçu,0.0,0.2,0.2,0.0,0.2,0.0,0.2,0.0,0.0,0.0,0.2,0.0,0.2,0.0,0.0,0.2,0.0,0.0,0.0,2.4,0.2,0.0,6.0,0.8,0.0,8.2,17.2,14.0,1.4,3.8,3.6,59.0
Salvador,Canabrava,Salvador,Salvador - Canabrava,-12.924122,-38.429942,Recôncavo,RPGA do Recôncavo Norte,4.6,0.0,0.6,4.5,3.4,6.6,8.3,2.0,0.4,13.6,11.9,14.2,4.9,4.5,3.7,1.2,0.0,0.0,1.4,9.9,0.2,0.1,1.5,0.0,2.4,16.3,24.2,21.5,3.3,6.0,3.0,174.21
Salvador,Inema -Monte Serrat,Salvador,Salvador - Inema -Monte Serrat,-12.930789,-38.517167,Recôncavo,RPGA do Recôncavo Norte,0.3,0.0,0.4,14.7,6.3,10.2,4.5,4.6,0.5,11.7,14.1,9.6,2.0,0.9,1.1,1.3,0.0,0.3,0.0,2.7,4.4,0.0,1.9,0.0,3.9,18.8,22.5,9.1,7.2,3.0,0.7,156.7
Salvador,19 BC,Salvador,Salvador - 19 BC,-12.961069,-38.461056,Recôncavo,RPGA do Recôncavo Norte,10.0,0.1,0.1,2.9,7.0,10.4,8.6,1.5,0.4,11.1,4.8,23.1,2.2,4.1,4.5,2.6,0.0,0.0,0.8,4.8,0.5,0.0,1.4,0.0,0.0,24.1,30.0,14.1,0.0,9.6,2.4,181.1
Salvador,Base Naval/SSN,Salvador,Salvador - Base Naval/SSN,-12.796341,-38.489389,Recôncavo,RPGA do Recôncavo Norte,2.7,0.0,0.0,7.5,4.9,12.7,3.2,1.0,0.0,13.5,17.5,2.0,13.8,2.6,1.6,3.6,0.0,0.0,3.0,0.6,0.0,0.0,1.8,0.0,1.1,18.0,4.8,22.4,5.3,11.4,9.5,164.5
Salvador,Ilha Amarela,Salvador,Salvador - Ilha Amarela,-12.891344,-38.470778,Recôncavo,RPGA do Recôncavo Norte,0.4,1.69,1.0,19.0,0.4,16.8,1.6,3.0,0.0,10.6,11.6,16.8,12.6,0.4,1.2,5.6,0.0,0.0,0.4,5.5,3.6,0.0,6.4,0.3,2.5,15.4,22.8,18.4,3.6,3.8,7.7,193.09
Feira de Santana,A413,Feira de Santana,Feira de Santana - A413,-12.1962,-38.967384,Recôncavo,RPGA do Recôncavo Norte,0.0,0.0,0.0,4.4,1.2,4.8,2.0,0.0,0.0,0.8,4.4,5.2,5.2,0.8,0.2,0.0,0.0,0.0,0.0,1.8,0.0,0.0,3.8,1.6,0.0,5.8,19.8,8.8,0.6,2.4,2.8,76.4
Alagoinhas,83249,Alagoinhas,Alagoinhas - 83249,-12.148333,-38.425556,Recôncavo,RPGA do Recôncavo Norte,0.0,0.0,0.4,6.8,1.8,5.3,22.4,2.4,1.3,3.3,2.9,10.4,20.2,4.1,0.2,0.0,0.0,0.0,6.7,10.3,0.0,0.0,4.8,1.2,1.3,18.7,51.1,7.9,0.0,0.0,6.6,190.1
Cruz das Almas,83222,Cruz das Almas,Cruz das Almas - 83222,-12.666667,-39.083333,Recôncavo,RPGA do Rio Paraguaçu,0.0,0.0,0.0,4.5,15.2,10.9,11.7,0.4,0.0,8.0,3.9,10.1,7.0,3.4,0.8,0.0,0.0,0.0,0.0,1.1,0.3,0.0,6.4,0.8,0.0,9.2,19.3,15.7,1.5,3.3,3.8,137.3
Feira de Santana,83221,Feira de Santana,Feira de Santana - 83221,-12.196111,-38.967222,Recôncavo,RPGA do Recôncavo Norte,0.0,0.0,0.0,4.7,1.1,4.7,1.7,0.0,0.0,0.6,4.0,4.8,5.2,0.6,0.0,0.0,0.0,0.0,0.0,1.5,0.0,0.0,3.5,1.6,0.0,4.3,19.4,11.4,0.5,2.0,2.6,74.2
Amargosa,A434,Amargosa,Amargosa - A434,-13.009468,-39.616881,Recôncavo,RPGA do Recôncavo Sul,0.0,0.6,0.0,4.0,28.4,6.6,7.8,1.4,0.0,0.4,1.2,5.6,3.4,0.6,0.4,0.6,0.0,0.0,0.0,0.4,2.4,0.0,0.2,4.8,0.2,3.6,6.6,3.4,8.0,1.0,0.0,91.6
Valença,A444,Valença,Valença - A444,-13.34361,-39.12667,Recôncavo,RPGA do Recôncavo Sul,1.6,0.4,0.6,39.8,45.2,18.0,7.4,4.6,1.4,1.2,13.4,29.0,6.8,1.8,3.0,0.2,0.0,0.2,1.0,3.8,0.6,0.0,0.4,4.2,0.2,14.8,19.2,21.6,12.0,3.8,1.0,257.2
Candeias,EMBASA,Candeias,Candeias - EMBASA,-12.663561,-38.533,Recôncavo,RPGA do Recôncavo Norte,0.7,0.0,0.0,11.9,5.1,11.7,0.0,19.4,12.3,5.3,13.2,7.9,2.7,11.4,0.3,3.1,0.0,0.0,2.0,6.5,0.0,0.0,5.5,0.0,0.0,18.9,53.4,9.3,0.2,4.3,8.5,213.61
Dias D´Ávila,EMBASA,Dias D´Ávila,Dias D´Ávila - EMBASA,-12.620505,-38.315217,Recôncavo,RPGA do Recôncavo Norte,0.2,0.8,0.0,1.0,4.25,14.0,0.0,5.25,2.0,4.7,2.5,19.0,0.0,5.25,3.0,0.7,0.0,0.0,9.37,1.0,0.0,0.0,5.0,0.0,0.0,36.75,68.75,12.5,0.87,0.0,4.3,201.2
São Sebastião do Passé-EMBASA,,São Sebastião do Passé-EMBASA,São Sebastião do Passé-EMBASA,-12.517449,-38.492165,Recôncavo,RPGA do Recôncavo Norte,0.0,0.0,0.0,2.0,3.5,21.0,4.9,7.6,5.5,3.4,6.4,5.3,4.2,4.8,0.0,2.1,0.0,0.0,4.9,4.0,0.3,0.0,1.5,0.0,22.3,50.0,10.5,0.0,0.0,0.0,9.0,173.2
Joanes II,322,Simões Filho,Simões Filho (Joanes II) - 322,-12.674147,-38.376254,Recôncavo,RPGA do Recôncavo Norte,0.0,0.0,0.0,11.9,5.1,11.7,0.0,19.4,1.1,3.4,5.4,9.0,2.3,9.0,4.4,0.0,0.4,0.0,3.4,8.0,0.0,0.0,0.0,1.7,0.0,24.2,63.2,14.9,0.4,0.0,3.0,201.91
Santa Helena,323,Camaçari,Camaçari (Santa Helena) - 323,-12.56202,-38.1606,Recôncavo,RPGA do Recôncavo Norte,0.0,0.6,0.3,2.1,9.7,17.0,2.3,0.0,4.5,2.1,4.5,2.9,5.9,11.3,2.6,3.9,0.0,0.3,23.1,5.4,0.0,0.0,3.5,4.1,1.7,19.9,45.6,12.8,0.0,0.0,14.1,200.2
Pedrão,EBDA,Pedrão,Pedrão - EBDA,-12.151329,-38.651056,Recôncavo,RPGA do Recôncavo Norte,0.0,0.0,0.0,14.0,0.0,10.0,0.0,0.0,0.0,17.0,0.0,0.0,29.0,0.0,7.5,0.0,0.0,4.5,0.0,0.0,0.0,0.0,5.0,12.0,30.0,0.0,18.0,0.0,0.0,0.0,0.0,147.0
Saubara,EBDA,Saubara,Saubara - EBDA,-12.734674,-38.784396,Recôncavo,RPGA do Recôncavo Norte,14.0,0.0,0.0,0.0,0.0,0.0,0.0,0.0,0.0,0.0,0.0,0.0,10.0,6.0,0.0,0.0,0.0,0.0,0.0,0.0,0.0,0.0,0.0,0.0,0.0,0.0,10.0,50.0,11.0,3.0,10.0,114.0
Igrapiuna,01 - EBDA,Igrapiuna,Igrapiuna - 01 - EBDA,-13.818028,-39.13441,Recôncavo,RPGA do Recôncavo Sul,9.1,0.0,5.0,10.5,36.8,2.2,11.7,6.4,1.5,0.0,14.2,0.6,3.5,2.5,6.7,0.0,1.1,2.2,8.0,3.2,1.1,0.0,8.4,0.0,1.9,8.8,19.0,8.1,1.8,0.7,0.0,175.0
Taperoá,EBDA,Taperoá,Taperoá - EBDA,-13.539411,-39.099685,Recôncavo,RPGA do Recôncavo Sul,6.6,5.4,5.6,8.0,7.0,4.6,7.6,4.4,0.0,0.0,8.5,5.6,3.9,3.7,4.2,7.6,6.7,0.0,6.3,8.9,6.4,5.4,8.3,7.4,12.9,8.6,9.4,12.8,10.3,13.3,10.2,209.61
Salvador,Pituaçu (PCD-PLU),Salvador,Salvador - Pituaçu (PCD-PLU),-12.83457,-38.348904,Recôncavo,RPGA do Recôncavo Norte,4.25,0.0,4.5,2.25,5.0,5.75,0.5,0.5,0.25,10.0,3.25,5.25,1.5,0.25,2.75,0.0,0.0,0.25,0.25,4.25,0.0,0.0,1.0,0.0,3.5,8.75,13.5,10.75,7.0,2.25,0.0,97.5
Salvador,Itapuã - RN-CL-01,Salvador,Salvador - Itapuã - RN-CL-01,-12.931388,-38.361111,Recôncavo,RPGA do Recôncavo Norte,3.8,0.0,1.8,5.6,3.1,6.5,6.2,1.5,0.7,17.8,10.9,11.6,4.6,3.4,3.5,1.1,0.0,0.0,1.5,8.8,0.2,0.3,1.1,0.0,2.1,14.7,22.7,20.3,3.9,4.5,2.5,164.7
Amargosa,EBDA,Amargosa,Amargosa - EBDA,-13.034677,-39.601086,Recôncavo,RPGA do Recôncavo Sul,0.0,0.0,0.0,0.0,0.0,0.0,23.0,0.0,3.0,7.0,0.0,0.0,2.0,5.0,0.0,0.0,0.0,0.0,0.0,0.0,2.5,0.0,5.5,0.0,1.7,0.0,4.0,5.4,2.5,0.0,0.0,61.6
Coração de Maria,EBDA,Coração de Maria,Coração de Maria - EBDA,-12.234663,-38.751059,Recôncavo,RPGA do Recôncavo Norte,0.0,0.0,8.7,0.0,3.0,5.1,0.0,0.0,1.8,5.8,4.2,0.0,0.0,0.0,0.0,0.0,0.0,0.0,0.0,0.0,0.0,0.0,0.0,8.5,40.0,0.0,15.0,15.0,0.0,0.0,6.7,113.8
Irará,EBDA,Irará,Irará - EBDA,-12.034659,-38.767726,Recôncavo,RPGA do Recôncavo Norte,0.0,0.0,3.0,5.5,5.0,10.5,5.0,10.0,12.0,0.0,0.0,0.0,9.0,22.5,3.0,5.0,1.0,1.0,5.0,2.5,0.0,0.0,2.0,4.5,0.0,10.0,35.0,15.0,3.5,0.0,3.5,173.5
Santo Amaro,EBDA,Santo Amaro,Santo Amaro - EBDA,-12.551335,-38.701059,Recôncavo,RPGA do Recôncavo Norte,0.0,0.0,0.0,25.0,1.7,20.0,3.5,4.0,0.3,0.0,9.3,15.1,1.9,11.5,0.5,0.0,0.0,0.0,0.0,0.0,0.0,0.0,0.0,0.0,0.0,20.0,36.9,9.0,3.5,3.7,0.0,165.9
Muritiba,EBDA,Muritiba,Muritiba - EBDA,-12.618004,-38.984401,Recôncavo,RPGA do Rio Paraguaçu,0.0,0.0,15.0,12.5,7.5,3.0,0.0,0.0,0.0,5.0,7.5,0.0,0.0,0.0,0.0,5.0,1.0,2.5,2.0,0.0,2.0,0.0,0.0,0.0,12.5,20.0,20.0,5.0,2.5,10.0,1.0,134.0
Santo Antônio de Jesus,EBDA,Santo Antônio de Jesus,Santo Antônio de Jesus - EBDA,-12.96801,-39.267744,Recôncavo,RPGA do Recôncavo Sul,4.5,5.0,7.0,16.5,30.0,12.0,5.5,0.0,2.5,0.0,22.5,0.0,6.0,0.0,2.5,0.0,0.0,0.0,0.0,0.0,0.0,0.0,0.0,0.0,0.0,10.0,25.0,10.0,5.0,0.0,0.0,164.0
Gandu,EBDA,Gandu,Gandu - EBDA,-13.751359,-39.484419,Recôncavo,RPGA do Recôncavo Sul,0.0,0.0,0.0,0.0,19.2,22.1,0.0,8.8,4.0,0.0,0.0,9.3,0.0,0.0,3.6,0.0,0.0,0.0,0.0,0.0,0.0,0.0,0.0,7.3,0.0,0.0,7.1,0.0,3.9,0.0,4.2,89.5
Ubaíra,EBDA,Ubaíra,Ubaíra - EBDA,-13.268014,-39.667756,Recôncavo,RPGA do Recôncavo Sul,0.0,0.0,8.3,28.0,18.5,1.2,4.0,0.0,0.0,2.5,15.0,7.5,0.0,0.0,0.0,0.0,0.0,0.0,3.2,0.0,0.0,0.0,1.3,0.0,6.3,9.3,2.5,6.0,2.4,0.0,0.0,116.0
Castro Alves,EBDA,Castro Alves,Castro Alves - EBDA,-12.751338,-39.434413,Recôncavo,RPGA do Rio Paraguaçu,0.0,0.0,0.0,7.0,13.0,12.0,0.0,0.0,2.5,3.0,15.0,0.0,3.0,0.0,0.0,0.0,0.0,0.0,0.0,0.0,0.0,0.0,0.0,0.0,0.0,0.0,0.0,0.0,0.0,0.0,0.0,55.5
Cruz das Almas,EBDA,Cruz das Almas,Cruz das Almas - EBDA,-12.668004,-39.101071,Recôncavo,RPGA do Rio Paraguaçu,0.0,0.0,6.0,12.0,20.0,2.0,0.0,0.0,8.0,0.0,12.5,0.0,8.0,0.0,0.0,0.0,0.0,0.0,0.0,0.0,0.0,4.0,0.0,0.0,9.5,0.0,0.0,0.0,0.0,0.0,0.0,82.0
Conceição do Almeida,EBDA,Conceição do Almeida,Conceição do Almeida - EBDA,-12.768005,-39.16774,Recôncavo,RPGA do Recôncavo Sul,0.0,0.0,0.0,15.0,17.5,16.0,16.0,2.5,0.0,10.0,0.0,25.0,0.0,7.5,2.5,0.0,4.0,0.0,0.0,5.0,0.0,0.0,0.0,0.0,20.0,15.0,0.0,0.0,0.0,0.0,0.0,156.0
Alagoinhas,EBDA,Alagoinhas,Alagoinhas - EBDA,-12.134662,-38.434384,Recôncavo,RPGA do Recôncavo Norte,0.3,0.0,9.2,6.6,5.7,12.9,0.0,1.2,2.7,0.2,2.4,5.6,0.0,0.0,2.7,0.0,0.0,7.8,7.7,0.0,0.0,0.0,8.0,0.0,20.8,42.3,8.9,0.0,0.0,0.0,12.5,157.51
Aramari,EBDA,Aramari,Aramari - EBDA,-12.08466,-38.501053,Recôncavo,RPGA do Recôncavo Norte,3.8,2.2,1.4,0.6,4.2,10.2,8.4,4.8,2.8,0.4,10.6,0.0,16.0,24.0,6.6,0.0,0.0,6.6,2.4,0.0,0.0,4.6,0.0,0.0,10.0,33.6,8.2,2.0,3.0,6.0,2.2,174.6
Mata de São João,EBDA,Mata de São João,Mata de São João - EBDA,-12.534671,-38.30105,Recôncavo,RPGA do Recôncavo Norte,0.0,0.0,0.0,0.0,0.0,9.0,18.0,2.0,0.0,0.0,11.0,0.0,14.0,0.0,0.0,0.0,0.0,0.0,0.0,17.0,0.0,4.0,0.0,4.0,21.0,30.0,21.0,20.0,15.0,13.0,10.0,209.0
Catu,EBDA,Catu,Catu - EBDA,-12.351333,-38.384384,Recôncavo,RPGA do Recôncavo Norte,0.0,0.0,0.0,0.0,0.0,15.0,0.0,0.0,0.0,0.0,0.0,15.0,0.0,0.0,0.0,20.0,0.0,0.0,15.0,0.0,0.0,0.0,0.0,0.0,10.0,0.0,0.0,0.0,5.0,0.0,0.0,80.0
Espinheira,,Espinheira,Espinheira,-14.283478,-41.75792,Sudoeste,RPGA do Rio de Contas,0.0,0.0,0.0,0.0,0.5,0.0,0.0,0.0,0.0,0.0,0.0,0.0,0.0,0.0,0.0,0.0,0.0,0.0,0.0,0.0,0.0,0.0,0.0,0.0,0.0,0.0,0.0,0.0,0.0,0.0,0.0,0.5
Maracás,EBDA,Maracás,Maracás - EBDA,-13.43468,-40.434443,Sudoeste,RPGA do Rio de Contas,0.0,0.0,0.0,0.0,17.0,0.0,0.0,7.0,0.0,0.0,0.0,0.0,0.0,0.0,0.0,0.0,0.0,0.0,0.0,0.0,0.0,0.0,0.0,0.0,0.0,0.0,0.0,0.0,0.0,0.0,0.0,24.0
Condeúba,EBDA,Condeúba,Condeúba - EBDA,-14.884701,-41.984489,Sudoeste,RPGA do Rio de Contas,0.0,0.0,0.0,0.0,0.0,0.0,0.0,0.0,0.0,0.0,0.0,0.0,0.0,0.0,0.0,0.0,0.0,0.0,0.0,0.0,0.0,0.0,0.0,0.0,0.0,0.0,0.0,0.0,0.0,0.0,0.0,0.0
Brumado,EBDA,Brumado,Brumado - EBDA,-14.201356,-41.651143,Sudoeste,RPGA do Rio de Contas,0.0,0.0,0.0,0.0,0.0,0.0,0.0,0.0,0.0,0.0,0.0,0.0,0.0,0.0,0.0,0.0,0.0,0.0,0.0,0.0,0.0,0.0,0.0,0.0,0.0,0.0,0.0,0.0,0.0,0.0,0.0,0.0
Jequié,EBDA,Jequié,Jequié - EBDA,-13.851356,-40.084435,Sudoeste,RPGA do Rio de Contas,0.0,0.0,0.0,0.0,17.0,0.0,0.0,6.5,0.0,0.0,8.0,0.0,4.0,1.0,0.0,0.0,0.0,0.0,0.0,0.0,0.0,0.0,0.0,0.0,0.0,0.0,0.0,1.5,0.0,0.0,0.0,38.0
Itiruçu,EBDA,Itiruçu,Itiruçu - EBDA,-13.534683,-40.151101,Sudoeste,RPGA do Rio de Contas,0.0,0.0,0.0,10.0,10.0,10.0,15.0,0.0,7.5,10.0,12.0,0.0,0.0,0.0,0.0,0.0,0.0,5.0,0.0,0.0,0.0,0.0,0.0,0.0,0.0,0.0,0.0,5.0,0.0,0.0,0.0,84.5
Ipiaú,EBDA,Ipiaú,Ipiaú - EBDA,-14.134698,-39.734428,Sudoeste,RPGA do Rio de Contas,1.0,0.0,0.0,0.0,9.5,0.6,3.1,3.8,5.6,0.3,10.2,11.8,5.6,0.8,0.7,0.0,0.0,0.8,0.0,0.1,0.0,0.0,0.0,1.5,0.0,0.0,0.9,0.0,1.4,0.0,0.0,57.7
Jaguaquara,EBDA,Jaguaquara,Jaguaquara - EBDA,-13.534684,-39.984431,Sudoeste,RPGA do Recôncavo Sul,0.0,0.0,0.0,6.0,14.5,1.0,2.0,3.5,0.0,2.5,15.0,4.0,1.0,0.0,0.0,0.0,0.0,0.0,0.0,0.0,0.0,0.0,0.0,0.0,0.0,2.0,2.5,1.0,0.0,1.0,0.0,56.0
Jaguaquara,RS-CL-01,Jaguaquara,Jaguaquara - RS-CL-01,-13.573055,-39.940833,Sudoeste,RPGA do Recôncavo Sul,0.0,0.0,0.0,0.75,8.5,20.5,1.0,3.25,5.0,0.0,6.25,23.5,5.5,0.0,0.25,0.25,0.0,0.0,0.0,0.0,0.0,0.0,0.0,0.75,0.0,0.0,3.75,3.25,2.5,0.0,1.0,86.0
Jequié,CO-CL-03,Jequié,Jequié - CO-CL-03,-13.873055,-40.071944,Sudoeste,RPGA do Rio de Contas,0.0,0.0,0.0,0.5,15.25,0.75,0.75,2.75,2.75,0.0,0.25,5.25,1.75,0.0,0.0,0.0,0.0,0.0,0.0,0.0,0.0,0.0,0.0,0.0,0.25,0.0,0.0,0.0,0.75,0.0,0.0,31.0
Vitória da Conquista,PA-CL-01,Vitória da Conquista,Vitória da Conquista - PA-CL-01,-14.886111,-40.800833,Sudoeste,RPGA do Rio Pardo,0.0,0.0,0.0,0.25,6.0,1.25,0.0,0.0,0.0,0.0,3.0,4.0,0.5,0.25,0.0,0.0,0.0,0.0,0.0,0.0,0.0,0.0,0.0,0.0,0.0,0.0,0.0,0.0,0.0,0.0,0.0,15.25
Itiruçu,A407,Itiruçu,Itiruçu - A407,-13.52629,-40.12055,Sudoeste,RPGA do Recôncavo Sul,0.0,0.4,0.0,1.8,8.4,16.4,0.6,4.2,5.2,0.2,5.6,12.6,3.8,0.2,0.2,0.2,0.2,0.0,0.0,0.2,0.0,0.0,0.2,0.0,0.0,0.0,3.8,2.8,1.4,0.0,0.0,68.41
Vitória da Conquista,A414,Vitória da Conquista,Vitória da Conquista - A414,-14.886428,-40.80133,Sudoeste,RPGA do Rio Pardo,0.2,0.2,0.0,1.2,6.4,1.8,0.2,0.4,0.2,0.2,3.4,1.4,1.0,0.2,0.0,0.2,0.0,0.0,0.2,0.2,0.0,0.0,0.0,0.0,0.2,0.0,0.0,0.0,0.0,0.0,0.0,17.6
Ituaçu,83292,Ituaçu,Ituaçu - 83292,-13.812778,-41.3,Sudoeste,RPGA do Rio de Contas,0.0,0.0,0.0,1.7,3.9,2.1,0.0,0.0,0.0,0.0,0.6,0.5,0.0,0.7,0.0,0.0,0.0,0.0,0.0,0.0,0.0,0.0,0.0,0.0,0.0,0.0,0.0,0.0,0.0,0.0,0.0,9.5
Vitória da Conquista,83344,Vitória da Conquista,Vitória da Conquista - 83344,-14.883333,-40.8,Sudoeste,RPGA do Rio Pardo,0.0,0.1,0.0,1.3,6.6,1.8,0.0,0.5,0.0,0.0,3.7,1.3,1.2,0.2,0.0,0.0,0.0,0.0,0.2,0.0,0.0,0.0,0.0,0.0,0.2,0.0,0.0,0.0,0.0,0.0,0.0,17.1
Jaguaquara,83295,Ituruçu,Ituruçu (Jaguaquara) - 83295,-13.527828,-40.119752,Sudoeste,RPGA do Recôncavo Sul,0.0,0.0,0.0,1.6,8.2,17.5,0.2,4.1,5.5,0.0,6.5,13.0,3.3,0.0,0.2,0.0,0.0,0.0,0.0,0.0,0.0,0.0,0.0,0.0,0.0,0.0,3.2,3.1,0.9,0.0,0.0,67.3
Brumado,A433,Brumado,Brumado - A433,-14.181886,-41.672281,Sudoeste,RPGA do Rio de Contas,0.0,0.0,0.0,0.0,2.4,0.0,0.0,0.0,0.0,0.0,0.0,0.0,0.0,0.0,0.0,0.0,0.0,0.0,0.0,0.0,0.0,0.0,0.0,0.0,0.0,0.0,0.0,0.0,0.0,0.0,0.0,2.4
Ipiaú,A445,Ipiaú,Ipiaú - A445,-14.171304,-39.692502,Sudoeste,RPGA do Rio de Contas,0.8,2.8,0.0,1.2,13.2,4.6,2.8,5.4,6.8,0.2,7.6,11.6,6.6,1.4,0.6,0.2,0.2,0.2,0.0,0.4,4.8,0.0,0.2,3.2,0.2,0.0,1.4,0.2,2.6,0.2,0.8,80.21
Itapetinga,A446,Itapetinga,Itapetinga - A446,-15.24462,-40.22955,Sudoeste,RPGA do Rio Pardo,0.0,0.0,0.0,0.2,11.4,1.2,0.0,2.4,0.2,0.0,2.0,0.0,2.6,0.4,0.2,0.6,0.0,0.8,0.2,0.0,0.2,0.0,0.0,0.2,0.0,0.0,0.2,0.0,0.0,0.0,0.0,22.8
Jacaraci,EBDA,Jacaraci,Jacaraci - EBDA,-14.784698,-42.451167,Sudoeste,RPGA do Rio de Contas,0.0,0.0,0.0,0.0,0.0,0.0,0.0,0.0,0.0,0.0,0.0,0.0,0.0,0.0,0.0,0.0,0.0,0.0,0.0,0.0,0.0,0.0,0.0,0.0,0.0,0.0,0.0,0.0,0.0,0.0,0.0,0.0
Rio do Antônio,EBDA,Rio do Antônio,Rio do Antônio - EBDA,-14.318023,-42.117824,Sudoeste,RPGA do Rio de Contas,0.0,0.0,0.0,0.0,0.0,0.0,0.0,0.0,0.0,0.0,0.0,0.0,0.0,0.0,0.0,0.0,0.0,0.0,0.0,0.0,0.0,0.0,0.0,0.0,0.0,0.0,0.0,0.0,0.0,0.0,0.0,0.0
Ibiassucê,EBDA,Ibiassucê,Ibiassucê - EBDA,-14.2608,-42.258105,Sudoeste,RPGA do Rio de Contas,0.0,0.0,0.0,0.0,0.0,0.0,0.0,0.0,0.0,0.0,0.0,0.0,0.0,0.0,0.0,0.0,0.0,0.0,0.0,0.0,0.0,0.0,0.0,0.0,0.0,0.0,0.0,0.0,0.0,0.0,0.0,0.0
Aracatu,EBDA,Aracatu,Aracatu - EBDA,-14.42914,-41.463085,Sudoeste,RPGA do Rio de Contas,0.0,0.0,0.0,0.0,0.0,0.0,0.0,0.0,0.0,0.0,0.0,0.0,0.0,0.0,0.0,0.0,0.0,0.0,0.0,0.0,0.0,0.0,0.0,0.0,0.0,0.0,0.0,0.0,0.0,0.0,0.0,0.0
Lajedo do Tabocal,EBDA,Lajedo do Tabocal,Lajedo do Tabocal - EBDA,-13.47635,-40.22416,Sudoeste,RPGA do Rio de Contas,0.0,0.0,0.0,0.0,8.0,5.0,10.0,0.0,12.0,4.0,11.0,0.0,0.0,0.0,0.0,0.0,0.0,0.0,0.0,0.0,0.0,0.0,0.0,0.0,0.0,0.0,0.0,5.0,0.0,0.0,0.0,55.0
Itaquara,EBDA,Itaquara,Itaquara - EBDA,-13.452183,-39.942209,Sudoeste,RPGA do Recôncavo Sul,0.0,0.0,0.0,0.0,18.0,0.0,10.0,13.0,0.0,10.0,15.0,0.0,6.0,0.0,0.0,0.0,0.0,0.0,0.0,5.0,0.0,0.0,0.0,5.0,0.0,0.0,0.0,0.0,0.0,0.0,0.0,82.0
Anagé,CO-CL-01,Anagé,Anagé - CO-CL-01,-14.618055,-41.149722,Sudoeste,RPGA do Rio de Contas,0.0,0.0,0.0,0.0,0.0,0.0,0.0,0.0,0.0,0.0,0.0,0.0,0.0,0.0,0.0,0.0,0.0,0.0,0.0,0.0,0.0,0.0,0.0,0.0,0.0,0.0,0.0,0.0,0.0,0.0,0.0,0.0
Tremedal,CO-PR-03,Tremedal,Tremedal - CO-PR-03,-14.980998,-41.410135,Sudoeste,RPGA do Rio de Contas,0.0,0.0,0.0,0.0,0.5,0.0,0.0,0.0,0.0,0.0,0.0,0.0,0.0,0.0,0.0,0.0,0.0,0.0,0.0,0.0,0.0,0.0,0.0,0.0,0.0,0.0,0.0,0.0,0.0,0.0,0.0,0.5
Camacã,EBDA,Camacã,Camacã - EBDA,-15.418056,-39.501095,Sul,RPGA do Rio Pardo,0.0,0.0,10.5,8.2,0.0,9.4,0.0,10.0,4.0,1.1,0.0,10.6,6.8,12.5,0.0,0.0,7.6,4.5,3.3,2.2,0.0,0.0,5.2,0.0,0.0,4.3,0.0,1.6,0.0,0.0,0.0,101.8
Coaraci,EBDA,Coaraci,Coaraci - EBDA,-14.634708,-39.551092,Sul,RPGA do Leste,4.2,7.3,3.0,0.3,0.9,0.5,1.2,0.6,0.8,0.6,0.7,0.9,1.1,1.2,1.1,0.8,0.9,2.5,1.9,2.5,2.3,1.8,2.2,1.6,1.6,0.4,0.5,2.0,0.9,1.6,2.3,50.2
Ibicaraí,EBDA,Ibicaraí,Ibicaraí - EBDA,-14.868046,-39.584428,Sul,RPGA do Leste,0.0,0.0,0.0,3.8,12.6,9.7,0.4,7.9,3.4,0.3,8.9,3.3,0.0,0.0,1.2,0.0,0.0,0.0,0.0,1.2,0.0,0.0,0.0,1.5,0.0,0.0,0.2,0.0,0.6,0.0,0.0,55.0
Ilhéus,01 - EBDA,Ilhéus,Ilhéus - 01 - EBDA,-14.784713,-39.05108,Sul,RPGA do Leste,8.5,0.0,0.0,0.0,6.0,22.5,0.0,0.0,0.0,15.0,0.0,0.0,0.0,40.0,0.0,0.0,0.0,0.0,0.0,0.0,22.5,0.0,9.0,0.0,0.0,0.0,0.0,16.0,0.0,0.0,0.0,139.5
Ubaitaba,EBDA,Ubaitaba,Ubaitaba - EBDA,-14.318037,-39.31775,Sul,RPGA do Rio de Contas,0.0,0.1,0.1,0.0,0.5,0.0,1.0,2.0,2.7,0.0,6.7,5.2,14.0,0.0,0.0,0.0,0.0,0.1,0.0,0.0,1.0,0.0,0.1,5.0,0.0,0.7,0.5,1.2,2.6,0.0,1.0,44.51
Itapebi,EBDA,Itapebi,Itapebi - EBDA,-15.968068,-39.534431,Sul,RPGA do Rio Jequitinhonha,0.0,0.0,0.0,0.0,60.0,9.0,0.0,0.0,0.0,3.0,0.0,0.0,0.0,0.0,0.0,0.0,0.0,0.0,0.0,0.0,0.0,0.0,0.0,0.0,0.0,0.0,0.0,0.0,0.0,0.0,0.0,72.0
Canavieiras,EBDA,Canavieiras,Canavieiras - EBDA,-15.684731,-38.95108,Sul,RPGA do Rio Pardo,0.0,32.1,3.3,13.0,10.6,16.3,0.6,2.6,0.0,0.0,34.7,21.1,4.8,2.2,41.2,0.0,4.0,8.5,0.0,0.0,8.2,0.0,3.4,0.0,0.0,1.1,13.4,0.0,3.3,0.0,0.0,224.4
Una,EBDA,Una,Una - EBDA,-15.301389,-39.084416,Sul,RPGA do Leste,11.9,0.0,4.2,29.1,1.8,6.4,0.0,0.7,0.0,13.9,10.1,15.3,0.0,4.6,5.7,0.0,4.5,0.0,0.0,0.0,0.0,6.1,2.8,0.0,0.0,0.0,5.4,0.0,0.0,2.0,0.0,124.5
Medeiros Neto,EBDA,Medeiros Neto,Medeiros Neto - EBDA,-17.368089,-40.234458,Sul,"RPGA dos Rios Peruípe, Itanhém e Jucuruçu",0.0,0.0,27.0,20.0,0.0,4.0,0.0,0.0,4.0,2.0,0.0,3.0,8.0,0.0,0.0,0.0,1.0,1.0,0.0,0.0,0.0,0.0,2.0,0.0,0.0,0.0,0.0,0.0,0.0,0.0,0.0,72.0
Itanhém,EBDA,Itanhém,Itanhém - EBDA,-17.134752,-40.334459,Sul,"RPGA dos Rios Peruípe, Itanhém e Jucuruçu",0.0,0.0,6.0,21.5,18.2,8.0,3.0,0.0,0.0,2.1,0.0,2.4,0.6,0.4,0.0,0.0,0.0,0.0,0.0,0.0,0.0,0.0,2.0,4.2,0.0,2.3,0.0,0.0,0.0,0.0,0.0,70.7
Nova Viçosa,EBDA,Nova Viçosa,Nova Viçosa - EBDA,-17.884771,-39.38444,Sul,"RPGA dos Rios Peruípe, Itanhém e Jucuruçu",0.0,0.0,0.0,22.2,12.2,0.0,0.0,17.2,0.0,31.8,0.0,0.6,0.0,0.0,2.8,0.0,0.0,6.6,0.0,0.0,0.0,0.0,0.0,6.1,0.0,10.6,0.0,0.0,0.0,0.0,0.0,110.1
Mucuri,EBDA,Mucuri,Mucuri - EBDA,-18.084773,-39.55111,Sul,RPGA do Rio Mucuri,0.0,0.0,10.0,0.0,0.0,8.0,5.0,10.0,15.0,25.0,0.0,0.0,5.0,0.0,7.0,0.0,0.0,0.0,0.0,0.0,0.0,0.0,0.0,19.0,0.0,0.0,0.0,0.0,0.0,0.0,0.0,104.0
Itamaraju,EBDA,Itamaraju,Itamaraju - EBDA,-17.068089,-39.534438,Sul,"RPGA dos Rios Peruípe, Itanhém e Jucuruçu",0.0,0.0,2.7,24.9,44.7,10.5,2.4,7.0,0.0,3.5,3.6,0.6,9.1,0.0,0.0,0.0,0.0,0.0,0.0,0.0,0.0,0.0,0.0,7.2,2.6,0.0,0.0,0.0,0.0,0.0,0.0,118.8
Fz Nanci,53880000,Camacã,Camacã (Fz Nanci) - 53880000,-15.581395,-39.521095,Sul,RPGA do Rio Pardo,0.0,9.0,0.0,0.0,20.0,2.0,0.0,0.0,0.0,0.0,2.0,4.0,20.0,0.0,1.0,0.0,5.0,1.0,0.0,0.0,0.0,0.0,2.0,2.0,0.0,0.0,0.0,1.0,0.0,0.0,0.0,69.0
Ilhéus,A410,Ilhéus,Ilhéus - A410,-14.658803,-39.181438,Sul,RPGA do Leste,3.4,0.2,0.4,7.0,14.0,3.2,3.0,3.4,5.0,0.0,10.6,30.4,0.8,0.6,2.4,0.2,0.0,1.6,0.2,2.0,2.8,0.2,5.4,3.0,0.0,0.0,5.4,7.8,3.0,0.0,1.2,117.2
Canavieiras,83398,Canavieiras,Canavieiras - 83398,-15.666667,-38.95,Sul,RPGA do Rio Pardo,0.0,36.8,0.0,8.9,33.7,23.5,3.8,5.8,1.4,0.0,32.4,21.2,5.7,2.2,30.2,3.8,5.2,0.0,11.1,0.0,6.6,0.0,4.3,1.8,0.0,0.0,0.0,12.9,1.7,1.9,0.0,254.9
Caravelas,83498,Caravelas,Caravelas - 83498,-17.739167,-39.258333,Sul,"RPGA dos Rios Peruípe, Itanhém e Jucuruçu",0.0,0.0,13.4,47.6,20.4,29.6,8.2,0.0,0.0,12.6,1.0,0.5,18.2,1.2,0.0,0.0,14.3,0.0,2.9,0.0,0.0,0.0,0.0,10.4,6.8,0.0,0.0,0.0,0.0,0.0,0.0,187.11
Guaratinga,83446,Guaratinga,Guaratinga - 83446,-16.58,-39.78,Sul,"RPGA dos Rios dos Frades, Buranhém e Santo Antônio",0.0,0.0,3.2,12.8,17.3,1.2,0.4,0.6,0.0,1.6,0.0,0.0,1.5,0.0,0.4,0.0,0.0,0.0,1.6,0.0,0.4,0.0,0.2,16.7,0.0,0.0,1.6,0.0,0.0,0.0,0.0,59.51
Maraú,A438,Maraú,Maraú - A438,-13.90694,-38.97222,Sul,RPGA do Recôncavo Sul,6.4,0.2,0.0,18.0,20.2,50.2,1.4,18.0,1.2,0.0,5.4,28.8,11.0,0.6,10.4,0.0,0.2,1.2,1.4,15.6,17.4,0.2,2.6,2.2,0.2,8.0,19.6,32.8,12.2,4.4,10.2,300.0
Una,A437,Una,Una - A437,-15.280215,-39.09127,Sul,RPGA do Leste,18.6,3.4,0.2,5.0,24.4,14.6,0.4,10.6,1.2,0.2,23.2,2.6,1.8,1.0,5.8,0.4,0.6,1.4,0.4,0.2,6.6,1.0,7.0,4.8,0.6,0.6,0.2,1.6,6.4,1.4,0.2,146.4
Porto Seguro,A427,Porto Seguro,Porto Seguro - A427,-16.388977,-39.182389,Sul,"RPGA dos Rios dos Frades, Buranhém e Santo Antônio",0.2,0.2,1.4,33.4,45.4,34.4,0.2,6.0,7.4,6.6,30.8,7.8,6.4,0.2,0.0,0.8,0.0,0.2,0.6,0.4,0.0,0.2,0.8,7.6,0.2,0.2,0.2,1.8,0.2,0.0,0.2,193.8
Belmonte,A447,Belmonte,Belmonte - A447,-16.08487,-39.21726,Sul,"RPGA dos Rios dos Frades, Buranhém e Santo Antônio",0.2,0.0,0.8,1.4,54.0,18.0,0.0,6.4,4.6,0.2,22.2,2.4,9.2,0.4,0.4,0.2,0.4,0.2,8.6,0.0,0.6,1.2,1.4,5.2,0.2,0.2,0.2,1.8,0.0,0.2,0.2,140.8
Ilhéus,02 - EBDA,Ilhéus,Ilhéus - 02 - EBDA,-14.790269,-39.050524,Sul,RPGA do Leste,0.0,0.0,12.7,20.0,0.0,0.0,0.0,13.8,0.0,1.5,30.0,39.1,0.0,10.0,0.0,0.0,0.0,0.0,0.0,0.0,0.0,0.0,19.7,0.0,0.0,13.8,0.0,0.0,0.0,0.0,0.0,160.6
Itapitanga,EBDA,Itapitanga,Itapitanga - EBDA,-14.424149,-39.567758,Sul,RPGA do Rio de Contas,0.0,1.3,1.0,1.2,10.0,0.0,0.0,0.0,0.0,0.0,0.0,0.0,0.0,0.0,0.0,0.0,0.0,0.0,0.0,0.0,0.0,3.8,0.0,0.0,0.0,0.0,0.0,0.0,0.0,0.0,0.0,17.3
Ubatã,EBDA,Ubatã,Ubatã - EBDA,-14.215256,-39.523867,Sul,RPGA do Rio de Contas,0.1,0.2,0.2,0.0,0.4,0.0,0.5,3.2,4.5,0.0,8.5,21.2,8.7,0.0,0.7,0.0,0.0,0.0,0.0,0.2,4.2,0.1,0.0,0.7,0.0,0.1,0.2,0.7,4.2,0.0,1.0,59.61
Ilhéus 03,EBDA,Ilhéus 03,Ilhéus 03 - EBDA,-14.793047,-39.049969,Sul,RPGA do Leste,9.1,0.0,7.4,0.0,21.0,0.0,12.2,6.8,3.0,0.0,5.4,20.0,2.6,5.0,5.8,0.0,1.2,1.6,0.0,0.0,8.0,0.0,2.8,10.0,0.0,0.0,0.0,4.2,5.9,0.0,2.0,134.0
Teixeira de Freitas,PJ-CL-01,Teixeira de Freitas,Teixeira de Freitas - PJ-CL-01,-17.575555,-39.732777,Sul,"RPGA dos Rios Peruípe, Itanhém e Jucuruçu",0.0,1.0,0.0,34.25,28.25,4.75,2.25,3.75,0.25,25.0,25.25,0.5,11.0,0.5,0.5,0.0,25.0,0.25,1.75,0.0,0.0,0.0,0.0,6.25,21.25,0.0,2.5,0.0,0.0,1.75,0.0,196.0
Camamu,EBDA,Camamu,Camamu - EBDA,-13.951362,-39.117744,Sul,RPGA do Recôncavo Sul,8.4,2.3,4.7,11.0,32.1,12.1,5.4,2.1,1.6,0.6,11.8,1.9,2.8,1.5,7.3,1.3,0.0,0.0,0.0,6.3,4.5,0.0,2.4,7.9,2.1,1.3,6.5,17.3,8.0,1.3,0.0,164.51
SEDE,EBDA,Angical,Angical (SEDE) - EBDA,-12.001302,-44.684543,São Francisco,RPGA do Rio Grande,0.0,0.0,0.0,0.0,0.0,0.0,0.0,0.0,0.0,0.0,0.0,0.0,0.0,0.0,0.0,0.0,0.0,0.0,0.0,0.0,0.0,0.0,0.0,0.0,0.0,0.0,0.0,0.0,0.0,0.0,0.0,0.0
SEDE,EBDA,Baianópolis,Baianópolis (SEDE) - EBDA,-12.301308,-44.53454,São Francisco,RPGA do Rio Grande,0.0,0.0,0.0,0.0,0.0,0.0,0.0,0.0,0.0,0.0,0.0,0.0,0.0,0.0,0.0,0.0,0.0,0.0,0.0,0.0,0.0,0.0,0.0,0.0,0.0,0.0,0.0,0.0,0.0,0.0,0.0,0.0
SEDE,EBDA,Cristópolis,Cristópolis (SEDE) - EBDA,-12.217972,-44.434539,São Francisco,RPGA do Rio Grande,0.0,0.0,0.0,0.0,0.0,0.0,0.0,0.0,0.0,0.0,0.0,0.0,0.0,0.0,0.0,0.0,0.0,0.0,0.0,0.0,0.0,0.0,0.0,0.0,0.0,0.0,0.0,0.0,0.0,0.0,0.0,0.0
SEDE,,Santa Rita de Cássia,Santa Rita de Cássia (SEDE),-11.001281,-44.517867,São Francisco,RPGA do Rio Grande,0.0,0.0,0.0,0.0,0.0,0.0,0.0,0.0,0.0,0.0,0.0,0.0,0.0,0.0,0.0,0.0,0.0,0.0,0.0,0.0,0.0,0.0,0.0,0.0,0.0,0.0,0.0,0.0,0.0,0.0,0.0,0.0
SEDE,EBDA,Wanderley,Wanderley (SEDE) - EBDA,-12.117972,-43.884524,São Francisco,RPGA do Rio Grande,0.0,0.0,0.0,0.0,0.0,0.0,0.0,0.0,0.0,0.0,0.0,0.0,0.0,0.0,0.0,0.0,0.0,0.0,0.0,0.0,0.0,0.0,0.0,0.0,0.0,0.0,0.0,0.0,0.0,0.0,0.0,0.0
Bom Jesus da Lapa,EBDA,Bom Jesus da Lapa,Bom Jesus da Lapa - EBDA,-13.251329,-43.417851,São Francisco,RPGA do Rio Carnaíba de Dentro,0.0,0.0,0.0,0.0,0.0,0.0,0.0,0.0,0.0,0.0,0.0,0.0,0.0,0.0,0.0,0.0,0.0,0.0,0.0,0.0,0.0,0.0,0.0,0.0,0.0,0.0,0.0,0.0,0.0,0.0,0.0,0.0
Carinhanha,EBDA,Carinhanha,Carinhanha - EBDA,-14.301347,-43.767864,São Francisco,"RPGA do Rio Corrente e Riachos do Ramalho, Serra Dourada e Brejo Velho",0.0,0.0,0.0,0.0,0.0,0.0,0.0,0.0,0.0,0.0,0.0,0.0,0.0,0.0,0.0,0.0,0.0,0.0,0.0,0.0,0.0,0.0,0.0,0.0,0.0,0.0,0.0,0.0,0.0,0.0,0.0,0.0
Ibotirama,EBDA,Ibotirama,Ibotirama - EBDA,-12.184644,-43.21784,São Francisco,RPGA dos Rios Paramirim e Santo Onofre,0.0,0.0,0.0,0.0,0.0,0.0,0.0,0.0,0.0,0.0,0.0,0.0,0.0,0.0,0.0,0.0,0.0,0.0,0.0,0.0,0.0,0.0,0.0,0.0,0.0,0.0,0.0,0.0,0.0,0.0,0.0,0.0
Paratinga,EBDA,Paratinga,Paratinga - EBDA,-12.684653,-43.184509,São Francisco,RPGA do Rio Carnaíba de Dentro,0.0,0.0,0.0,0.0,0.0,0.0,0.0,0.0,0.0,0.0,0.0,0.0,0.0,0.0,0.0,0.0,0.0,0.0,0.0,0.0,0.0,0.0,0.0,0.0,0.0,0.0,0.0,0.0,0.0,0.0,0.0,0.0
Riacho de Santana,EBDA,Riacho de Santana,Riacho de Santana - EBDA,-13.601338,-42.934507,São Francisco,RPGA do Rio Carnaíba de Dentro,0.0,0.0,0.0,0.0,0.0,0.0,0.0,0.0,0.0,0.0,0.0,0.0,0.0,0.0,0.0,0.0,0.0,0.0,0.0,0.0,0.0,0.0,0.0,0.0,0.0,0.0,0.0,0.0,0.0,0.0,0.0,0.0
Serra do Ramalho,EBDA,Serra do Ramalho,Serra do Ramalho - EBDA,-13.618002,-43.567857,São Francisco,"RPGA do Rio Corrente e Riachos do Ramalho, Serra Dourada e Brejo Velho",0.0,0.0,0.0,0.0,0.0,0.0,0.0,0.0,0.0,0.0,0.0,0.0,0.0,0.0,0.0,0.0,0.0,0.0,0.0,0.0,0.0,0.0,0.0,0.0,0.0,0.0,0.0,0.0,0.0,0.0,0.0,0.0
Santa Maria da Vitória,CT-PR-07,Santa Maria da Vitória,Santa Maria da Vitória - CT-PR-07,-13.384662,-44.184537,São Francisco,"RPGA do Rio Corrente e Riachos do Ramalho, Serra Dourada e Brejo Velho",0.0,0.0,0.0,0.0,0.0,0.0,0.0,0.0,0.0,0.0,0.0,0.0,0.0,0.0,0.0,0.0,0.0,0.0,0.0,0.0,0.0,0.0,0.0,0.0,0.0,0.0,0.0,0.0,0.0,0.0,0.0,0.0
Coribe,EBDA,Coribe,Coribe - EBDA,-13.834669,-44.451212,São Francisco,"RPGA do Rio Corrente e Riachos do Ramalho, Serra Dourada e Brejo Velho",0.0,0.0,0.0,0.0,0.0,0.0,0.0,0.0,0.0,0.0,0.0,0.0,0.0,0.0,0.0,0.0,0.0,0.0,0.0,0.0,0.0,0.0,0.0,0.0,0.0,0.0,0.0,0.0,0.0,0.0,0.0,0.0
Santana,EBDA,Santana,Santana - EBDA,-12.984656,-44.0512,São Francisco,"RPGA do Rio Corrente e Riachos do Ramalho, Serra Dourada e Brejo Velho",0.0,0.0,0.0,0.0,0.0,0.0,0.0,0.0,0.0,0.0,0.0,0.0,0.0,0.0,0.0,0.0,0.0,0.0,0.0,0.0,0.0,0.0,0.0,0.0,0.0,0.0,0.0,0.0,0.0,0.0,0.0,0.0
Barra,EBDA,Barra,Barra - EBDA,-11.084623,-43.151167,São Francisco,RPGA do Rio Grande,0.0,0.0,0.0,0.0,0.0,0.0,0.0,0.0,0.0,0.0,0.0,0.0,0.0,0.0,0.0,0.0,0.0,0.0,0.0,0.0,0.0,0.0,0.0,0.0,0.0,0.0,0.0,0.0,0.0,0.0,0.0,0.0
Gentio do Ouro,EBDA,Gentio do Ouro,Gentio do Ouro - EBDA,-11.417965,-42.501152,São Francisco,RPGA dos Rios Verde e Jacaré,0.0,0.0,0.0,0.0,0.0,0.0,0.0,0.0,0.0,0.0,0.0,0.0,0.0,0.0,0.0,0.0,0.0,0.0,0.0,0.0,0.0,0.0,0.0,0.0,0.0,0.0,0.0,0.0,0.0,0.0,0.0,0.0
Xique-Xique,EBDA,Xique-Xique,Xique-Xique - EBDA,-10.817951,-42.717822,São Francisco,RPGA dos Rios Paramirim e Santo Onofre,0.0,0.0,0.0,0.0,0.0,0.0,0.0,0.0,0.0,0.0,0.0,0.0,0.0,0.0,0.0,0.0,0.0,0.0,0.0,0.0,0.0,0.0,0.0,0.0,0.0,0.0,0.0,0.0,0.0,0.0,0.0,0.0
Brotas de Macaúbas,EBDA,Brotas de Macaúbas,Brotas de Macaúbas - EBDA,-12.001308,-42.617825,São Francisco,RPGA dos Rios Paramirim e Santo Onofre,0.0,0.0,0.0,0.0,0.0,0.0,0.0,0.0,0.0,0.0,0.0,0.0,0.0,0.0,0.0,0.0,0.0,0.0,0.0,0.0,0.0,0.0,0.0,0.0,0.0,0.0,0.0,0.0,0.0,0.0,0.0,0.0
Oliveira dos Brejinhos,EBDA,Oliveira dos Brejinhos,Oliveira dos Brejinhos - EBDA,-12.301314,-42.8845,São Francisco,RPGA dos Rios Paramirim e Santo Onofre,0.0,0.0,0.0,0.0,0.0,0.0,0.0,0.0,0.0,0.0,0.0,0.0,0.0,0.0,0.0,0.0,0.0,0.0,0.0,0.0,0.0,0.0,0.0,0.0,0.0,0.0,0.0,0.0,0.0,0.0,0.0,0.0
Caetité,EBDA,Caetité,Caetité - EBDA,-14.068017,-42.484498,São Francisco,RPGA do Rio de Contas,0.0,0.0,0.0,13.5,0.0,0.0,0.0,0.0,0.0,0.0,0.0,0.0,0.0,0.0,0.0,0.0,0.0,0.0,0.0,0.0,0.0,0.0,0.0,0.0,0.0,0.0,0.0,0.0,0.0,0.0,0.0,13.5
Urandi,EBDA,Urandi,Urandi - EBDA,-14.768029,-42.651173,São Francisco,RPGA do Rio Verde Grande,0.0,0.0,0.0,0.0,0.0,0.0,0.0,0.0,0.0,0.0,0.0,0.0,0.0,0.0,0.0,0.0,0.0,0.0,0.0,0.0,0.0,0.0,0.0,0.0,0.0,0.0,0.0,0.0,0.0,0.0,0.0,0.0
Paramirim,EBDA,Paramirim,Paramirim - EBDA,-13.434672,-42.234489,São Francisco,RPGA dos Rios Paramirim e Santo Onofre,0.0,0.0,0.0,0.0,0.0,0.0,0.0,0.0,0.0,0.0,0.0,0.0,0.0,0.0,0.0,0.0,0.0,0.0,0.0,0.0,0.0,0.0,0.0,0.0,0.0,0.0,0.0,0.0,0.0,0.0,0.0,0.0
Guanambí,EBDA,Guanambí,Guanambí - EBDA,-14.218017,-42.76784,São Francisco,RPGA do Rio Carnaíba de Dentro,0.0,0.0,0.0,0.0,0.0,0.0,0.0,0.0,0.0,0.0,0.0,0.0,0.0,0.0,0.0,0.0,0.0,0.0,0.0,0.0,0.0,0.0,0.0,0.0,0.0,0.0,0.0,0.0,0.0,0.0,0.0,0.0
Macaúbas,EBDA,Macaúbas,Macaúbas - EBDA,-13.017996,-42.684498,São Francisco,RPGA dos Rios Paramirim e Santo Onofre,0.0,0.0,0.0,0.0,0.0,0.0,0.0,0.0,0.0,0.0,0.0,0.0,0.0,0.0,0.0,0.0,0.0,0.0,0.0,0.0,0.0,0.0,0.0,0.0,0.0,0.0,0.0,0.0,0.0,0.0,0.0,0.0
Palmas do Monte Alto,EBDA,Palmas do Monte Alto,Palmas do Monte Alto - EBDA,-14.268017,-43.167849,São Francisco,RPGA do Rio Carnaíba de Dentro,0.0,0.0,0.0,0.0,0.0,0.0,0.0,0.0,0.0,0.0,0.0,0.0,0.0,0.0,0.0,0.0,0.0,0.0,0.0,0.0,0.0,0.0,0.0,0.0,0.0,0.0,0.0,0.0,0.0,0.0,0.0,0.0
Sítio do Mato,EBDA,Sítio do Mato,Sítio do Mato - EBDA,-13.167995,-43.501185,São Francisco,"RPGA do Rio Corrente e Riachos do Ramalho, Serra Dourada e Brejo Velho",0.0,0.0,0.0,0.0,0.0,0.0,0.0,0.0,0.0,0.0,0.0,0.0,0.0,0.0,0.0,0.0,0.0,0.0,0.0,0.0,0.0,0.0,0.0,0.0,0.0,0.0,0.0,0.0,0.0,0.0,0.0,0.0
Matina,EBDA,Matina,Matina - EBDA,-13.918012,-42.834506,São Francisco,RPGA do Rio Carnaíba de Dentro,0.0,0.0,0.0,0.0,0.0,0.0,0.0,0.0,0.0,0.0,0.0,0.0,0.0,0.0,0.0,0.0,0.0,0.0,0.0,0.0,0.0,0.0,0.0,0.0,0.0,0.0,0.0,0.0,0.0,0.0,0.0,0.0
Igaporã,EBDA,Igaporã,Igaporã - EBDA,-13.701341,-42.75117,São Francisco,RPGA do Rio Carnaíba de Dentro,0.0,0.0,0.0,0.0,0.0,0.0,0.0,0.0,0.0,0.0,0.0,0.0,0.0,0.0,0.0,0.0,0.0,0.0,0.0,0.0,0.0,0.0,0.0,0.0,0.0,0.0,0.0,0.0,0.0,0.0,0.0,0.0
Serra Dourada,EBDA - EBDA,Serra Dourada,Serra Dourada - EBDA - EBDA,-12.751317,-43.951194,São Francisco,"RPGA do Rio Corrente e Riachos do Ramalho, Serra Dourada e Brejo Velho",0.0,0.0,0.0,0.0,0.0,0.0,0.0,0.0,0.0,0.0,0.0,0.0,0.0,0.0,0.0,0.0,0.0,0.0,0.0,0.0,0.0,0.0,0.0,0.0,0.0,0.0,0.0,0.0,0.0,0.0,0.0,0.0
Iuiú,EBDA,Iuiú,Iuiú - EBDA,-14.40135,-43.551194,São Francisco,RPGA do Rio Carnaíba de Dentro,0.0,0.0,0.0,0.0,0.0,0.0,0.0,0.0,0.0,0.0,0.0,0.0,0.0,0.0,0.0,0.0,0.0,0.0,0.0,0.0,0.0,0.0,0.0,0.0,0.0,0.0,0.0,0.0,0.0,0.0,0.0,0.0
Malhada,EBDA,Malhada,Malhada - EBDA,-14.334683,-43.767866,São Francisco,RPGA do Rio Carnaíba de Dentro,0.0,0.0,0.0,0.0,0.0,0.0,0.0,0.0,0.0,0.0,0.0,0.0,0.0,0.0,0.0,0.0,0.0,0.0,0.0,0.0,0.0,0.0,0.0,0.0,0.0,0.0,0.0,0.0,0.0,0.0,0.0,0.0
Sebastião Laranjeiras,EBDA,Sebastião Laranjeiras,Sebastião Laranjeiras - EBDA,-14.534689,-42.967846,São Francisco,RPGA do Rio Verde Grande,0.0,0.0,0.0,0.0,0.0,0.0,0.0,0.0,0.0,0.0,0.0,0.0,0.0,0.0,0.0,0.0,0.0,0.0,0.0,0.0,0.0,0.0,0.0,0.0,0.0,0.0,0.0,0.0,0.0,0.0,0.0,0.0
Santa Rita de Cássia,A415,Santa Rita de Cássia,Santa Rita de Cássia - A415,-11.002768,-44.524965,São Francisco,RPGA do Rio Grande,0.0,0.0,0.0,0.0,0.0,0.0,0.0,0.0,0.0,0.0,0.0,0.0,0.0,0.2,0.0,0.0,0.0,0.0,0.0,0.0,0.0,0.0,0.0,0.0,0.0,0.0,0.0,0.0,0.0,0.0,0.0,0.2
Bom Jesus da Lapa,A418,Bom Jesus da Lapa,Bom Jesus da Lapa - A418,-13.251094,-43.405365,São Francisco,RPGA do Rio Carnaíba de Dentro,0.0,0.0,0.0,0.0,0.0,0.0,0.0,0.0,0.0,0.0,0.0,0.0,0.0,0.0,0.0,0.0,0.0,0.0,0.0,0.0,0.0,0.0,0.0,0.0,0.0,0.0,0.0,0.0,0.0,0.0,0.0,0.0
Barra,83179,Barra,Barra - 83179,-11.083333,-43.166667,São Francisco,RPGA do Rio Grande,0.0,0.0,0.0,0.0,0.0,0.0,0.0,0.0,0.0,0.0,0.0,0.0,0.0,0.0,0.0,0.0,0.0,0.0,0.0,0.0,0.0,0.0,0.0,0.0,0.0,0.0,0.0,0.0,0.0,0.0,0.0,0.0
Bom Jesus da Lapa,83288,Bom Jesus da Lapa,Bom Jesus da Lapa - 83288,-13.251389,-43.405278,São Francisco,RPGA do Rio Carnaíba de Dentro,0.0,0.0,0.0,0.0,0.0,0.0,0.0,0.0,0.0,0.0,0.0,0.0,0.0,0.0,0.0,0.0,0.0,0.0,0.0,0.0,0.0,0.0,0.0,0.0,0.0,0.0,0.0,0.0,0.0,0.0,0.0,0.0
Caetité,83339,Caetité,Caetité - 83339,-14.066667,-42.483333,São Francisco,RPGA do Rio de Contas,0.0,0.0,0.0,0.4,11.2,0.2,0.0,0.0,0.0,0.0,0.0,0.0,0.0,0.0,0.0,0.0,0.0,0.0,0.0,0.0,0.0,0.0,0.0,0.0,0.0,0.0,0.0,0.0,0.0,0.0,0.0,11.8
Carinhanha,83408,Carinhanha,Carinhanha - 83408,-14.283333,-43.766667,São Francisco,"RPGA do Rio Corrente e Riachos do Ramalho, Serra Dourada e Brejo Velho",0.0,0.0,0.0,0.0,0.0,0.0,0.0,0.0,0.0,0.0,0.0,0.0,0.0,0.0,0.0,0.0,0.0,0.0,0.0,0.0,0.0,0.0,0.0,0.0,0.0,0.0,0.0,0.0,0.0,0.0,0.0,0.0
Santa Rita de Cássia,83076,Santa Rita de Cássia,Santa Rita de Cássia - 83076,-11.016667,-44.516667,São Francisco,RPGA do Rio Grande,0.0,0.0,0.0,0.0,0.0,0.0,0.0,0.0,0.0,0.0,0.0,0.0,0.0,0.2,0.0,0.0,0.0,0.0,0.0,0.0,0.0,0.0,0.0,0.0,0.0,0.0,0.0,0.0,0.0,0.0,0.0,0.2
Guanambí,A426,Guanambí,Guanambí - A426,-14.208123,-42.749647,São Francisco,RPGA do Rio Carnaíba de Dentro,0.0,0.0,0.0,0.0,0.0,3.0,0.0,0.0,0.0,0.0,0.0,0.0,0.0,0.0,0.0,0.0,0.0,0.0,0.0,0.0,0.0,0.0,0.0,0.0,0.0,0.0,0.0,0.0,0.0,0.0,0.0,3.0
Buritirama,A432,Buritirama,Buritirama - A432,-10.722925,-43.651203,São Francisco,RPGA do Rio Grande,0.0,0.0,0.0,0.0,0.0,0.0,0.0,0.0,0.0,0.0,0.0,0.0,0.0,0.0,0.0,0.0,0.0,0.0,0.0,0.0,0.0,0.0,0.0,0.0,0.0,0.0,0.0,0.0,0.0,0.0,0.0,0.0
Barra,A429,Barra,Barra - A429,-11.084858,-43.138998,São Francisco,RPGA do Rio Grande,0.0,0.0,0.0,0.0,0.0,0.0,0.0,0.0,0.0,0.0,0.0,0.0,0.0,0.0,0.0,0.0,0.0,0.0,0.0,0.0,0.0,0.0,0.0,0.0,0.0,0.0,0.0,0.0,0.0,0.0,0.0,0.0
Ibotirama,A439,Ibotirama,Ibotirama - A439,-12.19306,-43.21342,São Francisco,RPGA dos Rios Paramirim e Santo Onofre,0.0,0.0,0.0,0.0,0.0,0.2,0.0,0.0,0.0,0.0,0.0,0.0,0.0,0.0,0.0,0.0,0.0,0.0,0.0,0.0,0.0,0.0,0.0,0.0,0.0,0.0,0.0,0.0,0.0,0.0,0.0,0.2
Feira da Mata,EBDA,Feira da Mata,Feira da Mata - EBDA,-14.218288,-44.268154,São Francisco,RPGA do Rio Carinhanha,0.0,0.0,0.0,0.0,0.0,0.0,0.0,0.0,0.0,0.0,0.0,0.0,0.0,0.0,0.0,0.0,0.0,0.0,0.0,0.0,0.0,0.0,0.0,0.0,0.0,0.0,0.0,0.0,0.0,0.0,0.0,0.0
Canápolis,EBDA,Canápolis,Canápolis - EBDA,-13.06799,-44.201203,São Francisco,"RPGA do Rio Corrente e Riachos do Ramalho, Serra Dourada e Brejo Velho",0.0,0.0,0.0,0.0,0.0,0.0,0.0,0.0,0.0,0.0,0.0,0.0,0.0,0.0,0.0,0.0,0.0,0.0,0.0,0.0,0.0,0.0,0.0,0.0,0.0,0.0,0.0,0.0,0.0,0.0,0.0,0.0
Brejolândia,EBDA,Brejolândia,Brejolândia - EBDA,-12.384644,-43.967861,São Francisco,"RPGA do Rio Corrente e Riachos do Ramalho, Serra Dourada e Brejo Velho",0.0,0.0,0.0,0.0,0.0,0.0,0.0,0.0,0.0,0.0,0.0,0.0,0.0,0.0,0.0,0.0,0.0,0.0,0.0,0.0,0.0,0.0,0.0,0.0,0.0,0.0,0.0,0.0,0.0,0.0,0.0,0.0
Boquira,EBDA,Boquira,Boquira - EBDA,-12.801323,-42.801167,São Francisco,RPGA dos Rios Paramirim e Santo Onofre,0.0,0.0,0.0,0.0,0.0,0.0,0.0,0.0,0.0,0.0,0.0,0.0,0.0,0.0,0.0,0.0,0.0,0.0,0.0,0.0,0.0,0.0,0.0,0.0,0.0,0.0,0.0,0.0,0.0,0.0,0.0,0.0
Botuporã,EBDA,Botuporã,Botuporã - EBDA,-13.301335,-42.551164,São Francisco,RPGA dos Rios Paramirim e Santo Onofre,0.0,0.0,0.0,0.0,0.0,0.0,0.0,0.0,0.0,0.0,0.0,0.0,0.0,0.0,0.0,0.0,0.0,0.0,0.0,0.0,0.0,0.0,0.0,0.0,0.0,0.0,0.0,0.0,0.0,0.0,0.0,0.0
Licínio de Almeida,EBDA,Licínio de Almeida,Licínio de Almeida - EBDA,-14.634693,-42.567837,São Francisco,RPGA do Rio Verde Grande,0.0,0.0,0.0,0.0,0.0,0.0,0.0,0.0,0.0,0.0,0.0,0.0,0.0,0.0,0.0,0.0,0.0,0.0,0.0,0.0,0.0,0.0,0.0,0.0,0.0,0.0,0.0,0.0,0.0,0.0,0.0,0.0
Lagoa Real,EBDA,Lagoa Real,Lagoa Real - EBDA,-13.984681,-42.567834,São Francisco,RPGA do Rio Carnaíba de Dentro,0.0,0.0,0.0,0.0,0.0,0.0,0.0,0.0,0.0,0.0,0.0,0.0,0.0,0.0,0.0,0.0,0.0,0.0,0.0,0.0,0.0,0.0,0.0,0.0,0.0,0.0,0.0,0.0,0.0,0.0,0.0,0.0
Ibipitanga,EBDA,Ibipitanga,Ibipitanga - EBDA,-12.801326,-42.467825,São Francisco,RPGA dos Rios Paramirim e Santo Onofre,0.0,0.0,0.0,0.0,0.0,0.0,0.0,0.0,0.0,0.0,0.0,0.0,0.0,0.0,0.0,0.0,0.0,0.0,0.0,0.0,0.0,0.0,0.0,0.0,0.0,0.0,0.0,0.0,0.0,0.0,0.0,0.0
Tanque Novo,EBDA,Tanque Novo,Tanque Novo - EBDA,-13.501338,-42.501164,São Francisco,RPGA dos Rios Paramirim e Santo Onofre,0.0,0.0,0.0,0.0,0.0,0.0,0.0,0.0,0.0,0.0,0.0,0.0,0.0,0.0,0.0,0.0,0.0,0.0,0.0,0.0,0.0,0.0,0.0,0.0,0.0,0.0,0.0,0.0,0.0,0.0,0.0,0.0
Fz. São Rafael,EBDA,Baianópolis,Baianópolis (Fz. São Rafael) - EBDA,-12.307697,-44.535931,São Francisco,RPGA do Rio Grande,0.0,0.0,0.0,0.0,0.0,0.0,0.0,0.0,0.0,0.0,0.0,0.0,0.0,0.0,0.0,0.0,0.0,0.0,0.0,0.0,0.0,0.0,0.0,0.0,0.0,0.0,0.0,0.0,0.0,0.0,0.0,0.0
Cascudeiro,EBDA,Baianópolis,Baianópolis (Cascudeiro) - EBDA,-12.528533,-44.480095,São Francisco,RPGA do Rio Grande,0.0,0.0,0.0,0.0,0.0,0.0,0.0,0.0,0.0,0.0,0.0,0.0,0.0,0.0,0.0,0.0,0.0,0.0,0.0,0.0,0.0,0.0,0.0,0.0,0.0,0.0,0.0,0.0,0.0,0.0,0.0,0.0
Tabocas do Brejo Velho,EBDA,Tabocas do Brejo Velho,Tabocas do Brejo Velho - EBDA,-12.70715,-44.008141,São Francisco,"RPGA do Rio Corrente e Riachos do Ramalho, Serra Dourada e Brejo Velho",0.0,0.0,0.0,0.0,0.0,0.0,0.0,0.0,0.0,0.0,0.0,0.0,0.0,0.0,0.0,0.0,0.0,0.0,0.0,0.0,0.0,0.0,0.0,0.0,0.0,0.0,0.0,0.0,0.0,0.0,0.0,0.0
Ouriçangas,EBDA,Angical,Angical (Ouriçangas) - EBDA,-12.008246,-44.696209,São Francisco,RPGA do Rio Grande,0.0,0.0,0.0,0.0,0.0,0.0,0.0,0.0,0.0,0.0,0.0,0.0,0.0,0.0,0.0,0.0,0.0,0.0,0.0,0.0,0.0,0.0,0.0,0.0,0.0,0.0,0.0,0.0,0.0,0.0,0.0,0.0
Buritirama,EBDA,Buritirama,Buritirama - EBDA,-10.709058,-43.632012,São Francisco,RPGA do Rio Grande,0.0,0.0,0.0,0.0,0.0,0.0,0.0,0.0,0.0,0.0,0.0,0.0,0.0,0.0,0.0,0.0,0.0,0.0,0.0,0.0,0.0,0.0,0.0,0.0,0.0,0.0,0.0,0.0,0.0,0.0,0.0,0.0
Santa Maria da Vitória,45910001,Santa Maria da Vitória,Santa Maria da Vitória - 45910001,-13.4006,-44.1989,São Francisco,"RPGA do Rio Corrente e Riachos do Ramalho, Serra Dourada e Brejo Velho",0.0,0.0,0.0,0.0,0.0,0.0,0.0,0.0,0.0,0.0,0.0,0.0,0.0,0.0,0.0,0.0,0.0,0.0,0.0,0.0,0.0,0.0,0.0,0.0,0.0,0.0,0.0,0.0,0.0,0.0,0.0,0.0
Fazenda Piabanha,,Fazenda Piabanha,Fazenda Piabanha,-14.59737,-42.38433,São Francisco,RPGA do Rio de Contas,0.0,0.0,0.0,0.0,0.0,0.0,0.0,0.0,0.0,0.0,0.0,0.0,0.5,0.0,0.0,0.0,0.0,0.0,0.0,0.0,0.0,0.0,0.0,0.0,0.0,0.0,0.0,0.0,0.0,0.0,0.0,0.5
