nome_estacao,codigo,municipio,estacao,latitude,longitude,regiao,rpga,01_01_10,02_01_10,03_01_10,04_01_10,05_01_10,06_01_10,07_01_10,08_01_10,09_01_10,10_01_10,11_01_10,12_01_10,13_01_10,14_01_10,15_01_10,16_01_10,17_01_10,18_01_10,19_01_10,20_01_10,21_01_10,22_01_10,23_01_10,24_01_10,25_01_10,26_01_10,27_01_10,28_01_10,29_01_10,30_01_10,31_01_10,total
Boa Vista do Tupim,EBDA,Boa Vista do Tupim,Boa Vista do Tupim - EBDA,-12.651332,-40.60111,Chapada Diamantina,RPGA do Rio Paraguaçu,0.0,0.0,1.0,0.0,0.0,0.0,0.0,0.0,0.0,0.0,0.0,0.0,0.0,0.0,0.0,0.0,0.0,0.0,0.0,0.0,0.0,0.0,0.0,0.0,0.0,0.0,0.0,0.0,0.0,0.0,0.0,1.0
Iaçu,EBDA,Iaçu,Iaçu - EBDA,-12.768002,-40.217768,Chapada Diamantina,RPGA do Rio Paraguaçu,0.0,0.0,16.7,0.0,0.0,0.0,0.0,0.0,0.0,0.0,0.0,0.0,0.0,0.0,0.0,0.0,0.0,0.0,0.0,0.0,0.0,0.0,0.0,0.0,0.0,0.0,0.0,0.0,0.0,0.0,0.0,16.7
Itaberaba,EBDA,Itaberaba,Itaberaba - EBDA,-12.534663,-40.301101,Chapada Diamantina,RPGA do Rio Paraguaçu,0.0,0.0,40.5,0.0,0.0,0.0,0.0,0.0,10.0,0.0,0.0,0.0,0.0,0.0,0.0,0.0,12.7,0.0,0.0,0.0,0.0,0.0,0.0,0.0,0.0,0.0,0.0,17.0,0.0,0.0,0.0,80.2
Itaetê,EBDA,Itaetê,Itaetê - EBDA,-12.984669,-40.984455,Chapada Diamantina,RPGA do Rio Paraguaçu,0.0,0.0,5.9,0.0,0.0,0.0,0.0,0.0,9.7,0.0,0.0,0.0,0.0,0.0,0.0,7.0,0.0,0.0,0.0,0.0,7.5,1.5,0.0,0.0,0.0,0.0,0.0,0.0,0.0,0.0,0.0,31.6
Marcionílio Souza,EBDA,Marcionílio Souza,Marcionílio Souza - EBDA,-13.001338,-40.534443,Chapada Diamantina,RPGA do Rio Paraguaçu,0.0,0.0,9.0,0.0,0.0,0.0,0.0,0.0,0.0,0.0,0.0,0.0,0.0,0.0,0.0,5.0,0.0,0.0,0.0,0.0,1.0,0.0,0.0,0.0,0.0,0.0,0.0,0.0,0.0,0.0,0.0,15.0
Ruy Barbosa,EBDA,Ruy Barbosa,Ruy Barbosa - EBDA,-12.284657,-40.501107,Chapada Diamantina,RPGA do Rio Paraguaçu,0.0,0.0,6.0,7.0,0.0,0.0,0.0,0.0,0.0,0.0,0.0,0.0,20.0,0.0,0.0,10.0,0.0,0.0,0.0,0.0,0.0,0.0,5.0,0.0,0.0,0.0,0.0,0.0,0.0,0.0,0.0,48.0
Utinga,EBDA,Utinga,Utinga - EBDA,-12.08465,-41.101122,Chapada Diamantina,RPGA do Rio Paraguaçu,0.0,0.0,1.0,0.0,0.0,0.0,0.0,0.0,7.5,0.0,0.0,0.0,0.0,0.0,0.0,0.0,12.5,0.0,0.0,0.0,0.0,0.0,0.0,0.0,0.0,0.0,0.0,0.0,0.0,0.0,0.0,21.0
Barra da Estiva,EBDA,Barra da Estiva,Barra da Estiva - EBDA,-13.63468,-41.334467,Chapada Diamantina,RPGA do Rio de Contas,1.6,0.0,0.0,0.0,0.0,6.1,0.0,0.0,0.0,0.0,0.0,0.0,0.0,0.0,0.0,0.0,0.0,0.0,0.0,0.0,0.0,0.0,0.0,0.0,0.0,0.0,0.0,0.0,1.6,0.0,0.0,9.3
Itaetê,,Itaetê,Itaetê,-12.981335,-40.951122,Chapada Diamantina,RPGA do Rio Paraguaçu,0.0,0.0,0.0,6.0,0.0,0.0,0.0,0.0,0.0,7.0,0.0,0.0,0.0,0.0,0.0,0.0,6.0,0.0,0.0,0.0,0.0,3.0,1.0,0.0,0.0,0.0,0.0,0.0,0.0,0.0,0.0,23.0
Baixa Grande,EBDA,Baixa Grande,Baixa Grande - EBDA,-11.951317,-40.167762,Chapada Diamantina,RPGA do Rio Paraguaçu,0.0,40.0,40.0,0.0,90.0,0.0,0.0,0.0,0.0,0.0,0.0,0.0,0.0,47.0,0.0,0.0,0.0,0.0,0.0,0.0,0.0,0.0,0.0,0.0,0.0,0.0,0.0,0.0,0.0,0.0,0.0,217.0
Mairi,EBDA,Mairi,Mairi - EBDA,-11.717981,-40.151095,Chapada Diamantina,RPGA do Rio Paraguaçu,23.0,0.0,0.0,24.0,6.0,0.0,0.0,0.0,0.0,0.0,4.0,0.0,0.0,4.0,0.0,0.0,0.0,0.0,0.0,0.0,0.0,0.0,0.0,0.0,0.0,0.0,0.0,0.0,0.0,0.0,0.0,61.0
Morro do Chapéu,EBDA,Morro do Chapéu,Morro do Chapéu - EBDA,-11.551305,-41.151119,Chapada Diamantina,RPGA do Rio Paraguaçu,10.0,0.0,0.0,0.0,0.0,0.0,0.0,0.0,0.0,0.0,0.0,0.0,0.0,0.0,0.0,0.0,0.0,0.0,0.0,0.0,0.0,0.0,0.0,0.0,0.0,0.0,0.0,0.0,0.0,0.0,0.0,10.0
Mundo Novo,EBDA,Mundo Novo,Mundo Novo - EBDA,-11.851314,-40.46777,Chapada Diamantina,RPGA do Rio Paraguaçu,0.0,0.0,0.0,0.0,0.0,15.0,0.0,0.0,0.0,0.0,70.0,0.0,0.0,0.0,0.0,0.0,0.0,22.5,0.0,0.0,0.0,0.0,0.0,0.0,0.0,0.0,0.0,0.0,0.0,0.0,0.0,107.5
Piritiba,EBDA,Piritiba,Piritiba - EBDA,-11.751314,-40.551104,Chapada Diamantina,RPGA do Rio Paraguaçu,0.0,0.0,0.0,0.0,0.0,0.0,0.0,0.0,0.0,0.0,0.0,0.0,0.0,0.0,0.0,0.0,0.0,0.0,0.0,0.0,0.0,0.0,0.0,0.0,0.0,0.0,0.0,0.0,0.0,0.0,0.0,0.0
Itaberaba,A408,Itaberaba,Itaberaba - A408,-12.524062,-40.299714,Chapada Diamantina,RPGA do Rio Paraguaçu,0.0,0.0,2.4,21.2,5.0,0.2,0.0,0.0,1.2,0.4,0.0,0.0,0.0,0.0,1.4,0.0,11.8,0.2,0.6,0.0,0.0,0.0,0.0,0.0,0.0,0.0,0.0,5.0,0.0,0.0,0.0,49.4
Barra do Mendes,EBDA,Barra do Mendes,Barra do Mendes - EBDA,-11.817975,-42.06781,Chapada Diamantina,RPGA dos Rios Verde e Jacaré,0.0,0.0,0.0,0.0,0.0,31.0,4.0,4.0,0.0,0.0,0.0,16.5,6.0,0.0,0.0,20.0,0.0,0.0,0.0,0.0,0.0,0.0,0.0,0.0,0.0,0.0,0.0,0.0,0.0,0.0,0.0,81.5
Cafarnaum,EBDA,Cafarnaum,Cafarnaum - EBDA,-11.684641,-41.484462,Chapada Diamantina,RPGA dos Rios Verde e Jacaré,0.0,0.0,0.0,0.0,0.7,12.5,2.5,0.0,0.0,0.0,0.0,0.0,54.0,0.0,0.0,0.0,3.5,0.0,0.0,0.0,0.0,0.0,0.0,0.0,0.0,0.0,0.0,0.0,0.0,0.0,0.0,73.2
Canarana,EBDA,Canarana,Canarana - EBDA,-11.684641,-41.751137,Chapada Diamantina,RPGA dos Rios Verde e Jacaré,0.0,0.0,0.0,0.0,0.0,2.8,13.5,0.0,7.9,0.0,0.0,0.0,13.0,0.0,0.0,0.0,17.5,0.0,0.0,0.0,0.0,0.0,0.0,0.0,0.0,0.0,0.0,0.0,0.0,0.0,0.0,54.7
Andaraí,EBDA,Andaraí,Andaraí - EBDA,-12.801332,-41.317795,Chapada Diamantina,RPGA do Rio Paraguaçu,0.0,0.0,0.0,14.0,0.0,5.0,0.0,0.0,0.0,0.0,0.0,0.0,89.0,0.0,0.0,0.0,0.0,0.0,0.0,0.0,0.0,0.0,0.0,0.0,0.0,0.0,0.0,0.0,0.0,0.0,0.0,108.0
Iraquara,EBDA,Iraquara,Iraquara - EBDA,-12.234651,-41.617801,Chapada Diamantina,RPGA do Rio Paraguaçu,6.7,0.0,0.0,0.4,0.0,0.0,0.0,0.0,0.0,0.0,0.0,0.0,45.1,0.0,0.0,0.0,0.0,0.0,0.0,0.0,0.0,0.0,0.0,0.0,0.0,0.0,0.0,0.0,0.0,0.0,0.0,52.2
Mucugê,EBDA,Mucugê,Mucugê - EBDA,-13.001335,-41.367798,Chapada Diamantina,RPGA do Rio Paraguaçu,0.0,0.0,0.0,0.0,0.0,0.0,0.0,3.1,0.0,16.3,0.0,0.0,0.0,78.0,0.1,0.0,1.6,5.0,5.6,0.1,0.0,0.0,1.6,0.0,0.0,0.0,0.0,0.0,0.0,0.0,0.0,111.4
Piatã,EBDA,Piatã,Piatã - EBDA,-13.201338,-41.751143,Chapada Diamantina,RPGA do Rio de Contas,0.0,0.0,23.9,0.0,0.0,0.0,19.4,0.0,0.0,0.0,0.0,0.0,0.0,0.0,0.0,0.0,0.0,0.0,0.0,0.0,0.0,0.0,0.0,0.0,0.0,0.0,0.0,0.0,0.0,0.0,0.0,43.3
Seabra,EBDA,Seabra,Seabra - EBDA,-12.417987,-41.767806,Chapada Diamantina,RPGA do Rio Paraguaçu,24.0,0.0,0.0,0.0,0.0,0.0,0.0,0.0,0.0,0.0,0.0,0.0,0.0,0.0,0.0,0.0,0.0,0.0,0.0,0.0,0.0,0.0,0.0,0.0,0.0,0.0,0.0,0.0,0.0,0.0,0.0,24.0
Livramento do Brumado,EBDA,Livramento do Brumado,Livramento do Brumado - EBDA,-13.651344,-41.834479,Chapada Diamantina,RPGA do Rio de Contas,25.6,0.1,0.0,0.0,0.0,0.0,0.0,0.0,0.0,0.0,1.3,0.0,3.4,0.0,0.0,0.0,0.0,0.0,0.0,0.0,0.0,0.0,0.0,0.0,0.0,0.0,0.0,0.0,0.0,0.0,0.0,30.41
Itaberaba,83244,Itaberaba,Itaberaba - 83244,-12.516667,-40.283333,Chapada Diamantina,RPGA do Rio Paraguaçu,0.0,0.0,2.4,22.2,4.8,0.0,0.0,0.0,1.3,0.2,0.0,0.0,0.0,0.0,1.1,0.0,11.3,0.1,0.5,0.0,0.0,0.0,0.0,0.0,0.0,0.0,0.0,4.5,0.0,0.0,0.0,48.4
Lençóis,83242,Lençóis,Lençóis - 83242,-12.5575,-41.388889,Chapada Diamantina,RPGA do Rio Paraguaçu,0.7,0.0,0.0,5.1,1.8,0.0,0.0,0.0,0.1,7.2,0.0,4.0,0.0,25.7,0.9,0.0,10.2,0.0,0.0,0.0,0.0,0.0,4.3,0.0,0.0,0.0,0.0,0.0,0.1,0.0,0.0,60.1
Morro do Chapéu,83184,Morro do Chapéu,Morro do Chapéu - 83184,-11.216667,-41.216667,Chapada Diamantina,RPGA do Rio Salitre,10.0,0.0,0.0,0.3,0.0,0.0,0.0,0.0,5.4,7.9,0.0,0.0,0.0,9.4,0.0,0.0,12.2,0.0,0.3,0.0,0.0,0.0,0.0,0.0,0.0,0.0,0.0,0.0,0.0,0.4,0.0,45.9
Piatã,A430,Piatã,Piatã - A430,-13.155681,-41.774125,Chapada Diamantina,RPGA do Rio de Contas,0.0,0.4,1.0,11.4,0.0,1.6,14.2,0.0,0.0,1.6,0.0,0.2,15.4,5.6,0.0,0.0,3.4,1.4,0.0,19.2,0.0,0.0,0.0,0.0,0.0,0.0,0.0,0.0,0.0,0.0,0.0,75.4
Lençóis,A425,Lençóis,Lençóis - A425,-12.557854,-41.388808,Chapada Diamantina,RPGA do Rio Paraguaçu,0.8,0.0,0.0,5.4,1.8,0.0,0.0,0.0,0.0,7.6,0.0,3.8,0.0,26.8,0.8,0.0,9.8,0.2,0.0,0.0,0.0,0.0,4.6,0.0,0.0,0.0,0.0,0.0,0.0,0.0,0.0,61.6
Lagoa Bonita,PG-PR-15,Iacú,Iacú (Lagoa Bonita) - PG-PR-15,-12.931506,-40.226468,Chapada Diamantina,RPGA do Rio Paraguaçu,0.0,0.25,1.0,0.0,1.5,0.0,0.0,0.0,2.0,0.75,0.0,1.75,0.0,2.0,3.0,0.0,2.75,0.0,0.0,0.0,0.0,0.0,0.25,0.5,0.0,0.0,0.0,0.0,0.0,0.0,0.5,16.25
João Amaro,PG-PR-16,Iaçu,Iaçu (João Amaro) - PG-PR-16,-12.800391,-40.363139,Chapada Diamantina,RPGA do Rio Paraguaçu,18.0,2.25,1.25,8.75,0.0,2.0,2.5,10.5,1.75,0.5,0.0,19.0,1.5,0.0,5.25,0.5,2.5,0.0,0.0,0.0,0.0,12.25,0.0,0.5,18.5,11.25,0.0,1.75,1.5,0.0,0.0,122.0
Wagner,PG-PR-22,Wagner,Wagner - PG-PR-22,-12.289538,-41.161774,Chapada Diamantina,RPGA do Rio Paraguaçu,9.5,0.0,0.0,12.75,0.0,0.0,0.0,8.5,0.25,6.25,0.0,0.0,0.0,1.5,0.0,0.0,19.5,0.0,0.0,0.0,0.0,0.0,0.0,0.0,0.0,0.0,0.0,0.25,0.0,0.0,0.0,58.5
Utinga,PG-PR-23,Utinga,Utinga - PG-PR-23,-12.030089,-41.058714,Chapada Diamantina,RPGA do Rio Paraguaçu,0.75,0.0,0.0,4.25,0.0,0.0,0.0,0.0,2.5,3.5,1.5,0.0,0.0,0.25,0.0,0.0,22.25,0.0,0.0,0.0,0.0,0.0,0.0,0.0,0.0,0.0,0.25,0.25,0.75,0.0,0.0,36.25
Guiné,PG-PR-24,Mucugê,Mucugê (Guiné) - PG-PR-24,-12.771772,-41.540679,Chapada Diamantina,RPGA do Rio Paraguaçu,36.5,0.25,0.0,2.25,0.0,0.0,0.25,0.25,4.5,0.0,0.0,0.0,0.0,29.0,0.0,0.0,3.5,0.25,8.5,3.5,0.0,0.0,0.0,0.0,0.0,0.0,0.0,0.0,0.0,0.25,0.0,89.0
Cascavel,PG-PR-27,Mucugê,Mucugê (Cascavel) - PG-PR-27,-13.285954,-41.287619,Chapada Diamantina,RPGA do Rio Paraguaçu,0.0,0.25,14.0,0.5,0.0,0.5,0.0,0.0,0.0,0.0,0.0,0.0,1.0,3.25,0.25,0.0,0.0,0.0,0.5,0.0,0.0,0.0,0.0,0.0,0.0,0.0,0.0,0.0,0.25,0.0,0.0,20.5
Barro Alto,,Barro Alto,Barro Alto,-11.769188,-41.909464,Chapada Diamantina,RPGA dos Rios Verde e Jacaré,0.0,0.0,0.0,0.0,0.0,0.0,0.25,3.25,1.25,0.0,0.0,0.0,0.25,0.75,0.0,0.0,1.25,0.0,0.0,0.0,0.0,0.0,0.0,0.0,0.0,0.0,0.0,0.0,0.0,0.0,0.0,7.0
Olho D'Água do Francisco,,Olho D'Água do Francisco,Olho D'Água do Francisco,-12.307034,-42.079028,Chapada Diamantina,RPGA dos Rios Verde e Jacaré,0.0,0.0,0.0,0.25,0.0,0.0,0.0,0.0,0.25,0.0,0.0,0.0,0.0,21.5,0.0,0.0,2.25,0.0,0.0,0.0,0.0,0.0,0.0,0.0,0.0,0.0,0.0,0.0,0.0,0.0,0.0,24.25
América Dourada,,América Dourada,América Dourada,-11.464848,-41.442615,Chapada Diamantina,RPGA dos Rios Verde e Jacaré,20.25,0.25,0.0,0.0,0.0,0.75,1.5,37.75,2.25,1.25,0.0,0.0,0.0,29.0,0.0,0.0,6.0,0.0,0.0,0.0,0.0,0.0,0.0,0.0,0.0,0.0,0.0,0.0,0.0,0.0,0.0,99.0
Cafarnaum,,Cafarnaum,Cafarnaum,-11.676688,-41.470143,Chapada Diamantina,RPGA dos Rios Verde e Jacaré,45.0,0.0,0.0,0.0,0.0,0.25,9.5,1.25,1.75,0.25,0.0,0.0,0.0,28.0,0.0,0.0,2.25,0.0,0.0,0.0,0.0,0.0,0.0,0.0,0.0,0.0,0.0,0.0,0.0,0.0,0.0,88.25
Ibiaporã,PG-CL-01,Mundo Novo,Mundo Novo (Ibiaporã) - PG-CL-01,-12.05379,-40.83722,Chapada Diamantina,RPGA do Rio Paraguaçu,0.0,0.0,0.0,0.0,0.0,0.0,0.0,0.0,15.5,3.0,2.75,0.25,0.0,6.75,0.0,0.0,19.75,0.25,0.0,0.0,0.0,0.0,0.0,0.0,0.0,0.0,0.0,6.75,0.25,0.0,0.0,55.25
Marcionílio Souza,PG-CL-03,Marcionílio Souza,Marcionílio Souza - PG-CL-03,-13.00021,-40.537783,Chapada Diamantina,RPGA do Rio Paraguaçu,0.0,1.2,1.8,0.9,3.0,0.6,5.0,1.5,0.9,0.0,2.7,7.4,11.2,0.4,0.0,0.0,0.8,0.0,0.0,0.0,4.4,6.0,0.0,0.0,0.0,0.7,0.6,0.0,0.0,0.0,0.1,49.2
Iraquara,PG-PR-02,Iraquara,Iraquara - PG-PR-02,-12.255093,-41.61679,Chapada Diamantina,RPGA do Rio Paraguaçu,6.75,0.0,0.0,0.0,0.5,0.0,0.0,0.0,1.0,0.5,0.0,0.0,0.0,45.25,0.25,0.0,11.0,0.5,0.0,0.0,0.0,0.0,0.0,0.0,0.0,0.0,0.0,1.0,0.0,0.0,0.0,66.75
Piritiba,PG-PR-07,Piritiba,Piritiba - PG-PR-07,-11.733137,-40.562306,Chapada Diamantina,RPGA do Rio Paraguaçu,2.25,0.0,0.0,3.5,0.0,0.0,0.0,0.0,7.25,0.25,0.0,0.0,0.0,0.5,0.0,0.0,6.0,0.75,0.0,0.0,2.5,1.0,0.0,0.0,0.0,0.0,0.0,0.0,0.0,0.0,0.0,24.0
Tapiramutá,PG-PR-09,Tapiramutá,Tapiramutá - PG-PR-09,-11.838502,-40.791761,Chapada Diamantina,RPGA do Rio Paraguaçu,4.0,0.0,0.0,0.75,0.0,0.0,0.0,0.0,0.75,1.25,0.5,0.25,0.0,0.5,0.0,0.0,18.0,0.0,0.0,0.0,0.0,0.0,0.0,0.0,0.0,0.0,0.0,0.0,0.0,0.75,0.0,26.75
Bonito,PG-PR-11,Bonito,Bonito - PG-PR-11,-11.98993,-41.25429,Chapada Diamantina,RPGA do Rio Paraguaçu,11.0,0.0,0.0,10.75,0.0,0.0,0.0,0.0,3.75,26.75,0.25,0.0,0.0,9.75,0.0,0.0,34.0,0.0,0.0,0.0,0.0,0.0,0.0,0.0,0.0,0.0,0.0,0.0,0.25,0.5,0.25,97.25
Piatã,CO-CL-04,Piatã,Piatã - CO-CL-04,-13.164166,-41.770833,Chapada Diamantina,RPGA do Rio de Contas,0.0,0.0,3.5,4.25,0.0,5.25,21.5,0.0,0.0,0.75,0.0,0.0,15.0,0.25,0.0,0.0,2.75,0.75,0.0,1.25,0.0,0.0,0.0,0.0,0.0,0.0,0.0,0.0,0.0,0.0,0.0,55.25
Souto Soares,PG-CL-04,Souto Soares,Souto Soares - PG-CL-04,-12.08538,-41.64815,Chapada Diamantina,RPGA do Rio Paraguaçu,0.25,1.75,0.0,0.0,0.0,0.0,0.0,2.0,2.0,0.25,0.0,0.0,0.25,8.75,1.25,0.0,11.5,0.0,0.0,0.0,0.0,0.5,0.0,0.0,0.0,0.0,0.0,0.0,0.25,0.0,0.0,28.75
Palmeiras,EBDA,Palmeiras,Palmeiras - EBDA,-12.46799,-41.617801,Chapada Diamantina,RPGA do Rio Paraguaçu,13.0,0.0,1.0,0.0,0.0,0.0,0.0,0.0,0.0,0.0,0.0,33.0,0.0,0.0,0.0,0.0,0.0,0.0,0.0,0.0,0.0,0.0,0.0,0.0,0.0,0.0,0.0,0.0,0.0,0.0,0.0,47.0
Jeremoabo,EBDA,Jeremoabo,Jeremoabo - EBDA,-10.067951,-38.351041,Nordeste,RPGA do Rio Vaza-Barris,0.0,0.0,0.0,0.0,0.0,0.0,0.0,0.0,1.6,0.0,0.0,0.0,4.0,0.0,0.0,0.0,8.8,0.0,0.0,0.0,0.8,0.0,0.0,0.0,0.0,0.0,0.0,0.0,0.0,0.0,0.0,15.21
Coronel João Sá,EBDA,Coronel João Sá,Coronel João Sá - EBDA,-10.284624,-37.917698,Nordeste,RPGA do Rio Vaza-Barris,0.0,0.0,0.0,0.0,0.0,0.0,0.0,0.0,0.0,0.0,0.0,0.0,0.0,0.0,0.0,0.0,0.0,0.0,0.0,0.0,0.0,0.0,0.0,0.0,0.0,0.0,0.0,0.0,0.0,0.0,0.0,0.0
Abaré,EBDA,Abaré,Abaré - EBDA,-8.71792,-39.117725,Nordeste,RPGA dos Rios Macururé e Curaçá,0.0,0.0,0.0,0.0,0.0,0.0,0.0,0.0,0.0,0.0,0.0,0.0,0.0,0.0,0.0,0.0,0.0,0.0,0.0,0.0,0.0,0.0,0.0,0.0,0.0,0.0,0.0,0.0,0.0,0.0,0.0,0.0
Chorrochó,EBDA,Chorrochó,Chorrochó - EBDA,-8.984593,-39.101059,Nordeste,RPGA dos Rios Macururé e Curaçá,0.0,0.0,0.0,0.0,0.0,0.0,0.0,0.0,0.0,0.0,0.0,0.0,0.0,0.0,0.0,0.0,0.0,0.0,0.0,0.0,0.0,0.0,0.0,0.0,0.0,0.0,0.0,0.0,0.0,0.0,0.0,0.0
Rodelas,EBDA,Rodelas,Rodelas - EBDA,-8.83459,-38.751049,Nordeste,RPGA dos Rios Macururé e Curaçá,0.0,0.0,0.0,0.0,0.0,0.0,0.0,0.0,0.0,0.0,0.0,0.0,0.0,0.0,0.0,0.0,0.0,0.0,0.0,0.0,0.0,0.0,0.0,0.0,0.0,0.0,0.0,0.0,0.0,0.0,0.0,0.0
Macururé,EBDA,Macururé,Macururé - EBDA,-9.16793,-39.051056,Nordeste,RPGA dos Rios Macururé e Curaçá,0.0,0.0,0.0,0.0,0.0,0.0,0.0,0.0,0.0,0.0,0.0,0.0,0.0,0.0,0.0,0.0,0.0,0.0,0.0,0.0,0.0,0.0,0.0,0.0,0.0,0.0,0.0,0.0,0.0,0.0,0.0,0.0
Curaçá,EBDA,Curaçá,Curaçá - EBDA,-8.98459,-39.90108,Nordeste,RPGA dos Rios Macururé e Curaçá,0.0,34.0,0.0,0.0,0.0,0.0,6.7,0.0,0.0,0.0,6.7,0.0,0.0,0.0,0.0,0.0,0.0,0.0,0.0,0.0,0.0,0.0,0.0,0.0,0.0,0.0,0.0,0.0,0.0,0.0,0.0,47.41
Água Fria,EBDA,Água Fria,Água Fria - EBDA,-11.784653,-38.751059,Nordeste,RPGA do Recôncavo Norte,0.0,0.0,0.0,0.0,0.0,0.0,0.0,0.0,0.0,0.0,0.0,0.0,0.0,0.0,0.0,0.0,0.0,0.0,0.0,0.0,0.0,0.0,0.0,0.0,0.0,0.0,0.0,0.0,0.0,0.0,0.0,0.0
Jacobina,EBDA,Jacobina,Jacobina - EBDA,-11.167968,-40.501101,Nordeste,RPGA do Rio Itapicuru,0.0,0.0,3.0,20.0,0.0,0.0,7.0,5.0,0.0,0.0,0.0,32.0,0.0,0.0,0.0,11.0,0.0,0.0,0.0,0.0,0.0,0.0,0.0,0.0,0.0,0.0,0.0,0.0,0.0,0.0,0.0,78.0
Banzaê,EBDA,Banzaê,Banzaê - EBDA,-10.584629,-38.617717,Nordeste,RPGA do Rio Itapicuru,13.3,9.0,0.0,0.0,8.0,0.0,0.0,2.8,0.0,0.0,0.0,0.0,19.2,0.0,0.0,1.7,0.0,0.0,0.0,5.7,9.1,7.0,0.0,0.0,0.0,0.0,0.0,4.8,0.0,0.0,6.4,87.0
Miguel Calmon,EBDA,Miguel Calmon,Miguel Calmon - EBDA,-11.417972,-40.584438,Nordeste,RPGA do Rio Itapicuru,21.0,0.0,1.7,0.0,21.0,0.0,0.0,0.0,0.0,0.0,4.0,0.0,0.0,0.0,0.0,0.0,15.5,0.0,0.0,0.0,0.0,0.0,0.0,0.0,0.0,0.0,1.3,0.0,0.0,0.0,0.0,64.5
Saúde,EBDA,Saúde,Saúde - EBDA,-10.934629,-40.417765,Nordeste,RPGA do Rio Itapicuru,0.0,12.0,0.0,0.0,20.0,0.0,0.0,0.0,0.0,0.0,7.0,0.0,0.0,32.0,0.0,0.0,0.0,0.0,0.0,0.0,0.0,0.0,0.0,8.0,0.0,13.0,0.0,0.0,0.0,0.0,0.0,92.0
Paulo Afonso,A411,Paulo Afonso,Paulo Afonso - A411,-9.379325,-38.227424,Nordeste,RPGA dos Rios Macururé e Curaçá,0.8,2.0,0.0,0.0,31.6,0.0,0.0,0.0,0.0,0.0,0.0,0.0,0.0,0.0,0.0,0.0,0.0,0.0,0.0,0.0,0.0,0.0,0.0,0.0,0.0,0.0,0.0,0.0,0.0,0.0,0.0,34.4
Cipó,83192,Cipó,Cipó - 83192,-11.083333,-38.516667,Nordeste,RPGA do Rio Itapicuru,0.0,0.0,0.0,0.0,0.0,5.0,0.0,1.1,0.7,0.1,0.0,0.0,0.0,0.1,0.0,0.0,15.1,0.0,0.0,0.0,0.0,0.0,0.0,0.0,0.0,0.0,0.0,12.3,0.5,0.1,0.0,35.0
Jacobina,83186,Jacobina,Jacobina - 83186,-11.172778,-40.534167,Nordeste,RPGA do Rio Itapicuru,18.4,0.0,0.0,3.2,11.4,0.0,0.0,0.0,5.0,0.0,0.0,0.0,3.5,2.0,0.0,0.0,15.0,0.0,0.0,0.0,0.0,0.5,1.9,0.0,0.0,0.0,0.0,0.0,1.5,0.0,0.0,62.4
Monte Santo,83090,Monte Santo,Monte Santo - 83090,-10.4425,-39.331111,Nordeste,RPGA do Rio Itapicuru,28.3,0.0,0.0,0.0,34.8,0.0,1.4,0.0,0.3,0.1,0.0,0.0,6.0,20.6,0.0,0.0,11.6,0.0,0.0,0.0,2.1,0.1,0.0,0.0,0.0,0.0,0.0,0.0,0.8,0.0,0.0,106.1
Paulo Afonso,82986,Paulo Afonso,Paulo Afonso - 82986,-9.379325,-38.227424,Nordeste,RPGA dos Rios Macururé e Curaçá,0.8,2.2,0.0,0.0,31.6,0.0,0.0,0.0,0.0,0.0,0.0,0.0,0.0,0.0,0.0,0.0,0.0,0.0,0.0,0.0,0.0,0.0,0.0,0.0,0.0,0.0,0.0,0.0,0.0,0.0,0.0,34.6
Senhor do Bonfim,83088,Senhor do Bonfim,Senhor do Bonfim - 83088,-10.490649,-40.100044,Nordeste,RPGA do Rio Itapicuru,0.0,32.2,0.0,0.0,4.2,0.0,0.0,0.0,17.0,0.0,0.0,0.0,0.0,38.0,0.0,0.0,3.9,0.0,0.0,0.0,3.6,0.0,0.0,0.0,0.0,0.0,0.0,0.3,1.8,0.6,0.0,101.6
Serrinha,83190,Serrinha,Serrinha - 83190,-11.633333,-38.966667,Nordeste,RPGA do Recôncavo Norte,3.5,0.0,0.6,0.3,0.2,0.2,0.0,0.0,0.0,1.0,0.0,0.9,0.0,11.1,0.4,0.0,0.5,0.0,0.0,0.0,0.6,53.4,12.1,0.0,0.0,0.0,0.0,3.0,0.5,0.0,0.0,88.3
Conde,A431,Conde,Conde - A431,-12.03622,-37.68322,Nordeste,RPGA do Rio Itapicuru,0.0,0.6,2.6,2.8,0.0,3.0,0.0,0.0,0.0,3.8,1.8,0.0,0.2,1.4,0.8,0.2,1.0,0.0,0.0,1.2,0.0,0.0,0.2,0.0,3.0,3.0,2.4,0.2,0.4,0.2,1.2,30.0
Uauá,A435,Uauá,Uauá - A435,-9.833617,-39.495631,Nordeste,RPGA do Rio Vaza-Barris,0.4,44.4,0.2,1.2,0.0,0.0,18.4,0.0,0.0,0.0,0.0,6.6,5.8,3.0,0.0,0.0,7.4,0.0,0.0,0.0,0.4,0.0,0.0,0.0,0.0,0.0,0.0,0.0,1.6,0.0,0.0,89.4
Euclides da Cunha,A442,Euclides da Cunha,Euclides da Cunha - A442,-10.537233,-38.996605,Nordeste,RPGA do Rio Itapicuru,13.0,2.8,0.4,4.4,0.0,2.0,0.0,0.0,0.0,0.0,0.0,0.2,20.6,0.0,0.0,0.0,1.6,0.0,0.0,0.0,0.0,2.0,0.0,0.0,0.0,0.0,0.0,0.0,3.2,0.2,0.0,50.41
Queimadas,A436,Queimadas,Queimadas - A436,-10.984645,-39.617009,Nordeste,RPGA do Rio Itapicuru,0.0,3.2,1.0,35.0,0.0,0.0,0.0,0.0,30.6,0.6,0.0,0.0,0.0,0.2,0.0,0.0,0.2,0.0,0.0,0.0,48.6,0.0,0.0,0.0,0.0,0.0,0.0,0.2,0.0,0.0,0.0,119.61
Jacobina,A440,Jacobina,Jacobina - A440,-11.205136,-40.464979,Nordeste,RPGA do Rio Itapicuru,2.0,1.4,0.0,3.0,33.6,0.0,9.8,0.0,11.0,5.4,0.0,0.0,3.0,0.2,0.4,0.0,12.2,0.0,0.0,0.0,1.4,0.0,0.0,0.0,0.0,0.0,0.0,0.0,5.0,0.0,0.0,88.41
Serrinha,A441,Serrinha,Serrinha - A441,-11.664586,-39.022946,Nordeste,RPGA do Rio Paraguaçu,20.2,0.0,1.4,0.4,1.2,0.0,0.4,0.0,0.0,0.0,0.0,2.2,0.2,15.0,0.0,0.0,1.0,0.0,0.0,0.0,0.4,26.0,6.0,0.0,0.0,0.0,0.0,4.8,0.4,0.0,0.0,79.6
Riachão do Jacuípe_EBDA,,Riachão do Jacuípe_EBDA,Riachão do Jacuípe_EBDA,-11.801317,-39.384408,Nordeste,RPGA do Rio Paraguaçu,0.0,0.0,0.0,0.0,6.0,0.0,0.0,0.0,0.0,0.0,0.0,0.0,0.0,0.0,0.0,0.0,0.0,0.0,0.0,0.0,0.0,0.0,0.0,0.0,0.0,0.0,0.0,0.0,6.0,0.0,0.0,12.0
Santa Bárbara,EBDA,Santa Bárbara,Santa Bárbara - EBDA,-11.984657,-38.984398,Nordeste,RPGA do Recôncavo Norte,0.0,0.0,0.0,0.0,0.0,0.0,0.0,0.0,0.0,0.0,0.0,0.0,0.0,0.0,0.0,0.0,0.0,0.0,0.0,0.0,21.0,0.0,0.0,0.0,0.0,0.0,28.0,0.0,0.0,0.0,0.0,49.0
EBDA Alagoinhas,EBDA,Itapicuru,Itapicuru (EBDA Alagoinhas) - EBDA,-11.317978,-38.217708,Nordeste,RPGA do Rio Itapicuru,0.0,0.0,0.0,0.0,0.0,0.0,0.0,0.0,0.0,0.0,0.0,0.0,0.0,0.0,0.0,0.0,0.0,0.0,0.0,0.0,0.0,0.0,0.0,0.0,0.0,0.0,0.0,0.0,0.0,0.0,0.0,0.0
Senhor do Bonfim,A428,Senhor do Bonfim,Senhor do Bonfim - A428,-10.443072,-40.148244,Nordeste,RPGA do Rio Itapicuru,0.8,30.0,0.0,0.0,4.0,0.0,0.0,0.0,15.2,0.0,0.0,0.0,0.0,12.4,0.0,0.0,3.6,0.0,0.0,0.0,3.8,0.0,0.0,0.0,0.0,0.0,0.0,0.4,2.2,0.6,0.0,73.0
Caém,EBDA,Caém,Caém - EBDA,-11.091855,-40.436378,Nordeste,RPGA do Rio Itapicuru,0.75,0.0,4.0,3.5,6.25,2.75,0.0,24.25,3.5,0.75,0.0,2.0,17.5,0.25,0.0,1.5,9.5,0.0,0.0,0.0,1.25,0.0,0.0,0.0,0.0,0.0,0.0,4.5,0.5,0.0,0.0,82.75
Capela do Alto Alegre,EBDA,Capela do Alto Alegre,Capela do Alto Alegre - EBDA,-11.669369,-39.838864,Nordeste,RPGA do Rio Paraguaçu,0.0,0.0,6.0,17.0,0.0,0.0,0.0,3.0,0.0,0.0,0.0,0.0,10.0,0.0,0.0,0.0,0.0,0.0,0.0,3.0,0.0,0.0,0.0,0.0,0.0,0.0,0.0,0.0,0.0,0.0,0.0,39.0
Cansanção,EBDA,Cansanção,Cansanção - EBDA,-10.66796,-39.501074,Nordeste,RPGA do Rio Itapicuru,21.8,0.0,0.0,0.0,0.0,0.0,0.0,0.0,0.0,0.0,0.0,0.0,15.4,12.6,0.0,0.0,0.0,0.0,0.0,0.0,0.0,0.0,0.0,0.0,0.0,0.0,0.0,0.0,0.2,0.0,0.0,50.01
Ipirá,PG-CL-02,Ipirá,Ipirá - PG-CL-02,-12.14986,-39.76454,Nordeste,RPGA do Rio Paraguaçu,0.3,1.8,5.6,0.7,7.3,3.4,6.7,5.9,0.4,0.0,1.6,6.2,14.6,0.2,0.0,0.0,5.8,0.0,0.1,0.2,5.8,0.0,0.0,0.0,0.0,0.0,0.3,0.4,0.0,0.0,0.0,67.31
Jacobina,DERBA,Jacobina,Jacobina - DERBA,-11.184635,-40.534435,Nordeste,RPGA do Rio Itapicuru,0.0,0.0,2.4,12.5,0.0,0.0,0.0,0.0,0.0,0.0,0.0,15.2,0.6,0.0,0.0,0.0,8.3,0.0,0.0,0.0,0.0,10.5,0.0,0.0,0.0,0.0,0.0,0.0,0.0,0.0,15.0,64.5
Senhor do Bonfim,DERBA,Senhor do Bonfim,Senhor do Bonfim - DERBA,-10.467954,-40.184425,Nordeste,RPGA do Rio Itapicuru,59.6,0.0,0.0,0.0,0.0,0.0,0.0,2.8,0.0,0.0,0.0,0.0,29.3,0.0,0.0,7.3,0.0,0.0,0.0,0.0,0.0,0.0,0.0,0.0,0.0,0.0,0.0,0.0,0.0,0.0,9.6,108.6
Valente,PG-PR-04,Valente,Valente - PG-PR-04,-11.40119,-39.458099,Nordeste,RPGA do Rio Paraguaçu,0.2,2.2,5.5,1.2,6.4,6.3,7.8,2.3,1.1,0.1,2.9,3.7,13.3,1.8,0.0,0.5,6.5,0.0,0.0,2.7,3.1,0.0,0.0,0.0,0.0,0.1,0.6,0.1,0.0,0.0,0.0,68.4
Tucano,EBDA,Tucano,Tucano - EBDA,-10.971302,-38.781056,Nordeste,RPGA do Rio Itapicuru,0.0,0.0,0.0,5.0,0.0,0.0,0.0,0.0,0.0,0.0,0.0,0.0,5.0,0.0,0.0,0.0,0.0,0.0,0.0,7.0,2.5,0.0,0.0,0.0,0.0,0.0,0.0,2.5,0.0,0.0,0.0,22.0
Itapeipu,IT-PR-34,Jacobina,Jacobina (Itapeipu) - IT-PR-34,-11.315629,-40.356742,Nordeste,RPGA do Rio Itapicuru,0.75,0.5,0.75,2.5,4.5,0.75,0.0,0.0,4.5,0.5,0.25,0.0,0.0,2.75,0.0,0.0,5.5,0.75,0.0,0.0,0.0,0.0,0.0,0.0,0.0,0.0,0.25,0.0,0.75,0.0,0.0,25.0
Caém,IT-PR-35,Caém,Caém - IT-PR-35,-11.093399,-40.437579,Nordeste,RPGA do Rio Itapicuru,0.75,0.25,0.75,3.25,9.75,0.0,2.75,0.0,24.25,4.25,0.0,0.0,2.0,17.75,0.0,0.0,11.0,0.0,0.0,0.0,0.0,1.25,0.0,0.0,0.0,0.0,0.0,0.0,5.0,0.0,0.0,83.0
Tombador Araújo,IT-PR-36,Jacobina,Jacobina (Tombador Araújo) - IT-PR-36,-11.168677,-40.670642,Nordeste,RPGA do Rio Itapicuru,0.5,0.25,1.75,0.75,0.0,0.0,0.0,0.0,17.25,0.25,0.0,0.0,0.0,12.75,0.0,0.0,11.0,0.0,0.0,0.0,0.0,0.0,0.0,0.0,0.0,0.0,0.0,0.0,0.0,0.0,0.0,44.5
Carrapichel,IT-PR-37,Senhor do Bonfim,Senhor do Bonfim (Carrapichel) - IT-PR-37,-10.388101,-40.220067,Nordeste,RPGA do Rio Itapicuru,2.25,14.5,2.75,0.0,0.0,0.0,0.0,0.0,1.0,1.75,0.0,0.0,0.0,28.75,0.0,0.0,3.25,0.25,0.0,0.0,0.25,0.0,0.0,0.0,0.0,0.0,0.0,0.0,0.0,0.5,0.0,55.25
Riacho da Onça,IT-PR-15,Queimadas,Queimadas (Riacho da Onça) - IT-PR-15,-11.24424,-39.790055,Nordeste,RPGA do Rio Itapicuru,1.25,0.25,10.75,0.25,0.0,0.0,0.0,6.5,13.5,0.0,0.0,0.0,0.0,2.25,0.0,0.0,0.0,0.0,0.0,0.0,0.0,2.75,0.0,0.0,0.0,0.0,0.0,1.5,0.75,0.0,0.0,39.75
Povoado Rio do Peixe,IT-PR-16,Queimadas,Queimadas (Povoado Rio do Peixe) - IT-PR-16,-11.097292,-39.524491,Nordeste,RPGA do Rio Itapicuru,0.5,5.0,8.5,0.0,1.25,0.0,0.0,0.0,19.0,0.25,0.0,0.0,1.25,6.5,0.0,0.0,0.0,0.0,0.0,0.0,7.25,20.5,0.0,0.0,0.0,0.0,0.0,0.0,0.25,0.0,0.0,70.25
Santaluz,IT-PR-17,Santaluz,Santaluz - IT-PR-17,-11.24831,-39.37563,Nordeste,RPGA do Rio Itapicuru,1.25,0.5,0.0,0.25,0.0,0.0,5.75,0.0,21.25,0.0,0.0,0.0,3.25,0.25,0.0,0.0,1.75,0.0,0.0,0.0,0.0,0.0,0.0,9.5,0.0,0.0,0.0,13.5,0.0,0.0,0.0,57.25
Ambrósio,IT-PR-19,Cansanção,Cansanção (Ambrósio) - IT-PR-19,-10.986458,-39.237813,Nordeste,RPGA do Rio Itapicuru,1.5,0.75,0.0,3.75,0.0,0.0,0.0,0.0,0.5,0.0,0.0,0.0,21.75,0.0,0.0,0.0,0.0,0.0,0.0,0.0,0.75,4.25,0.0,0.0,0.0,0.0,0.0,0.25,1.25,0.0,0.0,34.75
Cansanção,IT-PR-20,Cansanção,Cansanção - IT-PR-20,-10.702836,-39.543932,Nordeste,RPGA do Rio Itapicuru,0.0,4.75,0.0,0.75,0.0,0.0,0.0,0.0,23.5,0.0,0.0,0.0,0.0,9.5,0.0,0.0,1.0,0.25,0.0,0.0,0.0,4.75,0.0,0.0,0.0,0.0,0.0,0.0,1.0,0.0,0.0,45.5
Açude Monteiro,IT-PR-23,Nordestina,Nordestina (Açude Monteiro) - IT-PR-23,-10.77645,-39.559491,Nordeste,RPGA do Rio Itapicuru,4.25,15.5,5.5,13.5,0.0,0.0,0.0,0.0,1.0,0.0,0.0,0.0,0.5,3.25,0.0,0.0,0.0,0.0,0.0,0.0,0.0,3.5,0.0,0.0,0.0,0.0,0.0,0.0,1.0,0.0,0.0,48.0
Pedra Vermelha,IT-PR-24,Monte Santo,Monte Santo (Pedra Vermelha) - IT-PR-24,-10.454497,-39.559488,Nordeste,RPGA do Rio Itapicuru,18.75,0.25,0.0,0.0,0.0,0.0,0.75,0.0,8.0,0.0,0.0,0.0,7.5,31.5,0.0,0.0,0.75,0.0,0.0,0.0,2.25,1.5,0.0,0.0,0.0,0.0,0.0,0.0,0.25,0.25,0.0,71.75
Quijingue,IT-PR-25,Quijingue,Quijingue - IT-PR-25,-10.783951,-39.20809,Nordeste,RPGA do Rio Itapicuru,36.75,5.5,16.75,0.5,0.0,0.0,0.0,0.0,0.5,0.0,0.0,0.0,3.25,4.5,0.0,0.0,0.25,0.0,0.0,0.0,0.75,0.0,0.0,0.0,0.0,0.0,0.0,0.0,3.25,0.0,0.0,72.0
Umbuzeiro,IT-PR-32,Olindina,Olindina (Umbuzeiro) - IT-PR-32,-11.454252,-38.455844,Nordeste,RPGA do Rio Itapicuru,0.0,0.0,0.0,0.0,0.0,24.25,2.25,0.0,0.0,9.25,0.0,0.0,0.0,0.25,0.0,0.0,2.5,0.0,0.0,0.0,0.0,0.0,0.0,0.0,0.0,0.0,0.0,8.25,0.0,0.0,0.0,46.75
Curral Falso,IT-PR-01,Ribeira do Pombal,Ribeira do Pombal (Curral Falso) - IT-PR-01,-10.697843,-38.5714,Nordeste,RPGA do Rio Itapicuru,20.25,0.0,6.0,0.0,6.0,7.5,0.0,10.75,8.5,5.75,0.0,0.0,0.0,7.0,0.0,0.0,2.5,0.0,0.0,0.0,25.25,1.5,0.0,0.0,0.0,0.0,0.0,0.0,0.75,0.0,0.0,101.75
Aribicé,IT-PR-02,Euclides da Cunha,Euclides da Cunha (Aribicé) - IT-PR-02,-10.557835,-38.793352,Nordeste,RPGA do Rio Itapicuru,15.0,3.5,3.75,0.0,0.0,2.5,0.0,0.0,0.0,0.0,0.0,0.0,0.0,9.5,0.0,0.0,3.0,0.0,0.0,0.0,0.0,2.5,0.0,0.0,0.0,0.0,0.0,0.0,6.75,0.0,0.0,46.5
Ribeira do Pombal,IT-PR-04,Ribeira do Pombal,Ribeira do Pombal - IT-PR-04,-10.823399,-38.545844,Nordeste,RPGA do Rio Itapicuru,0.5,0.0,0.0,0.0,1.5,12.75,0.0,0.0,8.0,0.0,0.0,0.0,0.5,0.25,0.0,0.0,0.25,0.0,0.0,0.0,0.25,0.75,0.0,0.0,0.0,0.0,0.0,0.0,1.75,0.0,0.0,26.5
Fazenda Santo Antônio,IT-PR-06,Euclides da Cunha,Euclides da Cunha (Fazenda Santo Antônio) - IT-PR-06,-10.405331,-39.045582,Nordeste,RPGA do Rio Itapicuru,2.5,26.5,0.0,0.25,5.75,0.5,0.0,0.0,0.0,0.0,0.0,0.0,10.75,17.5,0.5,0.0,7.25,0.0,0.0,0.0,0.0,5.25,0.0,0.0,0.0,0.0,0.0,0.0,1.25,0.0,0.0,78.0
Fazenda Laranjeiras III,IT-PR-09,Araci,Araci (Fazenda Laranjeiras III) - IT-PR-09,-11.334248,-38.968638,Nordeste,RPGA do Rio Itapicuru,7.25,0.0,0.0,0.0,0.0,0.0,0.0,0.0,0.0,0.0,0.0,0.0,8.0,5.25,0.25,0.0,0.0,0.0,0.0,0.0,0.0,9.5,0.0,0.0,0.0,0.0,0.0,5.25,0.25,0.0,0.0,35.75
Estação Experimental,IT-PR-10,Nova Soure,Nova Soure (Estação Experimental) - IT-PR-10,-11.3083,-38.5361,Nordeste,RPGA do Rio Itapicuru,0.0,0.0,0.0,0.0,1.25,5.25,0.0,0.0,0.0,0.25,0.0,0.0,0.0,0.75,0.0,0.0,10.25,0.0,0.0,0.0,0.0,0.0,0.0,0.0,0.0,0.0,0.0,1.25,0.0,0.0,0.0,19.0
Olindina,IT-PR-11,Olindina,Olindina - IT-PR-11,-11.343693,-38.318892,Nordeste,RPGA do Rio Itapicuru,0.0,0.0,0.0,0.0,0.0,0.0,2.0,0.0,0.0,0.0,0.0,0.0,0.25,0.0,0.0,0.0,6.75,0.0,0.0,0.0,0.0,0.0,0.0,0.0,0.0,0.0,0.0,10.75,0.0,0.0,0.0,19.75
Itapicuru,IT-PR-12,Itapicuru,Itapicuru - IT-PR-12,-11.321193,-38.225003,Nordeste,RPGA do Rio Itapicuru,0.0,0.25,0.0,0.0,0.0,0.0,23.0,0.0,0.0,0.0,0.0,0.75,0.0,0.0,0.0,0.0,8.75,0.0,0.0,0.0,0.0,0.0,0.0,0.0,0.0,0.0,0.0,5.0,0.0,0.0,0.0,37.75
Boa Hora,IT-PR-13,Ribeira do Amparo,Ribeira do Amparo (Boa Hora) - IT-PR-13,-10.965,-38.5234,Nordeste,RPGA do Rio Itapicuru,0.0,0.0,0.0,0.0,23.75,2.0,0.5,0.5,0.5,3.75,1.5,0.25,0.5,0.25,0.25,0.5,16.75,0.0,0.25,0.75,6.5,0.75,0.25,0.25,0.0,0.0,0.5,3.5,5.75,1.25,1.0,71.75
Tanquinho,EBDA,Tanquinho,Tanquinho - EBDA,-11.96799,-39.101068,Nordeste,RPGA do Rio Paraguaçu,0.0,0.0,0.0,0.0,12.7,0.0,0.0,0.0,0.0,0.0,0.0,0.0,0.0,0.0,0.0,0.0,0.0,0.0,0.0,0.0,0.0,0.0,0.0,0.0,0.0,0.0,0.0,0.0,0.0,0.0,20.0,32.7
Candeal,EBDA,Candeal,Candeal - EBDA,-11.80132,-39.117735,Nordeste,RPGA do Rio Paraguaçu,0.0,0.0,0.0,19.0,0.0,0.0,0.0,0.0,0.0,0.0,0.0,2.2,0.6,0.0,0.0,0.0,0.0,0.0,0.0,0.0,0.0,0.0,0.0,0.0,0.0,0.0,0.0,0.0,0.0,0.0,0.0,21.8
Inhambupe,EBDA,Inhambupe,Inhambupe - EBDA,-11.784656,-38.351047,Nordeste,RPGA do Recôncavo Norte,0.0,0.0,0.0,0.0,0.0,0.0,0.0,0.0,0.0,0.0,0.0,0.0,0.0,0.0,0.0,0.0,0.0,0.0,0.0,0.0,0.0,0.0,0.0,0.0,0.0,0.0,0.0,0.0,0.0,0.0,0.0,0.0
Esplanada,EBDA,Esplanada,Esplanada - EBDA,-11.784656,-37.951038,Nordeste,RPGA do Recôncavo Norte,0.0,0.0,0.0,0.0,0.0,0.0,0.0,0.0,0.0,0.0,0.0,0.0,0.0,0.0,0.0,0.0,0.0,0.0,0.0,0.0,0.0,0.0,0.0,0.0,0.0,0.0,0.0,0.0,0.0,0.0,0.0,0.0
Entre Rios,EBDA,Entre Rios,Entre Rios - EBDA,-11.951326,-38.084374,Nordeste,RPGA do Recôncavo Norte,0.0,0.0,0.0,0.0,0.0,0.0,0.0,0.0,0.0,0.0,0.0,0.0,0.0,0.0,0.0,0.0,0.0,0.0,0.0,0.0,0.0,0.0,0.0,0.0,0.0,0.0,0.0,0.0,0.0,0.0,0.0,0.0
Rio Real,EBDA,Rio Real,Rio Real - EBDA,-11.48465,-37.934369,Nordeste,RPGA do Rio Real,0.0,0.0,0.0,0.0,0.0,0.0,0.0,0.0,0.0,0.0,0.0,0.0,0.0,0.0,0.0,0.0,0.0,0.0,0.0,0.0,0.0,0.0,0.0,0.0,0.0,0.0,0.0,0.0,0.0,0.0,0.0,0.0
Sátiro Dias,EBDA,Sátiro Dias,Sátiro Dias - EBDA,-11.58465,-38.584386,Nordeste,RPGA do Recôncavo Norte,0.0,0.0,0.0,0.0,0.0,0.0,0.0,0.0,0.0,0.0,0.0,0.0,0.0,0.0,0.0,0.0,0.0,0.0,0.0,0.0,0.0,0.0,0.0,0.0,0.0,0.0,0.0,0.0,0.0,0.0,0.0,0.0
Ribeira do Pombal,EBDA,Ribeira do Pombal,Ribeira do Pombal - EBDA,-10.834635,-38.534383,Nordeste,RPGA do Rio Itapicuru,0.0,0.0,0.0,1.5,13.4,0.0,0.0,0.0,8.5,0.0,0.0,0.0,0.0,0.0,0.0,0.0,0.0,0.0,0.0,0.0,0.8,0.0,0.0,0.0,0.0,0.0,0.0,2.1,0.0,0.0,2.7,29.0
Cipó,EBDA,Cipó,Cipó - EBDA,-11.101305,-38.517717,Nordeste,RPGA do Rio Itapicuru,0.0,0.0,0.0,0.0,0.0,0.0,0.0,0.0,5.7,0.0,0.0,0.0,0.0,0.0,0.0,22.7,0.0,0.0,0.0,0.0,0.0,0.0,0.0,0.0,0.0,0.0,11.1,0.7,0.0,0.0,0.0,40.2
Olindina_EBDA,EBDA,Olindina_EBDA,Olindina_EBDA - EBDA,-11.351311,-38.33438,Nordeste,RPGA do Rio Itapicuru,0.0,0.0,0.0,0.0,0.0,0.0,0.0,0.0,0.0,0.0,0.0,0.0,0.0,0.0,0.0,0.0,0.0,0.0,0.0,0.0,0.0,0.0,0.0,0.0,0.0,0.0,10.0,0.0,0.0,0.0,5.0,15.0
Antas,EBDA,Antas,Antas - EBDA,-10.401293,-38.334375,Nordeste,RPGA do Rio Vaza-Barris,0.0,0.0,0.0,0.0,2.5,0.0,0.0,0.0,0.0,0.0,0.0,0.0,0.0,0.0,18.0,8.5,0.0,0.0,0.0,0.0,0.0,0.0,0.0,0.0,0.0,0.0,0.0,6.5,0.0,0.0,4.5,40.0
Paripiranga,EBDA,Paripiranga,Paripiranga - EBDA,-10.684633,-37.851032,Nordeste,RPGA do Rio Vaza-Barris,0.0,0.0,0.0,0.0,15.6,0.0,0.0,0.0,0.0,11.2,0.0,0.0,0.0,0.0,0.0,8.9,0.0,0.0,0.0,0.0,0.0,0.0,0.0,0.0,0.0,5.6,0.0,0.0,0.0,0.0,20.0,61.3
Nova Soure,EBDA,Nova Soure,Nova Soure - EBDA,-11.251311,-38.484383,Nordeste,RPGA do Rio Itapicuru,0.0,0.0,0.0,21.0,31.5,0.0,0.0,0.0,0.0,0.0,0.0,0.0,0.0,6.3,0.0,30.2,0.0,0.0,0.0,15.5,0.0,0.0,0.0,0.0,0.0,0.0,11.0,0.0,0.0,0.0,2.6,118.1
Ribeira do Amparo,EBDA,Ribeira do Amparo,Ribeira do Amparo - EBDA,-11.034638,-38.43438,Nordeste,RPGA do Rio Itapicuru,0.0,0.0,0.0,8.5,2.0,0.0,0.0,0.0,13.7,0.0,10.7,0.0,0.0,0.0,0.0,10.7,0.0,0.0,0.0,4.1,0.0,0.0,0.0,0.0,0.0,0.0,0.0,5.2,0.0,0.0,0.0,54.9
Heliópolis,EBDA,Heliópolis,Heliópolis - EBDA,-10.667965,-38.284375,Nordeste,RPGA do Rio Real,0.0,0.0,0.0,0.0,16.6,0.0,0.0,0.0,58.9,0.0,0.0,0.0,0.0,0.0,0.0,0.0,0.0,0.0,0.0,0.0,0.0,0.0,0.0,0.0,0.0,0.0,0.0,0.0,0.0,0.0,4.9,80.4
Cícero Dantas,EBDA,Cícero Dantas,Cícero Dantas - EBDA,-10.584629,-38.384377,Nordeste,RPGA do Rio Real,2.5,0.0,0.0,0.0,10.5,0.0,0.0,0.0,0.0,0.0,0.0,0.0,5.0,0.0,0.0,0.0,5.0,0.0,0.0,0.0,0.0,0.0,0.0,0.0,0.0,0.0,0.0,7.5,0.0,0.0,2.5,33.0
Sítio do Quinto,EBDA,Sítio do Quinto,Sítio do Quinto - EBDA,-10.367959,-38.201038,Nordeste,RPGA do Rio Vaza-Barris,0.0,0.0,0.0,0.0,0.0,0.0,0.0,0.0,0.0,0.0,5.7,0.0,0.0,0.0,0.0,9.0,0.0,0.0,0.0,36.0,0.0,0.0,0.0,0.0,0.0,0.0,0.0,0.0,0.0,0.0,0.0,50.7
Pedro Alexandre,EBDA,Pedro Alexandre,Pedro Alexandre - EBDA,-10.017951,-37.884362,Nordeste,RPGA do Rio Vaza-Barris,0.0,0.0,0.0,0.0,0.0,0.0,0.0,0.0,0.0,0.0,0.0,0.0,0.0,0.0,0.0,0.0,0.0,0.0,0.0,0.0,0.0,0.0,0.0,0.0,0.0,0.0,0.0,0.0,0.0,0.0,0.0,0.0
Adustina,EBDA,Adustina,Adustina - EBDA,-10.534629,-38.117704,Nordeste,RPGA do Rio Vaza-Barris,0.0,0.0,0.0,0.0,4.0,0.0,0.0,0.0,8.8,0.0,0.0,0.0,0.0,0.0,0.0,0.0,0.0,0.0,0.0,0.0,0.0,0.0,0.0,0.0,0.0,0.0,0.0,0.0,0.0,0.0,0.0,12.8
Uauá,EBDA,Uauá,Uauá - EBDA,-9.834609,-39.484404,Nordeste,RPGA do Rio Vaza-Barris,24.6,0.0,1.4,0.0,0.0,13.0,0.0,0.0,0.0,0.0,4.2,6.4,3.8,0.0,0.0,0.0,0.0,0.0,0.0,0.0,0.0,0.0,0.0,0.0,0.0,0.0,0.0,0.0,0.0,0.0,0.0,53.4
Andorinha,EBDA,Andorinha,Andorinha - EBDA,-10.33462,-39.834414,Nordeste,RPGA do Rio Itapicuru,6.0,2.0,0.0,0.0,0.0,2.0,0.0,2.5,0.0,0.0,0.0,9.5,26.0,0.0,0.0,3.0,0.0,0.0,0.0,0.0,4.5,0.0,0.0,0.0,0.0,0.0,2.0,3.0,0.0,0.0,0.0,60.5
Araci,EBDA,Araci,Araci - EBDA,-11.334644,-38.951062,Nordeste,RPGA do Rio Itapicuru,0.0,0.0,0.0,0.0,0.0,0.0,0.0,0.0,0.0,0.0,0.0,2.0,3.0,0.0,1.0,2.0,0.0,15.0,2.0,0.0,20.0,0.0,0.0,0.0,0.0,0.0,0.0,16.0,3.0,0.0,3.0,67.0
Paulo Afonso,EBDA,Paulo Afonso,Paulo Afonso - EBDA,-9.401269,-38.217702,Nordeste,RPGA dos Rios Macururé e Curaçá,0.8,2.2,0.0,0.0,31.6,0.0,0.0,0.0,0.0,0.0,0.0,0.0,0.0,0.0,0.0,0.0,0.0,0.0,0.0,0.0,0.0,0.0,0.0,0.0,0.0,0.0,0.0,0.0,0.0,0.0,0.0,34.6
Santa Brígida,EBDA,Santa Brígida,Santa Brígida - EBDA,-9.734611,-38.134368,Nordeste,RPGA do Riacho do Tará,0.0,0.0,0.0,0.0,0.0,0.0,0.0,0.0,0.0,0.0,0.0,0.0,0.0,0.0,0.0,0.0,0.0,0.0,0.0,0.0,0.0,0.0,0.0,0.0,0.0,0.0,0.0,0.0,0.0,0.0,8.4,8.4
Glória,EBDA,Glória,Glória - EBDA,-9.351269,-38.251038,Nordeste,RPGA dos Rios Macururé e Curaçá,0.0,0.0,0.0,0.0,0.0,0.0,0.0,0.0,0.0,0.0,0.0,0.0,0.0,0.0,0.0,0.0,0.0,0.0,0.0,0.0,0.0,0.0,0.0,0.0,0.0,0.0,0.0,0.0,0.0,0.0,0.0,0.0
Casa Nova,EBDA,Casa Nova,Casa Nova - EBDA,-9.08459,-40.617764,Norte,RPGA do Lago de Sobradinho,0.0,0.0,0.0,13.5,16.0,9.0,0.0,29.0,0.0,40.0,0.0,10.5,26.7,0.0,0.0,0.0,0.0,0.0,0.0,0.0,0.0,0.0,0.0,0.0,0.0,0.0,0.0,0.0,0.0,0.0,0.0,144.7
Remanso,EBDA,Remanso,Remanso - EBDA,-9.601263,-42.08447,Norte,RPGA do Lago de Sobradinho,0.0,77.8,19.4,6.0,0.0,0.0,0.0,0.0,0.0,0.0,0.0,0.0,0.0,14.5,0.0,0.0,0.0,0.0,0.0,0.0,0.0,0.0,0.0,0.0,0.0,0.0,0.0,0.0,0.0,0.0,0.0,117.7
Sento Sé,EBDA,Sento Sé,Sento Sé - EBDA,-9.734599,-41.851131,Norte,RPGA do Lago de Sobradinho,0.0,5.0,11.8,0.0,0.0,0.0,0.0,0.0,0.0,0.0,0.0,0.0,0.0,0.0,0.0,0.0,0.0,0.0,0.0,0.0,0.0,0.0,0.0,0.0,0.0,0.0,0.0,0.0,0.0,0.0,0.0,16.8
Juazeiro -EBDA,,Juazeiro -EBDA,Juazeiro -EBDA,-9.41793,-40.501095,Norte,RPGA dos Rios Macururé e Curaçá,0.0,31.0,0.2,0.0,0.0,0.0,0.0,0.0,0.0,0.0,0.0,0.0,0.0,0.0,0.0,0.0,0.0,0.0,0.0,0.0,0.0,0.0,0.0,0.0,0.0,0.0,0.0,0.0,0.0,0.0,0.0,31.2
Sobradinho,EBDA,Sobradinho,Sobradinho - EBDA,-9.334594,-40.81777,Norte,RPGA do Lago de Sobradinho,0.0,0.0,0.0,0.0,0.0,0.0,0.0,0.0,0.0,0.0,0.5,0.0,12.0,0.0,0.0,0.0,0.0,0.0,0.0,18.0,0.0,0.0,0.0,0.0,0.0,0.0,0.0,0.0,0.0,0.0,0.0,30.5
Taquarendi,EBDA,Taquarendi,Taquarendi - EBDA,-10.834626,-40.701104,Norte,RPGA do Rio Salitre,0.0,0.0,0.0,0.0,0.0,0.0,0.0,0.0,0.0,0.0,4.0,0.0,0.0,5.0,0.0,0.0,0.0,0.0,0.0,0.0,0.0,0.0,0.0,0.0,5.0,16.0,0.0,0.0,0.0,0.0,0.0,30.0
Central,EBDA,Central,Central - EBDA,-11.151293,-42.11781,Norte,RPGA dos Rios Verde e Jacaré,7.0,5.0,0.0,0.0,0.0,32.0,0.0,4.0,0.0,0.0,0.0,0.0,4.0,0.0,0.0,0.0,13.0,0.0,0.0,0.0,0.0,0.0,0.0,0.0,0.0,0.0,0.0,0.0,0.0,0.0,0.0,65.0
Ibipeba,EBDA,Ibipeba,Ibipeba - EBDA,-11.634638,-42.034476,Norte,RPGA dos Rios Verde e Jacaré,0.0,0.0,0.0,0.0,0.0,32.6,10.0,0.0,0.0,0.0,0.0,0.0,22.0,0.0,0.0,0.0,0.0,0.0,0.0,0.0,0.0,0.0,0.0,0.0,0.0,0.0,0.0,0.0,0.0,0.0,0.0,64.6
Ibititá,EBDA,Ibititá,Ibititá - EBDA,-11.523108,-41.976085,Norte,RPGA dos Rios Verde e Jacaré,0.0,25.0,0.0,0.0,0.0,15.8,5.6,0.0,0.0,0.0,0.0,0.0,5.6,0.0,0.0,12.0,22.7,0.0,0.0,0.0,0.0,0.0,0.0,0.0,0.0,0.0,0.0,0.0,0.0,0.0,0.0,86.7
Irecê,EBDA,Irecê,Irecê - EBDA,-11.317966,-41.867804,Norte,RPGA dos Rios Verde e Jacaré,0.0,0.0,0.0,0.0,0.0,36.5,13.3,40.0,16.4,0.0,0.0,0.0,0.0,0.0,0.0,0.0,10.7,0.0,0.0,0.0,0.0,0.0,0.0,0.0,0.0,0.0,0.0,0.0,0.0,0.0,0.0,116.9
João Dourado,EBDA,João Dourado,João Dourado - EBDA,-11.334633,-41.651131,Norte,RPGA dos Rios Verde e Jacaré,0.0,0.0,0.0,0.0,0.0,5.0,10.0,5.0,2.0,0.0,0.0,0.0,2.5,0.0,0.0,0.0,8.5,0.0,0.0,0.0,0.0,0.0,0.0,0.0,0.0,0.0,0.0,0.0,0.0,0.0,0.0,33.0
Jussara,EBDA,Jussara,Jussara - EBDA,-11.051296,-40.96778,Norte,RPGA do Rio Salitre,0.0,0.0,0.0,0.0,3.0,20.0,15.0,10.0,6.0,0.0,0.0,0.0,0.0,0.0,0.0,0.0,8.0,0.0,0.0,0.0,0.0,0.0,0.0,0.0,0.0,0.0,0.0,0.0,0.0,0.0,0.0,62.0
Lapão,EBDA,Lapão,Lapão - EBDA,-11.367966,-41.817803,Norte,RPGA dos Rios Verde e Jacaré,0.0,0.0,0.0,0.0,0.0,35.3,11.3,0.0,0.0,0.0,0.0,0.0,0.0,0.0,0.0,0.0,17.0,0.0,0.0,0.0,0.0,0.0,0.0,0.0,0.0,0.0,0.0,0.0,0.0,0.0,0.0,63.6
Presidente Dutra,EBDA,Presidente Dutra,Presidente Dutra - EBDA,-11.284632,-41.651131,Norte,RPGA dos Rios Verde e Jacaré,0.0,0.0,0.0,0.0,0.0,60.0,5.0,34.0,0.0,0.0,0.0,10.1,5.7,0.0,0.0,0.0,11.3,0.0,0.0,0.0,0.0,0.0,0.0,0.0,0.0,0.0,0.0,0.0,0.0,0.0,0.0,126.1
Uibaí,EBDA,Uibaí,Uibaí - EBDA,-11.334632,-42.134477,Norte,RPGA dos Rios Verde e Jacaré,0.0,0.0,0.0,0.0,0.0,19.2,0.0,15.8,0.0,0.0,0.0,0.0,0.0,0.0,0.0,21.5,0.0,0.0,0.0,0.0,0.0,0.0,0.0,0.0,0.0,0.0,0.0,0.0,0.0,0.0,0.0,56.5
Irecê,83182,Irecê,Irecê - 83182,-11.3,-41.866667,Norte,RPGA dos Rios Verde e Jacaré,0.0,0.0,0.0,0.0,0.0,0.0,44.4,14.8,27.3,3.0,0.0,0.0,0.0,0.3,0.0,0.0,12.4,0.0,0.0,0.0,0.0,0.0,0.0,0.0,0.0,0.0,0.0,0.0,0.0,0.0,0.0,102.2
Remanso,82979,Remanso,Remanso - 82979,-9.633333,-42.1,Norte,RPGA do Lago de Sobradinho,24.0,50.8,25.8,0.0,0.0,0.0,0.0,0.0,0.0,0.0,0.0,0.0,0.0,14.6,0.0,0.0,0.0,0.0,0.0,0.0,0.0,0.0,0.0,0.0,0.0,0.0,0.0,0.0,0.0,0.0,0.0,115.2
Delfino,A443,Umburanas,Umburanas (Delfino) - A443,-10.45492,-41.206996,Norte,RPGA do Rio Salitre,0.2,1.4,9.4,0.0,0.0,0.0,0.2,5.4,0.8,1.8,0.0,0.0,0.0,15.4,0.0,0.0,4.8,0.0,0.0,0.0,0.0,0.0,0.0,0.0,0.0,0.0,0.0,0.0,0.0,5.2,0.0,44.6
Remanso,A423,Remanso,Remanso - A423,-9.625693,-42.077214,Norte,RPGA do Lago de Sobradinho,27.0,45.8,24.4,0.0,0.0,0.0,0.0,0.2,0.0,0.0,0.0,0.0,0.0,13.0,0.0,0.0,0.0,0.0,0.0,0.0,0.0,0.0,0.0,0.0,0.0,0.0,0.0,0.0,0.0,0.0,0.0,110.4
Irecê,A424,Irecê,Irecê - A424,-11.328998,-41.864504,Norte,RPGA dos Rios Verde e Jacaré,0.0,0.0,0.0,0.0,0.0,0.0,55.2,25.6,15.0,0.4,0.0,0.0,0.2,1.2,0.0,0.0,12.4,0.0,0.2,0.0,0.0,0.0,0.0,0.0,0.0,0.0,0.0,0.0,0.0,0.0,0.0,110.21
Juazeiro,UEP - EMBRAPA -EBDA - EBDA,Juazeiro,Juazeiro - UEP - EMBRAPA -EBDA - EBDA,-9.41293,-40.499706,Norte,RPGA dos Rios Macururé e Curaçá,3.2,3.2,0.0,0.0,0.0,0.0,0.0,0.0,0.0,1.0,0.0,0.0,2.3,0.2,0.0,0.0,0.0,0.0,0.0,0.0,0.0,0.0,0.0,0.0,0.0,0.0,0.0,0.0,0.0,0.0,0.0,9.9
Juazeiro,Est. Exp. Caraíbas - EBDA,Juazeiro,Juazeiro - Est. Exp. Caraíbas - EBDA,-9.418208,-40.510817,Norte,RPGA dos Rios Macururé e Curaçá,0.0,0.0,0.0,0.0,0.0,0.0,0.0,0.0,0.0,0.0,0.0,0.0,0.0,0.0,0.0,0.0,0.0,0.0,0.0,0.0,0.0,0.0,0.0,0.0,0.0,0.0,0.0,0.0,0.0,0.0,0.0,0.0
Ibitibá,,Ibitibá,Ibitibá,-11.551736,-41.968187,Norte,RPGA dos Rios Verde e Jacaré,0.0,0.0,0.0,0.0,0.0,0.0,0.0,0.0,0.0,0.0,0.0,0.0,0.25,2.5,1.0,0.0,24.75,0.0,0.0,0.0,0.0,0.0,0.0,0.0,0.0,0.0,0.0,0.0,0.0,0.0,0.0,28.5
Jussara,Arrecife,Jussara,Jussara - Arrecife,-11.065335,-41.974853,Norte,RPGA dos Rios Verde e Jacaré,0.0,0.0,0.5,0.0,0.0,4.0,35.5,3.75,2.25,5.0,0.0,0.0,0.0,1.25,0.0,0.0,5.0,0.25,0.0,0.0,0.0,0.0,0.0,0.0,0.0,0.0,0.0,0.0,0.0,0.0,0.0,57.5
Ibipeba,,Ibipeba,Ibipeba,-11.673962,-42.010413,Norte,RPGA dos Rios Verde e Jacaré,0.25,0.0,0.0,0.0,0.0,0.0,17.25,17.0,8.25,0.75,0.0,0.0,0.0,11.25,0.0,0.0,8.0,0.0,0.0,0.0,0.0,0.0,0.0,0.0,0.0,0.0,0.0,0.0,0.0,0.0,0.0,62.75
Central,,Central,Central,-11.135391,-42.093468,Norte,RPGA dos Rios Verde e Jacaré,0.0,4.75,2.25,0.0,0.0,0.0,16.0,0.0,4.5,2.25,0.0,0.0,0.0,0.25,0.0,0.0,15.5,1.0,0.0,0.0,0.0,0.0,0.0,0.0,0.0,0.0,0.0,0.0,0.0,0.0,0.0,46.5
Irecê,VJ-CL-01,Irecê,Irecê - VJ-CL-01,-11.289166,-41.894166,Norte,RPGA dos Rios Verde e Jacaré,0.0,0.0,0.0,0.0,0.0,0.0,20.25,36.0,47.25,1.0,0.0,0.0,1.25,0.75,0.0,0.0,8.25,0.0,0.0,0.0,0.0,0.0,0.0,0.0,0.0,0.0,0.0,0.0,0.0,0.0,0.0,114.75
Santa Rosa,SM-PR-01,Jaguarari,Jaguarari (Santa Rosa) - SM-PR-01,-10.098374,-39.869774,Norte,RPGA dos Rios Macururé e Curaçá,0.5,43.25,1.25,8.75,0.0,0.0,8.0,0.0,10.25,0.0,0.0,0.0,11.5,3.5,0.0,0.0,3.75,0.0,0.0,0.0,0.0,0.0,0.0,0.0,0.0,0.0,0.0,0.0,1.5,0.25,0.0,92.5
Campo Formoso,IT-PR-27,Campo Formoso,Campo Formoso - IT-PR-27,-10.510327,-40.332849,Norte,RPGA do Rio Itapicuru,12.75,15.5,3.25,0.25,1.5,0.0,0.25,0.0,5.0,1.5,0.0,0.0,0.0,5.0,0.75,0.75,3.0,0.25,0.5,0.75,0.5,1.25,0.25,0.25,0.25,0.25,0.25,0.25,5.75,2.25,1.0,63.25
Jaguarari,IT-PR-28,Jaguarari,Jaguarari - IT-PR-28,-10.269489,-40.200344,Norte,RPGA do Rio Itapicuru,0.0,0.0,0.25,0.0,0.0,0.0,4.0,0.0,0.5,0.5,0.25,0.0,0.0,8.75,0.0,0.0,4.75,0.0,0.0,0.0,0.0,0.0,0.0,0.0,0.0,0.0,0.0,0.0,1.75,4.0,0.0,24.75
Mirangaba,IT-PR-29,Mirangaba,Mirangaba - IT-PR-29,-10.954784,-40.574527,Norte,RPGA do Rio Itapicuru,1.0,0.5,1.5,0.0,0.0,0.0,0.0,0.0,9.25,2.0,0.0,0.0,0.0,8.75,0.0,0.0,13.5,0.0,0.0,0.0,0.0,0.0,0.0,0.0,0.0,0.0,0.0,0.0,0.0,0.0,0.0,36.5
América Dourada,EBDA,América Dourada,América Dourada - EBDA,-11.384635,-41.584464,Norte,RPGA dos Rios Verde e Jacaré,0.0,0.0,0.0,0.0,0.0,2.0,17.0,4.0,0.0,0.0,0.0,0.0,28.0,0.0,0.0,0.0,0.0,3.0,0.0,0.0,0.0,0.0,0.0,0.0,0.0,0.0,0.0,0.0,0.0,0.0,0.0,54.0
Taquarendi,,Taquarendi,Taquarendi,-10.893669,-40.687028,Norte,RPGA do Rio Salitre,11.0,0.25,0.0,0.0,0.0,0.0,0.0,0.0,0.25,2.5,0.0,0.0,0.0,2.75,0.0,0.0,2.25,0.0,0.0,0.0,0.25,0.0,0.0,0.0,0.0,0.0,0.0,0.0,0.0,0.0,0.0,19.25
São Gabriel,EBDA,São Gabriel,São Gabriel - EBDA,-11.134629,-41.867803,Norte,RPGA dos Rios Verde e Jacaré,12.0,0.0,0.0,0.0,0.0,47.0,14.0,38.0,0.0,0.0,0.0,0.0,14.0,0.0,0.0,0.0,4.0,0.0,0.0,0.0,0.0,0.0,0.0,0.0,0.0,0.0,0.0,0.0,0.0,0.0,0.0,129.0
Campo Formoso,EBDA,Campo Formoso,Campo Formoso - EBDA,-10.501287,-40.317761,Norte,RPGA do Rio Itapicuru,2.0,6.0,0.0,0.0,0.0,0.0,0.0,15.0,0.0,0.0,0.0,0.0,4.0,0.0,0.0,14.0,0.0,0.0,0.0,0.0,0.0,0.0,0.0,0.0,0.0,0.0,5.0,0.0,6.0,0.0,3.0,55.0
Fazenda Sinimbu,,Fazenda Sinimbu,Fazenda Sinimbu,-12.366736,-45.862763,Oeste,RPGA do Rio Grande,33.0,17.0,0.75,0.25,1.25,5.75,0.5,9.5,10.75,5.25,0.0,0.0,1.0,10.75,0.0,7.25,0.0,0.25,0.0,0.0,0.25,2.0,0.5,13.0,2.25,0.0,2.0,5.75,0.5,0.0,0.0,129.5
Limoeiro,GR-PR-18,Barreiras,Barreiras (Limoeiro) - GR-PR-18,-12.293403,-45.544421,Oeste,RPGA do Rio Grande,20.75,18.0,8.5,0.0,0.0,0.0,0.0,0.0,9.25,0.0,0.0,0.0,1.25,2.25,0.0,0.0,0.0,0.0,0.0,0.0,0.25,25.5,3.75,1.5,3.0,0.0,0.25,0.0,0.0,0.0,0.0,94.25
Fazenda Rio Brilhante,,Fazenda Rio Brilhante,Fazenda Rio Brilhante,-12.802859,-45.729985,Oeste,RPGA do Rio Grande,1.5,0.0,0.0,0.0,0.0,0.0,0.0,0.0,0.0,0.0,0.0,0.0,0.0,0.0,0.0,0.0,0.0,0.0,0.0,0.0,0.0,0.0,0.0,0.0,0.0,0.0,0.0,0.0,0.0,0.0,0.0,1.5
Fazenda Catarinense,,Fazenda Catarinense,Fazenda Catarinense,-13.286201,-46.028331,Oeste,RPGA do Rio Grande,1.25,7.75,4.5,0.0,0.0,0.0,5.0,17.0,6.25,0.25,0.0,0.0,0.0,1.5,11.5,15.25,0.0,0.0,0.0,0.0,0.0,0.75,0.25,0.25,0.0,2.0,10.0,0.0,0.0,0.0,0.0,83.5
Fazenda Morete,,Fazenda Morete,Fazenda Morete,-13.222316,-45.154969,Oeste,"RPGA do Rio Corrente e Riachos do Ramalho, Serra Dourada e Brejo Velho",10.0,0.0,0.0,0.0,0.0,0.0,21.5,4.0,0.75,0.0,0.0,24.25,6.5,8.0,0.0,19.5,0.0,0.0,0.0,0.0,0.0,2.0,31.75,0.0,0.75,4.0,0.0,0.0,0.0,0.0,0.0,133.0
INMET,EBDA,Barreiras,Barreiras (INMET) - EBDA,-12.134635,-44.984551,Oeste,RPGA do Rio Grande,15.75,1.25,12.75,0.0,0.0,0.0,12.5,14.5,0.0,0.0,0.0,0.0,2.0,0.0,1.5,0.0,0.0,0.0,0.0,0.0,0.75,0.0,0.0,0.0,3.0,0.0,0.0,0.0,0.0,0.0,0.0,64.0
Arrojolândia,,Arrojolândia,Arrojolândia,-13.741772,-45.466093,Oeste,"RPGA do Rio Corrente e Riachos do Ramalho, Serra Dourada e Brejo Velho",1.25,21.0,0.0,0.0,0.0,0.0,0.0,1.25,4.5,0.0,0.0,5.5,0.0,38.0,0.0,2.25,0.0,0.0,0.0,0.0,0.0,0.0,15.25,0.25,0.25,3.5,0.0,0.0,0.0,0.0,0.0,93.0
Rosário,CT-PR-03,Correntina,Correntina (Rosário) - CT-PR-03,-13.940105,-46.188064,Oeste,"RPGA do Rio Corrente e Riachos do Ramalho, Serra Dourada e Brejo Velho",4.5,2.5,0.5,0.0,0.0,0.0,13.5,9.25,5.0,0.0,0.0,0.0,0.0,6.25,0.5,17.75,0.0,0.0,0.0,0.0,10.0,0.0,52.75,1.0,41.5,3.0,9.5,10.5,0.0,2.0,0.0,190.0
Fazenda Nova Esperança,,Fazenda Nova Esperança,Fazenda Nova Esperança,-13.987891,-45.389148,Oeste,"RPGA do Rio Corrente e Riachos do Ramalho, Serra Dourada e Brejo Velho",2.0,12.5,0.0,0.0,0.0,0.0,18.0,21.5,5.0,0.75,0.25,0.0,0.5,4.0,0.0,0.0,0.0,0.0,0.0,0.0,0.0,0.0,20.5,0.25,0.0,0.5,1.25,1.0,0.0,0.0,0.0,88.0
SEDE,EBDA,Formosa do Rio Preto,Formosa do Rio Preto (SEDE) - EBDA,-11.051281,-45.201218,Oeste,RPGA do Rio Grande,0.0,0.0,0.0,0.0,0.0,0.0,0.0,0.0,0.0,0.0,0.0,0.0,0.0,0.0,0.0,0.0,0.0,0.0,0.0,0.0,0.0,0.0,0.0,0.0,0.0,0.0,0.0,0.0,0.0,0.0,0.0,0.0
Fazenda Cachoeirinha,,Fazenda Cachoeirinha,Fazenda Cachoeirinha,-14.389284,-45.840279,Oeste,"RPGA do Rio Corrente e Riachos do Ramalho, Serra Dourada e Brejo Velho",5.0,5.0,0.0,0.0,0.0,0.0,9.0,18.25,9.25,0.0,0.0,4.75,16.5,14.0,0.0,14.25,0.0,0.0,0.0,0.0,0.0,11.75,27.5,0.25,1.75,0.0,2.0,2.0,0.0,0.0,0.0,141.25
Formosa do Rio Preto,,Formosa do Rio Preto,Formosa do Rio Preto,-11.051281,-45.201218,Oeste,RPGA do Rio Grande,12.0,10.0,5.0,0.0,0.0,0.0,0.0,0.0,0.0,1.0,0.0,0.0,0.0,0.0,0.0,0.0,0.0,0.0,0.0,0.0,13.0,0.0,2.0,0.0,0.0,13.0,0.0,0.0,0.0,0.0,0.0,56.0
Correntina,A416,Correntina,Correntina - A416,-13.332386,-44.617376,Oeste,"RPGA do Rio Corrente e Riachos do Ramalho, Serra Dourada e Brejo Velho",1.8,2.0,0.0,0.0,0.0,0.0,0.0,0.2,9.2,0.0,0.0,0.0,0.0,5.8,0.2,0.2,0.0,0.0,0.0,0.0,0.0,0.0,11.4,0.4,0.0,0.0,0.0,0.0,0.0,0.0,0.0,31.2
Correntina,83286,Correntina,Correntina - 83286,-13.332222,-44.617222,Oeste,"RPGA do Rio Corrente e Riachos do Ramalho, Serra Dourada e Brejo Velho",1.5,1.4,0.0,0.0,0.0,0.0,0.0,0.0,9.1,0.0,0.0,0.0,0.0,5.9,0.0,0.0,0.0,0.0,0.0,0.0,0.0,0.0,11.6,0.3,0.0,0.0,0.0,0.0,0.0,0.0,0.0,29.8
SEDE,EBDA,Riachão das Neves,Riachão das Neves (SEDE) - EBDA,-11.747407,-44.911215,Oeste,RPGA do Rio Grande,11.5,3.75,1.25,0.0,14.75,0.0,0.0,0.0,0.0,49.25,0.0,0.0,0.0,0.0,0.0,0.0,0.0,0.0,0.0,0.0,11.75,0.0,0.45,0.0,3.25,4.75,7.75,0.0,0.0,0.0,0.0,108.45
Form. Rio Preto,46550000,Barreiras,Barreiras (Form. Rio Preto) - 46550000,-11.154444,-45.009166,Oeste,RPGA do Rio Grande,11.9,0.3,6.3,6.4,0.0,0.0,0.0,0.0,6.7,0.4,0.0,0.0,0.0,0.0,0.0,0.0,0.0,0.0,0.0,0.0,24.6,0.4,0.0,0.0,22.7,0.0,0.0,0.3,0.3,0.0,0.0,80.3
COACERAL,GR-CL-02,Formosa do Rio Preto,Formosa do Rio Preto (COACERAL) - GR-CL-02,-10.561944,-45.693333,Oeste,RPGA do Rio Grande,32.6,3.5,3.9,0.4,2.3,4.5,7.9,11.8,8.0,3.7,0.4,2.7,4.7,4.3,3.9,0.0,0.6,0.0,0.1,1.5,9.2,4.2,4.7,1.2,5.8,4.6,5.8,9.1,9.3,2.5,1.4,154.61
Barreiras,A402,Barreiras,Barreiras - A402,-12.124715,-45.027049,Oeste,RPGA do Rio Grande,12.2,0.0,0.6,0.4,0.0,0.0,0.0,0.0,4.6,0.2,0.0,0.0,0.0,8.2,0.0,0.0,0.0,0.4,0.0,0.0,13.2,0.2,0.6,0.0,19.0,0.0,0.0,0.0,0.2,0.0,0.0,59.81
Luís Eduardo Magalhães,A404,Luís Eduardo Magalhães,Luís Eduardo Magalhães - A404,-12.152394,-45.829745,Oeste,RPGA do Rio Grande,3.6,2.8,3.2,2.8,2.6,2.0,1.2,0.6,0.4,0.2,0.2,0.2,0.2,0.0,0.2,0.2,0.0,0.2,0.0,0.2,0.6,0.0,0.4,0.2,0.0,0.2,0.0,0.0,0.2,0.0,0.2,22.6
Barreiras,EBDA,Barreiras,Barreiras - EBDA,-12.084632,-45.6679,Oeste,RPGA do Rio Grande,18.0,16.5,0.0,7.8,0.0,0.0,0.0,7.9,0.0,3.5,0.0,0.8,0.0,0.0,1.7,0.0,0.0,0.0,0.0,12.5,0.0,23.0,0.0,0.5,10.0,0.0,0.0,0.0,0.0,0.0,0.0,102.2
São Desidério,R. Velha - GR-CL-01,São Desidério,São Desidério - R. Velha - GR-CL-01,-12.898055,-46.157222,Oeste,RPGA do Rio Grande,2.0,3.5,0.0,0.75,0.0,0.0,0.75,13.25,7.0,0.0,0.0,0.0,12.0,17.25,0.0,16.25,0.0,0.0,0.0,0.0,0.0,0.75,9.25,0.25,0.0,1.25,42.25,11.75,0.0,0.0,0.0,138.25
Fazenda Evandro,GR-PR-01,Formosa do Rio Preto,Formosa do Rio Preto (Fazenda Evandro) - GR-PR-01,-10.600581,-45.822752,Oeste,RPGA do Rio Grande,0.5,6.0,1.5,0.0,0.0,29.0,4.25,15.75,0.5,0.25,0.0,0.0,0.75,0.0,0.5,0.0,0.0,0.0,0.0,0.0,6.25,4.75,0.75,0.0,3.25,2.0,18.0,0.0,34.75,0.25,0.0,129.0
Garganta,GR-PR-04,Formosa do Rio Preto,Formosa do Rio Preto (Garganta) - GR-PR-04,-11.384764,-46.505001,Oeste,RPGA do Rio Grande,3.25,6.75,3.0,0.0,0.5,0.0,0.25,11.25,0.5,0.0,0.0,0.0,19.75,2.25,0.0,0.0,0.0,0.0,0.0,0.0,13.75,0.25,29.75,7.25,0.25,0.0,25.75,11.25,1.5,0.0,0.0,137.25
Restaurante Anel da Soja,,Restaurante Anel da Soja,Restaurante Anel da Soja,-11.598938,-46.005263,Oeste,RPGA do Rio Grande,1.75,14.25,1.25,0.0,14.75,0.0,0.0,48.25,1.0,0.0,0.0,0.0,0.0,0.0,0.0,0.0,0.0,0.0,0.0,0.0,11.0,0.25,0.75,0.0,0.25,7.0,0.75,7.75,0.0,0.0,0.0,109.0
Fazenda Santa Rita de Cássia,,Fazenda Santa Rita de Cássia,Fazenda Santa Rita de Cássia,-11.625053,-45.645252,Oeste,RPGA do Rio Grande,2.25,11.75,2.75,0.0,8.75,0.0,0.0,3.5,1.75,0.0,0.0,0.0,0.25,1.75,0.0,15.25,0.0,0.0,0.0,0.0,2.0,13.5,20.5,1.25,19.5,5.25,19.0,0.25,0.25,0.0,0.0,129.5
Algocel,,Algocel,Algocel,-11.758942,-46.205271,Oeste,RPGA do Rio Grande,0.75,21.0,18.0,0.0,4.0,0.0,0.0,73.25,1.25,0.0,0.0,0.0,2.5,0.75,3.25,0.25,0.0,0.0,0.0,0.0,14.0,6.5,1.5,6.5,0.25,8.0,6.0,1.25,0.25,0.25,0.0,169.5
Santa Inês,EBDA,Santa Inês,Santa Inês - EBDA,-13.28468,-39.834426,Recôncavo,RPGA do Recôncavo Sul,0.0,4.0,4.0,0.0,6.0,0.0,0.0,0.0,0.0,3.0,0.0,18.0,0.0,0.0,0.0,10.0,0.0,0.0,0.0,0.0,0.0,0.0,0.0,0.0,0.0,0.0,0.0,0.0,0.0,0.0,0.0,45.0
Argoim,Rafael Jambeiro,Argoim,Argoim - Rafael Jambeiro,-12.551332,-39.531083,Recôncavo,RPGA do Rio Paraguaçu,0.0,0.0,4.0,0.0,0.0,0.0,1.0,0.0,2.0,5.0,0.0,0.0,0.0,6.0,30.0,0.0,7.0,0.0,0.0,0.0,0.0,41.0,0.0,0.0,0.0,0.0,3.0,0.0,0.0,0.0,0.0,99.0
J. Zoológico,A401,Salvador,Salvador (J. Zoológico) - A401,-13.005515,-38.50576,Recôncavo,RPGA do Recôncavo Norte,0.0,8.6,18.0,0.0,0.0,0.0,0.0,0.0,1.0,5.6,0.2,0.2,9.2,0.2,1.2,0.0,20.2,11.2,6.2,0.0,0.2,0.6,0.2,0.0,0.0,2.4,0.0,0.6,0.0,0.0,0.6,86.41
Cruz das Almas,A406,Cruz das Almas,Cruz das Almas - A406,-12.675422,-39.08958,Recôncavo,RPGA do Rio Paraguaçu,0.0,0.0,9.2,1.4,0.0,0.0,0.0,0.0,0.0,0.0,0.0,0.0,0.0,0.0,0.0,0.0,10.2,0.2,0.2,0.0,0.0,2.0,0.0,0.0,1.4,0.0,0.2,0.0,0.0,0.4,0.0,25.2
Salvador,Canabrava,Salvador,Salvador - Canabrava,-12.924122,-38.429942,Recôncavo,RPGA do Recôncavo Norte,0.0,13.1,11.0,9.0,4.2,0.0,0.0,0.0,3.2,1.8,2.1,3.7,1.2,0.0,0.4,0.1,20.2,3.2,6.8,0.0,12.6,0.0,0.0,0.0,0.0,0.0,0.0,0.7,0.0,0.0,0.0,93.31
Salvador,Inema -Monte Serrat,Salvador,Salvador - Inema -Monte Serrat,-12.930789,-38.517167,Recôncavo,RPGA do Recôncavo Norte,0.0,7.0,20.5,4.2,38.1,0.0,10.7,0.0,0.0,7.7,2.4,0.0,0.5,0.0,0.0,0.0,7.9,0.0,11.0,0.0,11.1,0.2,0.0,0.0,0.0,0.0,2.4,0.0,0.0,0.0,0.0,123.71
Salvador,19 BC,Salvador,Salvador - 19 BC,-12.961069,-38.461056,Recôncavo,RPGA do Recôncavo Norte,0.0,5.3,18.1,24.5,3.1,1.1,0.0,0.0,0.7,12.4,8.2,4.5,12.3,3.1,3.0,8.3,22.1,4.3,9.5,4.5,5.2,3.1,1.5,0.0,0.0,0.0,0.0,0.0,0.0,1.3,0.0,156.11
Salvador,Base Naval/SSN,Salvador,Salvador - Base Naval/SSN,-12.796341,-38.489389,Recôncavo,RPGA do Recôncavo Norte,0.0,3.0,17.2,1.2,2.6,0.0,0.0,0.0,0.3,0.1,0.0,0.0,0.3,3.5,0.3,0.0,8.2,0.1,2.4,0.0,0.0,0.2,0.0,0.0,0.0,0.0,2.3,11.3,1.5,0.0,0.1,54.6
Salvador,Ilha Amarela,Salvador,Salvador - Ilha Amarela,-12.891344,-38.470778,Recôncavo,RPGA do Recôncavo Norte,0.0,21.8,33.6,7.4,36.1,0.0,0.0,1.2,0.0,3.5,0.7,0.0,0.0,0.0,0.0,0.0,13.6,4.6,0.7,0.0,3.7,0.0,0.0,0.0,0.0,1.4,3.1,0.0,0.0,0.0,0.0,131.4
Feira de Santana,A413,Feira de Santana,Feira de Santana - A413,-12.1962,-38.967384,Recôncavo,RPGA do Recôncavo Norte,0.0,0.0,0.6,0.2,0.0,12.6,2.8,2.4,0.2,0.2,0.0,0.0,5.0,0.4,0.2,0.2,0.0,0.0,0.0,0.0,0.0,0.0,0.2,0.0,0.0,0.0,0.0,0.0,0.0,0.0,0.0,25.0
Alagoinhas,83249,Alagoinhas,Alagoinhas - 83249,-12.148333,-38.425556,Recôncavo,RPGA do Recôncavo Norte,0.0,2.7,13.9,0.4,2.4,0.0,0.0,0.0,0.0,0.0,0.0,0.4,0.0,0.4,0.0,0.0,8.7,0.0,0.7,0.5,0.0,0.0,0.0,0.0,0.0,0.0,0.0,0.0,0.2,0.0,0.2,30.5
Camaçari,83226,Camaçari,Camaçari - 83226,-12.701619,-38.334661,Recôncavo,RPGA do Recôncavo Norte,0.0,2.4,4.4,0.0,2.0,0.0,0.0,0.0,0.0,0.0,0.0,0.0,0.4,7.0,0.2,0.0,14.4,0.4,0.4,5.6,0.2,0.0,0.0,0.0,0.0,18.8,1.6,3.8,0.4,1.0,0.0,63.0
Cruz das Almas,83222,Cruz das Almas,Cruz das Almas - 83222,-12.666667,-39.083333,Recôncavo,RPGA do Rio Paraguaçu,0.0,0.0,9.8,1.1,0.0,0.0,0.0,0.0,0.0,0.7,0.0,0.0,0.0,0.0,0.0,0.0,12.5,0.0,0.0,0.0,0.0,1.2,0.0,0.0,1.4,0.0,0.0,0.0,0.0,0.2,0.0,26.9
Feira de Santana,83221,Feira de Santana,Feira de Santana - 83221,-12.196111,-38.967222,Recôncavo,RPGA do Recôncavo Norte,0.0,0.0,0.6,0.0,0.0,24.5,0.0,0.0,0.0,0.1,0.0,0.0,4.8,0.0,1.8,0.0,8.9,0.0,0.0,0.0,0.0,17.3,8.6,0.0,0.0,0.0,0.0,0.0,0.0,0.0,0.0,66.6
Santo Estêvão,EBDA,Santo Estêvão,Santo Estêvão - EBDA,-12.434665,-39.251074,Recôncavo,RPGA do Rio Paraguaçu,0.0,0.8,1.2,0.0,0.8,0.0,0.0,0.0,0.0,0.0,0.0,0.0,0.0,5.0,0.0,40.0,4.9,0.0,0.0,0.0,0.3,0.0,0.0,0.0,0.0,0.0,0.0,0.0,0.0,0.0,1.0,54.0
Amargosa,A434,Amargosa,Amargosa - A434,-13.009468,-39.616881,Recôncavo,RPGA do Recôncavo Sul,0.0,6.0,18.4,8.4,3.0,0.0,0.0,0.0,8.6,0.2,0.0,0.0,0.0,0.0,0.0,0.2,43.4,0.2,0.2,0.0,0.0,0.0,0.6,0.6,0.0,0.0,1.0,14.2,1.0,1.0,1.0,108.0
São Sebastião do Passé,EBDA,São Sebastião do Passé,São Sebastião do Passé - EBDA,-12.518004,-38.501056,Recôncavo,RPGA do Recôncavo Norte,0.0,0.0,0.0,0.0,0.0,0.0,0.0,8.0,8.4,8.0,0.0,9.3,0.0,2.0,9.3,8.3,27.4,1.7,1.7,0.0,12.5,0.0,0.0,0.0,0.0,0.0,0.0,0.0,0.0,0.0,22.0,118.6
Feira de Santana,Fz.C. Mocó - EBDA,Feira de Santana,Feira de Santana - Fz.C. Mocó - EBDA,-12.267996,-38.967732,Recôncavo,RPGA do Rio Paraguaçu,0.0,0.0,0.0,0.0,28.0,0.0,0.0,0.0,0.0,0.0,0.0,0.0,0.0,0.0,18.5,0.0,0.0,5.0,0.0,0.0,0.0,0.0,0.0,0.0,0.0,0.0,0.0,0.0,0.0,0.0,0.0,51.5
Conceição da Feira,EBDA,Conceição da Feira,Conceição da Feira - EBDA,-12.501335,-39.001068,Recôncavo,RPGA do Recôncavo Norte,0.0,0.0,0.3,0.0,0.0,0.0,0.0,0.0,0.0,0.0,0.0,0.0,0.0,0.0,0.0,54.0,0.0,0.0,0.0,0.0,12.0,0.0,0.0,0.0,0.0,0.0,0.0,0.0,0.0,0.0,0.0,66.3
Valença,A444,Valença,Valença - A444,-13.34361,-39.12667,Recôncavo,RPGA do Recôncavo Sul,0.6,18.6,16.8,12.4,1.2,7.2,0.2,0.0,37.6,1.8,6.0,0.4,5.4,0.4,2.2,0.2,16.0,0.4,13.0,0.0,0.0,6.2,6.0,2.0,0.2,1.0,6.8,11.4,1.8,4.4,2.4,182.61
Mata de São João,ETA - Embasa,Mata de São João,Mata de São João - ETA - Embasa,-12.394946,-37.934649,Recôncavo,RPGA do Recôncavo Norte,0.0,0.0,0.0,0.0,0.0,0.0,0.0,0.0,0.0,0.0,0.0,0.0,0.0,8.5,0.2,2.2,4.8,0.0,0.0,0.0,0.0,0.0,0.0,0.0,0.0,0.0,0.6,0.0,0.0,1.1,0.0,17.41
Candeias,EMBASA,Candeias,Candeias - EMBASA,-12.663561,-38.533,Recôncavo,RPGA do Recôncavo Norte,0.0,0.2,4.7,0.3,0.0,0.0,25.1,0.0,0.0,0.0,0.2,0.0,3.8,0.0,0.0,0.0,15.2,0.0,1.9,0.0,0.0,0.0,0.0,0.0,0.0,0.0,1.7,0.0,0.0,0.0,0.0,53.1
Dias D´Ávila,EMBASA,Dias D´Ávila,Dias D´Ávila - EMBASA,-12.620505,-38.315217,Recôncavo,RPGA do Recôncavo Norte,0.0,0.0,27.5,2.5,1.5,0.0,0.0,0.0,0.6,0.0,0.0,0.0,2.2,0.0,0.0,1.2,47.5,0.0,0.0,5.0,0.0,0.0,0.0,0.0,0.0,37.0,3.3,2.5,0.0,0.0,0.0,130.8
São Sebastião do Passé-EMBASA,,São Sebastião do Passé-EMBASA,São Sebastião do Passé-EMBASA,-12.517449,-38.492165,Recôncavo,RPGA do Recôncavo Norte,0.0,0.0,6.8,0.0,3.8,0.0,2.7,0.0,0.0,0.0,0.0,0.0,4.0,0.0,0.0,0.0,0.0,20.1,2.0,0.0,0.0,0.0,0.0,0.0,0.0,0.0,0.0,0.0,0.0,0.0,0.0,39.41
Joanes II,322,Simões Filho,Simões Filho (Joanes II) - 322,-12.674147,-38.376254,Recôncavo,RPGA do Recôncavo Norte,0.0,0.0,16.5,11.4,8.3,0.0,0.0,0.4,0.0,0.0,0.0,4.1,0.0,0.0,0.0,0.0,17.5,0.0,1.2,0.0,0.4,0.0,0.0,0.0,0.0,0.0,2.7,3.2,1.1,0.0,0.0,66.8
Santa Helena,323,Camaçari,Camaçari (Santa Helena) - 323,-12.56202,-38.1606,Recôncavo,RPGA do Recôncavo Norte,0.0,0.0,8.7,8.3,33.4,0.0,0.0,0.0,0.0,0.0,0.0,0.0,0.6,0.0,0.0,0.0,25.0,0.5,0.6,1.2,0.0,0.0,0.0,0.0,0.0,6.1,0.5,4.9,0.0,0.0,0.0,89.8
Pedrão,EBDA,Pedrão,Pedrão - EBDA,-12.151329,-38.651056,Recôncavo,RPGA do Recôncavo Norte,0.0,0.0,0.0,0.0,0.0,0.0,0.0,0.0,0.0,0.0,0.0,0.0,0.0,0.0,0.0,0.0,0.0,0.0,0.0,0.0,0.0,0.0,0.0,0.0,0.0,0.0,0.0,0.0,0.0,0.0,0.0,0.0
Ondina,83229,Salvador,Salvador (Ondina) - 83229,-13.005278,-38.505833,Recôncavo,RPGA do Recôncavo Norte,0.0,7.9,16.9,0.0,0.0,0.0,0.0,0.0,0.8,5.6,0.0,0.0,9.4,0.1,1.0,0.0,18.9,9.0,5.7,0.0,0.0,0.4,0.1,0.0,0.0,2.0,0.0,0.4,0.0,0.0,0.3,78.5
Feira de Santana,PG-PR-13,Feira de Santana,Feira de Santana - PG-PR-13,-12.268161,-38.96642,Recôncavo,RPGA do Rio Paraguaçu,0.0,0.25,12.5,3.0,2.5,8.0,0.0,0.0,0.0,0.0,0.0,0.0,0.5,0.0,7.75,0.0,23.5,0.0,0.0,0.0,0.0,24.0,0.0,0.0,0.0,0.0,0.0,0.0,0.0,0.0,0.0,82.0
Itatim,PG-PR-14,Itatim,Itatim - PG-PR-14,-12.720391,-39.700059,Recôncavo,RPGA do Rio Paraguaçu,0.0,0.0,8.75,1.0,0.0,2.75,3.75,1.25,1.25,0.0,3.0,0.0,0.0,1.5,0.75,0.0,16.0,0.0,0.0,0.0,0.0,1.25,0.0,0.0,0.0,0.0,0.75,0.0,0.0,0.0,0.0,42.0
Feira de Santana,DERBA,Feira de Santana,Feira de Santana - DERBA,-12.251329,-38.767728,Recôncavo,RPGA do Recôncavo Norte,0.0,0.0,0.0,0.0,16.2,0.0,0.0,0.0,0.0,0.0,0.0,0.0,2.6,0.0,2.4,3.0,8.3,0.0,0.0,0.0,0.0,11.0,4.2,0.0,0.0,0.0,0.0,0.0,0.0,0.0,0.0,47.7
Salvador,Itapuã - RN-CL-01,Salvador,Salvador - Itapuã - RN-CL-01,-12.931388,-38.361111,Recôncavo,RPGA do Recôncavo Norte,0.0,15.2,19.1,16.8,1.6,0.6,0.0,0.0,0.4,6.2,4.1,2.3,6.2,1.6,2.5,14.2,11.1,9.7,8.8,2.3,2.6,1.6,0.8,0.0,0.0,2.5,0.0,9.5,0.0,0.7,1.3,141.7
Muritiba,PG-PR-12,Muritiba,Muritiba - PG-PR-12,-12.617895,-39.005591,Recôncavo,RPGA do Rio Paraguaçu,0.0,0.25,3.25,0.5,0.0,0.0,0.0,0.0,0.0,0.0,0.0,0.0,0.5,0.0,0.0,0.0,21.0,0.0,0.0,0.0,0.0,11.25,0.0,0.0,0.0,0.0,0.0,0.0,0.0,0.0,1.25,38.0
Amargosa,EBDA,Amargosa,Amargosa - EBDA,-13.034677,-39.601086,Recôncavo,RPGA do Recôncavo Sul,0.0,10.0,11.0,0.0,1.5,0.0,0.0,3.0,12.0,0.0,0.0,0.0,0.0,0.0,0.0,46.0,0.0,0.0,0.0,0.0,0.0,0.0,0.0,0.0,0.0,0.0,8.0,1.3,0.0,0.0,0.0,92.8
Coração de Maria,EBDA,Coração de Maria,Coração de Maria - EBDA,-12.234663,-38.751059,Recôncavo,RPGA do Recôncavo Norte,0.0,0.0,0.0,0.0,0.0,0.0,0.0,0.0,0.0,0.0,0.0,20.5,0.0,0.0,16.0,9.1,0.0,0.0,0.0,0.0,0.0,0.0,0.0,0.0,0.0,0.0,0.0,0.0,0.0,0.0,0.0,45.6
Irará,EBDA,Irará,Irará - EBDA,-12.034659,-38.767726,Recôncavo,RPGA do Recôncavo Norte,0.0,6.0,0.0,0.0,65.0,0.0,0.0,0.0,0.0,0.0,0.0,0.0,0.0,0.0,0.0,7.0,0.0,0.0,0.0,0.0,0.0,0.0,0.0,0.0,0.0,0.0,0.0,0.0,0.0,0.0,0.0,78.0
Santo Amaro,EBDA,Santo Amaro,Santo Amaro - EBDA,-12.551335,-38.701059,Recôncavo,RPGA do Recôncavo Norte,0.0,0.0,0.0,0.0,0.0,0.0,0.0,0.0,0.0,0.0,0.0,0.0,0.0,0.0,0.0,0.0,0.0,0.0,0.0,0.0,0.0,0.0,0.0,0.0,0.0,0.0,0.0,0.0,0.0,0.0,22.0,22.0
Conceição de Jacuípe,EBDA,Conceição de Jacuípe,Conceição de Jacuípe - EBDA,-12.317998,-38.767728,Recôncavo,RPGA do Recôncavo Norte,0.0,0.0,0.0,0.0,0.0,12.0,0.0,0.0,0.0,0.0,0.0,0.0,0.0,0.0,0.0,0.0,0.0,0.0,0.0,0.0,0.0,0.0,0.0,0.0,0.0,0.0,0.0,0.0,0.0,0.0,0.0,12.0
Itaparica,EBDA,Itaparica,Itaparica - EBDA,-12.884677,-38.684395,Recôncavo,RPGA do Recôncavo Sul,8.0,2.5,5.5,0.0,0.0,0.0,0.0,0.0,2.5,5.0,0.0,12.8,0.0,0.0,0.0,14.0,0.0,1.8,0.0,0.0,0.0,0.0,0.0,0.0,14.2,0.0,0.0,0.0,0.0,0.0,0.0,66.3
Muritiba,EBDA,Muritiba,Muritiba - EBDA,-12.618004,-38.984401,Recôncavo,RPGA do Rio Paraguaçu,0.0,7.5,0.0,0.0,0.0,0.0,0.0,0.0,0.0,0.0,0.0,0.0,0.0,0.0,0.0,20.0,12.5,0.0,0.0,0.0,0.0,0.0,0.0,0.0,0.0,0.0,0.0,0.0,0.0,2.0,0.0,42.0
Santo Antônio de Jesus,EBDA,Santo Antônio de Jesus,Santo Antônio de Jesus - EBDA,-12.96801,-39.267744,Recôncavo,RPGA do Recôncavo Sul,0.0,27.0,0.0,0.0,0.0,0.0,0.0,0.0,7.0,0.0,0.0,0.0,0.0,0.0,0.0,32.0,0.0,6.0,0.0,0.0,0.0,0.0,0.0,0.0,0.0,11.5,0.0,0.0,0.0,0.0,0.0,83.5
Valença,EBDA,Valença,Valença - EBDA,-13.368019,-39.06774,Recôncavo,RPGA do Recôncavo Sul,0.0,0.0,2.0,8.0,3.0,0.0,0.0,0.0,0.0,7.0,0.0,38.0,0.0,0.0,0.0,0.0,0.0,0.0,0.0,0.0,0.0,0.0,0.0,0.0,0.0,0.0,0.0,0.0,0.0,0.0,0.0,58.0
Ubaíra,EBDA,Ubaíra,Ubaíra - EBDA,-13.268014,-39.667756,Recôncavo,RPGA do Recôncavo Sul,0.0,2.0,8.0,3.0,0.0,0.0,0.0,0.0,7.0,0.0,38.0,0.0,0.0,0.0,0.0,0.0,0.0,3.0,0.0,0.0,0.0,0.0,0.0,0.0,0.0,0.0,0.0,0.0,0.0,0.0,0.0,61.0
Castro Alves,EBDA,Castro Alves,Castro Alves - EBDA,-12.751338,-39.434413,Recôncavo,RPGA do Rio Paraguaçu,0.0,0.0,17.0,0.0,0.0,0.0,0.0,0.0,0.0,0.0,0.0,0.0,9.0,0.0,0.0,0.0,30.0,0.0,0.0,0.0,0.0,0.0,0.0,0.0,0.0,8.5,0.0,0.0,0.0,0.0,0.0,64.5
Cruz das Almas,EBDA,Cruz das Almas,Cruz das Almas - EBDA,-12.668004,-39.101071,Recôncavo,RPGA do Rio Paraguaçu,0.0,0.0,7.3,0.0,0.0,0.0,0.0,0.0,0.0,0.0,0.0,0.0,0.0,0.0,0.0,16.5,0.0,0.0,0.0,0.0,0.0,0.0,0.0,0.0,0.0,0.0,0.0,0.0,0.0,0.0,0.0,23.8
Conceição do Almeida,EBDA,Conceição do Almeida,Conceição do Almeida - EBDA,-12.768005,-39.16774,Recôncavo,RPGA do Recôncavo Sul,0.0,12.5,10.0,0.0,0.0,0.0,0.0,0.0,0.0,0.0,0.0,0.0,0.0,0.0,0.0,27.5,0.0,0.0,2.5,0.0,0.0,0.0,0.0,0.0,0.0,5.0,0.0,0.0,0.0,0.0,0.0,57.5
Alagoinhas,EBDA,Alagoinhas,Alagoinhas - EBDA,-12.134662,-38.434384,Recôncavo,RPGA do Recôncavo Norte,0.0,0.0,0.0,0.0,0.0,0.0,0.0,0.0,0.0,0.0,0.0,0.0,0.0,0.0,0.0,0.0,0.0,0.0,0.0,0.0,0.0,0.0,0.0,0.0,0.0,0.0,0.0,0.0,0.0,0.0,0.0,0.0
Aramari,EBDA,Aramari,Aramari - EBDA,-12.08466,-38.501053,Recôncavo,RPGA do Recôncavo Norte,0.0,0.0,0.0,0.0,17.0,0.0,0.0,0.0,0.0,0.0,0.0,0.0,0.0,0.0,0.0,5.8,0.0,0.0,0.0,0.0,0.0,0.0,0.0,0.0,0.0,0.0,0.0,0.0,0.0,0.0,32.0,54.8
Mata de São João,EBDA,Mata de São João,Mata de São João - EBDA,-12.534671,-38.30105,Recôncavo,RPGA do Recôncavo Norte,0.0,0.0,0.0,0.0,0.0,0.0,0.0,0.0,0.0,0.0,0.0,0.0,0.0,0.0,0.0,0.0,0.0,0.0,0.0,0.0,0.0,0.0,0.0,0.0,0.0,0.0,0.0,0.0,0.0,0.0,0.0,0.0
Catu,EBDA,Catu,Catu - EBDA,-12.351333,-38.384384,Recôncavo,RPGA do Recôncavo Norte,0.0,0.0,0.0,55.0,0.0,0.0,0.0,0.0,0.0,0.0,0.0,0.0,0.0,0.0,10.0,0.0,0.0,0.0,0.0,0.0,0.0,0.0,0.0,0.0,0.0,0.0,0.0,0.0,0.0,70.0,0.0,135.0
Salvador,CIA,Salvador,Salvador - CIA,-12.865789,-38.365219,Recôncavo,RPGA do Recôncavo Norte,0.0,25.0,20.0,9.0,0.0,0.0,0.0,0.0,0.0,0.0,0.0,0.0,0.0,0.0,2.0,20.0,0.0,15.0,8.0,0.0,0.0,0.0,0.0,0.0,0.0,5.0,0.0,19.0,0.0,0.0,0.0,123.0
Feira de Santana,EBDA,Feira de Santana,Feira de Santana - EBDA,-12.268274,-38.96801,Recôncavo,RPGA do Rio Paraguaçu,0.0,0.0,0.0,18.4,7.0,0.0,0.0,0.0,0.0,0.0,0.0,10.0,0.0,0.0,0.0,0.0,0.0,0.0,0.0,0.0,0.0,0.0,0.0,0.0,0.0,0.0,0.0,0.0,0.0,0.0,0.0,35.4
Abaeté,RN-PR-01,Salvador,Salvador (Abaeté) - RN-PR-01,-12.945407,-38.361404,Recôncavo,RPGA do Recôncavo Norte,0.0,5.2,32.0,1.4,1.2,0.0,0.0,1.4,3.3,7.2,2.2,0.0,1.1,0.4,0.1,0.0,30.4,0.0,13.2,0.0,0.4,0.0,0.0,0.0,0.1,5.4,0.0,0.0,0.0,1.0,0.0,106.01
Rio Seco,EBDA,Amélia Rodrigues,Amélia Rodrigues (Rio Seco) - EBDA,-12.400777,-38.758839,Recôncavo,RPGA do Recôncavo Norte,0.0,0.0,6.0,5.0,0.0,0.0,1.0,0.0,0.0,0.0,0.0,0.0,0.0,0.0,0.0,36.0,0.0,0.0,0.0,0.0,40.4,0.0,0.0,0.0,0.0,0.0,0.0,0.0,0.0,0.0,0.0,88.4
Espinheira,,Espinheira,Espinheira,-14.283478,-41.75792,Sudoeste,RPGA do Rio de Contas,0.25,0.0,2.0,0.0,0.0,0.0,0.0,0.0,0.0,0.0,0.0,0.0,0.0,0.0,0.0,0.0,0.0,0.0,0.0,0.0,0.0,0.0,0.0,0.0,0.0,0.0,0.0,0.0,0.0,0.0,0.0,2.25
Maracás,EBDA,Maracás,Maracás - EBDA,-13.43468,-40.434443,Sudoeste,RPGA do Rio de Contas,0.0,17.0,0.0,64.0,0.0,0.0,0.0,0.0,0.0,0.0,0.0,8.0,0.0,0.0,0.0,0.0,0.0,0.0,0.0,0.0,0.0,0.0,0.0,0.0,0.0,0.0,0.0,0.0,0.0,0.0,0.0,89.0
Tanhaçu,EBDA,Tanhaçu,Tanhaçu - EBDA,-14.018022,-41.234467,Sudoeste,RPGA do Rio de Contas,0.0,0.0,0.0,0.0,0.0,0.0,0.0,0.0,0.0,0.0,0.0,0.0,0.0,0.0,0.0,0.0,0.0,0.0,0.0,0.0,0.0,0.0,0.0,0.0,0.0,0.0,0.0,0.0,0.0,0.0,0.0,0.0
Anagé,EBDA,Anagé,Anagé - EBDA,-14.618034,-41.134467,Sudoeste,RPGA do Rio de Contas,0.0,17.0,22.0,0.0,0.0,0.0,0.0,0.0,0.0,2.0,0.0,0.0,0.0,0.0,0.0,0.0,0.0,0.0,0.0,0.0,0.0,0.0,0.0,0.0,0.0,0.0,0.0,0.0,0.0,0.0,0.0,41.0
Cândido Sales,EBDA,Cândido Sales,Cândido Sales - EBDA,-15.501383,-41.234473,Sudoeste,RPGA do Rio Pardo,0.0,0.0,2.2,0.0,0.0,0.0,16.5,0.0,0.0,0.0,0.0,0.0,2.0,0.0,0.0,0.0,0.0,0.0,0.0,0.0,0.0,0.0,0.0,0.0,0.0,0.0,0.0,0.0,0.0,0.0,0.0,20.7
Ibicuí,EBDA,Ibicuí,Ibicuí - EBDA,-14.83471,-39.984437,Sudoeste,RPGA do Rio de Contas,0.0,0.0,0.0,0.0,0.0,0.0,0.0,0.0,0.0,0.0,0.0,0.0,0.0,0.0,0.0,0.0,0.0,0.0,0.0,0.0,0.0,0.0,0.0,0.0,0.0,0.0,0.0,0.0,0.0,0.0,0.0,0.0
Itapetinga,EBDA,Itapetinga,Itapetinga - EBDA,-15.251383,-40.251113,Sudoeste,RPGA do Rio Pardo,0.0,0.0,0.0,7.0,0.0,0.0,0.0,6.6,0.0,0.0,0.0,0.0,0.0,0.0,0.0,0.0,0.0,0.0,0.0,0.0,0.0,0.0,0.0,0.0,0.0,0.0,0.0,0.0,0.0,0.0,0.0,13.6
Itarantim,EBDA,Itarantim,Itarantim - EBDA,-15.651392,-40.067777,Sudoeste,RPGA do Rio Pardo,0.0,0.0,5.0,0.0,0.0,0.0,0.0,0.0,0.0,0.0,0.0,0.0,0.0,0.0,0.0,0.0,0.0,0.0,0.0,0.0,0.0,0.0,0.0,0.0,0.0,0.0,0.0,5.0,0.0,0.0,0.0,10.0
Macarani,EBDA,Macarani,Macarani - EBDA,-15.568056,-40.417786,Sudoeste,RPGA do Rio Pardo,0.0,0.0,0.0,10.0,0.0,0.0,0.0,0.0,0.0,0.0,0.0,0.0,0.0,0.0,7.0,0.0,0.0,10.0,0.0,0.0,0.0,15.0,0.0,0.0,0.0,0.0,5.0,3.0,0.0,0.0,0.0,50.0
Itambé,,Itambé,Itambé,-15.251383,-40.631122,Sudoeste,RPGA do Rio Pardo,2.0,0.0,0.0,1.0,0.0,0.0,0.0,1.0,0.0,0.0,0.0,0.0,0.0,4.0,0.0,0.0,0.0,1.0,0.0,0.0,0.0,0.0,4.0,0.0,0.0,0.0,0.0,0.0,0.0,0.0,0.0,13.0
Vitória da Conquista,EBDA,Vitória da Conquista,Vitória da Conquista - EBDA,-14.851374,-40.834461,Sudoeste,RPGA do Rio Pardo,0.0,0.0,0.0,0.0,0.0,0.0,0.0,0.0,0.0,0.0,0.0,0.0,0.0,0.0,0.0,0.0,0.0,0.0,0.0,0.0,0.0,0.0,0.0,0.0,0.0,0.0,0.0,0.0,0.0,0.0,0.0,0.0
Santo Antônio,Tanhaçu,Santo Antônio,Santo Antônio - Tanhaçu,-14.271359,-41.284468,Sudoeste,RPGA do Rio de Contas,3.0,0.0,6.0,0.0,0.0,0.0,0.0,0.0,0.0,0.0,0.0,0.0,0.0,3.0,0.0,0.0,0.0,0.0,0.0,1.0,0.0,0.0,0.0,0.0,0.0,0.0,0.0,0.0,0.0,0.0,0.0,13.0
Itiruçu,A407,Itiruçu,Itiruçu - A407,-13.52629,-40.12055,Sudoeste,RPGA do Recôncavo Sul,0.0,0.6,3.2,6.6,0.0,0.4,0.0,0.0,0.4,0.0,2.8,0.0,32.8,2.6,0.0,0.2,2.0,0.4,0.0,0.0,0.0,1.2,2.6,0.2,0.0,0.0,0.0,0.0,0.0,0.2,0.0,56.21
Vitória da Conquista,A414,Vitória da Conquista,Vitória da Conquista - A414,-14.886428,-40.80133,Sudoeste,RPGA do Rio Pardo,0.0,0.4,1.6,1.0,0.0,0.0,30.4,1.0,0.0,0.0,0.4,0.0,0.0,9.0,0.0,0.0,0.2,0.0,0.0,0.0,0.0,0.0,4.4,0.2,0.0,1.4,0.0,0.0,0.0,0.0,0.4,50.4
Condeúba,EBDA,Condeúba,Condeúba - EBDA,-14.884701,-41.984489,Sudoeste,RPGA do Rio de Contas,0.0,0.0,0.0,0.0,0.0,0.0,0.0,0.0,0.0,0.0,0.0,10.5,0.0,0.0,0.0,0.0,0.0,0.0,0.0,0.0,0.0,7.5,0.0,0.0,0.0,0.0,0.0,0.0,0.0,0.0,0.0,18.0
Brumado,EBDA,Brumado,Brumado - EBDA,-14.201356,-41.651143,Sudoeste,RPGA do Rio de Contas,0.0,0.0,0.0,0.2,0.0,0.0,0.0,0.0,0.0,0.0,0.0,0.0,0.0,0.0,0.0,0.0,0.0,0.0,0.0,0.0,0.0,0.0,7.5,0.0,0.0,0.0,0.0,0.0,0.0,0.0,0.0,7.7
Ituaçu,83292,Ituaçu,Ituaçu - 83292,-13.812778,-41.3,Sudoeste,RPGA do Rio de Contas,0.0,0.0,0.0,0.0,0.0,0.0,0.0,0.0,0.0,0.0,0.0,0.0,0.0,0.0,0.0,0.0,0.0,0.0,0.0,0.0,0.0,0.0,4.1,0.0,0.0,0.0,0.0,0.0,0.0,0.0,0.0,4.1
Vitória da Conquista,83344,Vitória da Conquista,Vitória da Conquista - 83344,-14.883333,-40.8,Sudoeste,RPGA do Rio Pardo,0.0,0.4,1.1,0.6,0.0,0.0,32.2,1.1,0.0,0.0,0.0,0.0,0.0,9.3,0.0,0.0,0.0,0.0,0.0,0.0,0.0,0.0,5.0,0.0,0.0,0.0,0.0,0.0,0.4,0.0,0.0,50.1
Jaguaquara,83295,Ituruçu,Ituruçu (Jaguaquara) - 83295,-13.527828,-40.119752,Sudoeste,RPGA do Recôncavo Sul,0.0,0.4,2.8,6.2,0.0,0.3,0.0,0.0,0.2,0.0,2.1,0.0,32.8,2.1,0.0,0.0,1.9,0.0,0.0,0.0,0.0,0.2,2.8,0.0,0.0,0.0,0.0,0.0,0.0,0.0,0.0,51.8
Brumado,A433,Brumado,Brumado - A433,-14.181886,-41.672281,Sudoeste,RPGA do Rio de Contas,5.4,0.0,6.6,0.0,0.0,0.0,0.0,0.0,0.0,0.0,0.0,0.0,0.0,0.0,0.0,0.0,0.0,0.0,0.0,0.0,0.0,0.0,0.0,0.0,0.0,0.0,0.0,0.0,0.0,0.0,0.0,12.0
Jequié,EBDA,Jequié,Jequié - EBDA,-13.851356,-40.084435,Sudoeste,RPGA do Rio de Contas,0.0,20.0,0.0,0.0,0.0,10.0,0.0,0.0,0.0,5.0,0.0,30.0,0.0,0.0,0.0,0.0,10.0,0.0,0.0,0.0,0.0,0.0,0.0,0.0,0.0,0.0,0.0,0.0,0.0,0.0,0.0,75.0
Ipiaú,A445,Ipiaú,Ipiaú - A445,-14.171304,-39.692502,Sudoeste,RPGA do Rio de Contas,0.0,2.6,5.4,4.2,0.0,0.6,0.0,1.8,0.2,0.0,4.0,0.8,0.0,0.2,0.0,0.0,1.6,0.0,0.0,0.0,0.0,0.6,4.6,18.0,0.0,0.0,1.2,3.0,0.6,1.4,2.4,53.2
Itapetinga,A446,Itapetinga,Itapetinga - A446,-15.24462,-40.22955,Sudoeste,RPGA do Rio Pardo,0.0,0.0,0.0,26.0,0.6,0.0,0.0,2.0,0.4,0.0,0.6,0.0,0.0,3.6,0.0,0.0,0.0,0.0,0.0,0.0,0.0,0.0,1.2,0.0,0.6,0.0,0.0,0.0,0.0,1.0,0.2,36.21
Malhada de Pedras,EBDA,Malhada de Pedras,Malhada de Pedras - EBDA,-14.389415,-41.880318,Sudoeste,RPGA do Rio de Contas,0.0,0.0,0.0,0.0,0.0,5.0,6.0,17.0,0.0,0.0,0.0,0.0,0.0,0.0,0.0,0.0,0.0,0.0,0.0,0.0,0.0,0.0,0.0,0.0,0.0,0.0,0.0,0.0,0.0,0.0,0.0,28.0
Tremedal,EBDA,Tremedal,Tremedal - EBDA,-14.977207,-41.411976,Sudoeste,RPGA do Rio de Contas,1.5,4.25,0.0,0.0,0.0,0.0,0.0,0.0,0.0,0.0,0.0,0.0,0.0,0.0,0.0,0.0,0.0,0.0,0.0,0.0,0.0,1.0,0.0,0.0,0.0,0.0,0.0,0.0,0.0,0.0,0.0,6.75
Itiruçu,EBDA,Itiruçu,Itiruçu - EBDA,-13.534683,-40.151101,Sudoeste,RPGA do Rio de Contas,0.0,0.0,0.0,0.0,0.0,0.0,0.0,0.0,0.0,0.0,0.0,50.0,0.0,0.0,0.0,0.0,0.0,0.0,0.0,0.0,0.0,0.0,10.0,0.0,0.0,0.0,0.0,0.0,0.0,0.0,0.0,60.0
Ipiaú,EBDA,Ipiaú,Ipiaú - EBDA,-14.134698,-39.734428,Sudoeste,RPGA do Rio de Contas,0.0,9.8,4.2,2.3,0.3,1.1,0.0,0.0,1.3,1.6,4.1,2.5,0.0,0.0,0.0,2.6,1.5,0.0,1.5,0.0,0.0,1.0,1.9,1.9,0.0,0.0,0.0,1.0,0.4,0.0,0.0,39.0
Jaguaquara,EBDA,Jaguaquara,Jaguaquara - EBDA,-13.534684,-39.984431,Sudoeste,RPGA do Recôncavo Sul,0.0,2.0,0.0,0.0,7.5,0.0,3.0,0.0,6.0,0.0,0.0,48.0,0.0,0.0,0.0,0.0,0.0,0.0,0.0,0.0,0.0,22.5,0.0,0.0,0.0,0.0,0.0,0.0,0.0,0.0,0.0,89.0
Anagé,CO-CL-01,Anagé,Anagé - CO-CL-01,-14.618055,-41.149722,Sudoeste,RPGA do Rio de Contas,18.75,0.0,3.5,23.0,0.0,0.0,0.0,0.0,0.0,0.5,0.0,0.0,0.0,0.0,0.0,0.0,0.0,0.0,0.0,0.0,0.0,0.0,0.5,0.0,0.0,0.0,0.0,0.0,0.0,0.0,0.0,46.25
Brumado,CO-CL-02,Brumado,Brumado - CO-CL-02,-14.207222,-41.778055,Sudoeste,RPGA do Rio de Contas,0.0,0.0,2.0,0.0,0.0,0.0,0.0,0.0,0.0,0.0,7.5,0.0,0.0,0.0,0.0,0.0,0.0,0.0,0.0,0.0,0.0,0.0,0.25,0.0,0.0,0.0,0.0,0.0,0.0,0.0,0.0,9.75
Planaltino,PG-PR-03,Planaltino,Planaltino - PG-PR-03,-13.259292,-40.373976,Sudoeste,RPGA do Recôncavo Sul,3.25,6.75,3.0,0.0,0.75,0.0,0.25,11.25,1.0,0.25,0.0,0.0,19.75,20.75,2.0,0.0,1.0,0.25,0.0,0.0,13.75,0.25,29.75,7.25,0.25,0.0,25.75,11.25,1.5,0.0,0.0,160.0
Jaguaquara,RS-CL-01,Jaguaquara,Jaguaquara - RS-CL-01,-13.573055,-39.940833,Sudoeste,RPGA do Recôncavo Sul,0.0,1.0,2.0,1.75,0.0,21.75,5.75,1.75,3.5,0.0,0.25,0.25,6.0,0.0,0.0,0.0,8.5,0.25,0.0,0.0,0.0,0.0,3.25,0.75,0.0,0.0,0.0,5.5,0.25,0.0,0.0,62.5
Jequié,CO-CL-03,Jequié,Jequié - CO-CL-03,-13.873055,-40.071944,Sudoeste,RPGA do Rio de Contas,0.0,0.25,9.75,0.0,0.0,7.5,0.0,0.0,1.0,0.0,0.0,1.0,23.0,0.1,0.1,0.1,3.0,0.0,0.1,0.0,0.0,0.0,0.0,4.6,3.1,1.6,0.0,0.0,0.0,0.5,0.2,55.91
Vitória da Conquista,PA-CL-01,Vitória da Conquista,Vitória da Conquista - PA-CL-01,-14.886111,-40.800833,Sudoeste,RPGA do Rio Pardo,0.0,0.25,1.25,0.75,0.0,0.0,31.25,0.75,0.0,0.0,0.25,0.0,0.0,8.0,0.0,0.0,0.0,0.0,0.0,0.0,0.0,0.0,4.0,0.0,0.0,1.25,0.0,0.0,0.0,0.0,0.0,47.75
Tremedal,CO-PR-03,Tremedal,Tremedal - CO-PR-03,-14.980998,-41.410135,Sudoeste,RPGA do Rio de Contas,4.25,1.5,4.25,0.0,0.0,0.0,0.0,0.0,0.0,0.0,0.0,0.0,0.0,0.0,0.0,0.0,0.0,0.0,0.0,0.0,0.0,0.75,1.0,0.0,0.0,0.0,0.0,0.0,0.0,0.0,0.0,11.75
Barra do Choça,EBDA,Barra do Choça,Barra do Choça - EBDA,-14.868041,-40.651122,Sudoeste,RPGA do Rio Pardo,0.0,0.0,5.0,0.0,0.0,0.0,0.0,0.0,0.0,0.0,0.0,0.0,0.0,0.0,0.0,0.0,0.0,0.0,0.0,0.0,0.0,0.0,0.0,0.0,0.0,0.0,0.0,0.0,0.0,0.0,0.0,5.0
Fz Nanci,53880000,Camacã,Camacã (Fz Nanci) - 53880000,-15.581395,-39.521095,Sul,RPGA do Rio Pardo,0.0,0.0,0.0,0.0,0.0,0.0,0.0,0.0,8.0,0.0,0.0,0.0,0.0,0.0,0.0,0.0,0.0,0.0,2.0,0.0,4.0,0.0,0.0,0.0,1.0,0.0,0.0,0.0,4.0,0.0,1.0,20.0
Potiraguá,EBDA,Potiraguá,Potiraguá - EBDA,-15.601392,-39.867771,Sul,RPGA do Rio Pardo,0.0,0.0,0.0,0.0,0.0,0.0,0.0,0.0,0.0,0.0,0.0,0.0,0.0,0.0,0.0,0.0,0.0,0.0,0.0,0.0,0.0,0.0,0.0,0.0,0.0,0.0,0.0,0.0,0.0,0.0,0.0,0.0
Caravelas,A405,Caravelas,Caravelas - A405,-17.739413,-39.258617,Sul,"RPGA dos Rios Peruípe, Itanhém e Jucuruçu",0.0,0.0,0.0,0.0,0.0,0.0,0.0,0.0,0.0,0.6,0.2,0.0,0.0,0.0,0.0,0.4,0.0,0.0,0.0,0.0,0.0,0.0,4.4,0.2,0.0,0.0,13.2,0.8,0.8,0.2,0.0,20.8
Canavieiras,83398,Canavieiras,Canavieiras - 83398,-15.666667,-38.95,Sul,RPGA do Rio Pardo,11.8,0.0,5.2,0.0,2.2,0.0,0.0,2.8,0.0,0.0,3.1,0.0,0.0,1.4,0.0,0.0,0.0,0.0,3.2,0.0,0.0,1.9,0.0,0.0,0.0,0.0,2.4,3.5,0.0,1.5,0.0,39.0
Caravelas,83498,Caravelas,Caravelas - 83498,-17.739167,-39.258333,Sul,"RPGA dos Rios Peruípe, Itanhém e Jucuruçu",0.0,0.0,0.0,0.0,0.0,0.0,0.0,0.0,0.0,0.6,0.0,0.0,0.0,0.0,0.0,0.2,0.0,0.0,0.0,0.0,0.0,0.0,4.2,0.0,0.0,0.0,13.2,0.6,0.8,0.0,0.0,19.6
Guaratinga,83446,Guaratinga,Guaratinga - 83446,-16.58,-39.78,Sul,"RPGA dos Rios dos Frades, Buranhém e Santo Antônio",2.4,0.0,0.0,0.0,0.0,2.4,0.0,0.0,0.3,2.1,2.8,0.0,0.0,18.3,0.0,5.6,0.0,0.0,2.0,0.0,0.0,0.0,0.0,0.2,3.3,0.0,0.6,9.9,4.0,0.0,0.0,53.9
Teixeira de Freitas,DERBA,Teixeira de Freitas,Teixeira de Freitas - DERBA,-17.5681,-39.234434,Sul,"RPGA dos Rios Peruípe, Itanhém e Jucuruçu",0.0,5.0,3.0,5.0,0.0,0.0,0.0,0.0,0.0,0.0,0.0,0.0,0.0,0.0,0.0,0.0,0.0,0.0,0.0,0.0,0.0,0.0,0.0,0.0,0.0,0.0,0.0,0.0,0.0,0.0,0.0,13.0
Maraú,A438,Maraú,Maraú - A438,-13.90694,-38.97222,Sul,RPGA do Recôncavo Sul,0.6,35.0,7.8,38.6,6.2,0.0,0.0,0.0,4.2,2.8,2.4,12.0,24.0,9.0,1.8,2.8,17.4,0.0,5.8,0.0,0.0,3.0,2.2,1.0,0.0,0.2,0.2,1.8,0.0,1.2,2.6,182.61
Una,A437,Una,Una - A437,-15.280215,-39.09127,Sul,RPGA do Leste,0.2,0.0,5.2,3.2,1.4,0.4,0.0,0.4,8.4,1.4,1.4,0.2,0.2,0.2,0.2,2.2,14.6,0.0,5.2,0.0,4.0,0.2,6.8,0.8,0.6,0.2,1.4,3.6,1.4,3.4,0.8,68.0
Porto Seguro,A427,Porto Seguro,Porto Seguro - A427,-16.388977,-39.182389,Sul,"RPGA dos Rios dos Frades, Buranhém e Santo Antônio",0.2,0.0,0.4,0.0,0.0,0.0,0.0,0.0,0.0,0.8,2.2,0.0,0.0,0.0,0.2,0.0,0.0,0.0,7.0,0.0,0.0,0.0,0.0,0.4,2.0,3.6,0.4,18.2,10.4,1.4,1.6,48.8
Abrolhos,A422,Caravelas,Caravelas (Abrolhos) - A422,-17.79052,-39.22789,Sul,"RPGA dos Rios Peruípe, Itanhém e Jucuruçu",0.0,0.0,0.0,0.0,0.0,0.0,0.0,1.2,0.0,0.0,0.0,0.0,0.0,0.0,0.0,0.0,0.0,0.0,12.2,0.0,2.4,0.0,7.2,1.2,0.0,0.0,8.2,0.0,0.0,0.2,0.0,32.6
Belmonte,A447,Belmonte,Belmonte - A447,-16.08487,-39.21726,Sul,"RPGA dos Rios dos Frades, Buranhém e Santo Antônio",0.0,0.0,0.0,0.0,0.6,0.2,0.0,0.4,0.0,0.0,0.2,0.0,0.0,1.8,0.0,0.0,0.6,0.0,5.2,1.0,2.4,0.0,4.4,0.2,0.0,0.0,0.0,6.2,0.0,4.8,0.0,28.0
Teixeira de Freitas,EBDA,Teixeira de Freitas,Teixeira de Freitas - EBDA,-17.534762,-39.734446,Sul,"RPGA dos Rios Peruípe, Itanhém e Jucuruçu",0.0,0.0,0.25,7.75,0.0,0.0,0.0,0.0,0.75,0.0,0.0,0.0,0.0,0.0,0.0,0.0,0.0,0.0,0.0,0.0,0.0,0.0,0.0,0.5,0.0,0.0,0.0,0.75,0.25,0.0,0.0,10.25
Eunápolis,EBDA,Eunápolis,Eunápolis - EBDA,-16.368074,-39.567768,Sul,"RPGA dos Rios dos Frades, Buranhém e Santo Antônio",0.0,0.0,1.5,0.0,0.0,0.0,1.5,3.0,0.0,0.0,0.25,0.0,0.0,0.0,0.0,0.0,0.0,0.0,4.5,0.0,0.0,0.0,0.0,0.0,0.0,0.0,0.0,4.75,0.0,0.0,0.0,15.5
Itanhém,EBDA,Itanhém,Itanhém - EBDA,-17.134752,-40.334459,Sul,"RPGA dos Rios Peruípe, Itanhém e Jucuruçu",0.0,0.0,0.0,0.0,0.0,0.0,0.5,0.0,0.0,0.0,0.0,0.0,0.0,0.0,0.0,0.0,0.0,0.0,0.0,0.0,0.0,0.0,0.0,0.0,1.0,0.0,0.0,0.0,0.0,0.0,0.0,1.5
Itamaraju,EBDA,Itamaraju,Itamaraju - EBDA,-17.068089,-39.534438,Sul,"RPGA dos Rios Peruípe, Itanhém e Jucuruçu",0.0,0.0,0.0,8.5,0.0,0.0,0.0,0.0,1.0,1.0,0.0,0.0,0.0,0.0,0.0,1.0,1.0,0.0,3.0,0.0,0.0,0.0,0.0,0.0,0.0,0.0,5.0,1.0,0.0,2.0,0.0,23.5
Eunápolis,FB-CL-01,Eunápolis,Eunápolis - FB-CL-01,-16.290555,-39.579722,Sul,"RPGA dos Rios dos Frades, Buranhém e Santo Antônio",0.0,0.0,1.5,0.0,0.0,0.0,1.5,3.0,0.0,0.0,0.25,0.0,0.0,0.0,0.0,0.0,0.0,0.0,4.5,0.0,0.0,0.0,0.0,0.0,0.0,0.0,0.0,4.75,0.0,0.0,0.0,15.5
CPLAC,LE-CL-01,Ilhéus,Ilhéus (CPLAC) - LE-CL-01,-14.80184,-39.181444,Sul,RPGA do Leste,0.0,27.75,3.0,2.5,0.25,0.0,0.0,1.5,13.25,0.75,11.25,0.25,9.25,0.0,0.0,0.75,2.25,0.5,1.5,0.0,1.75,0.5,7.75,4.75,0.0,0.25,3.25,9.75,1.75,0.75,0.25,105.5
Teixeira de Freitas,PJ-CL-01,Teixeira de Freitas,Teixeira de Freitas - PJ-CL-01,-17.575555,-39.732777,Sul,"RPGA dos Rios Peruípe, Itanhém e Jucuruçu",0.0,0.0,0.25,7.75,0.0,0.0,0.0,0.0,0.75,0.0,0.0,0.0,0.0,0.0,0.0,0.0,0.0,0.0,0.0,0.0,0.0,0.0,0.0,0.5,0.0,0.0,0.0,0.75,0.25,0.0,0.0,10.25
SEDE,EBDA,Angical,Angical (SEDE) - EBDA,-12.001302,-44.684543,São Francisco,RPGA do Rio Grande,0.0,0.0,0.0,3.5,0.0,0.0,0.0,4.2,0.0,0.0,0.0,0.0,0.0,0.0,0.0,0.0,0.0,0.0,0.0,24.0,18.5,0.0,0.0,10.5,0.0,0.0,0.0,0.0,0.0,0.0,0.0,60.7
SEDE,EBDA,Baianópolis,Baianópolis (SEDE) - EBDA,-12.301308,-44.53454,São Francisco,RPGA do Rio Grande,18.0,0.0,0.0,0.0,0.0,0.0,0.0,3.0,0.0,0.0,0.0,0.0,0.0,0.0,0.0,0.0,0.0,0.0,0.0,0.0,0.0,0.0,3.0,3.0,7.0,0.0,0.0,0.0,0.0,0.0,0.0,34.0
SEDE,EBDA,Cristópolis,Cristópolis (SEDE) - EBDA,-12.217972,-44.434539,São Francisco,RPGA do Rio Grande,2.4,0.0,0.0,0.0,0.0,0.0,0.0,0.0,3.3,0.0,0.0,0.0,0.0,0.0,0.0,0.0,0.0,0.0,0.0,7.7,0.0,0.0,22.5,9.2,0.0,14.0,0.0,0.0,0.0,0.0,0.0,59.1
SEDE,,Santa Rita de Cássia,Santa Rita de Cássia (SEDE),-11.001281,-44.517867,São Francisco,RPGA do Rio Grande,0.0,0.0,0.0,0.0,0.0,0.0,0.0,20.7,0.0,8.7,0.0,0.0,0.0,47.3,0.0,0.0,0.0,0.0,0.0,0.0,0.0,0.0,0.0,0.0,6.5,0.0,0.0,0.0,0.0,0.0,0.0,83.2
SEDE,EBDA,Wanderley,Wanderley (SEDE) - EBDA,-12.117972,-43.884524,São Francisco,RPGA do Rio Grande,0.0,0.0,0.0,6.69,0.0,9.29,0.0,24.92,0.0,0.0,0.0,0.0,0.0,0.0,0.0,0.0,0.0,0.0,0.0,12.0,0.0,0.0,0.0,0.0,0.0,0.0,0.0,0.0,0.0,0.0,0.0,52.91
Bom Jesus da Lapa,EBDA,Bom Jesus da Lapa,Bom Jesus da Lapa - EBDA,-13.251329,-43.417851,São Francisco,RPGA do Rio Carnaíba de Dentro,0.0,5.7,10.8,0.0,5.0,0.0,6.7,17.5,6.0,0.0,0.0,0.0,0.0,4.0,0.0,0.0,0.0,0.0,6.0,0.0,0.0,0.0,0.0,0.0,0.0,0.0,0.0,0.0,0.0,0.0,0.0,61.7
Carinhanha,EBDA,Carinhanha,Carinhanha - EBDA,-14.301347,-43.767864,São Francisco,"RPGA do Rio Corrente e Riachos do Ramalho, Serra Dourada e Brejo Velho",0.0,0.0,0.0,0.0,0.0,8.8,0.0,0.0,0.0,0.0,0.0,0.0,0.0,0.0,0.0,0.0,0.0,0.0,0.0,0.0,0.0,0.0,0.0,0.0,0.0,0.0,0.0,0.0,0.0,0.0,0.0,8.8
Ibotirama,EBDA,Ibotirama,Ibotirama - EBDA,-12.184644,-43.21784,São Francisco,RPGA dos Rios Paramirim e Santo Onofre,0.0,0.0,0.0,0.0,3.5,31.7,0.0,0.0,2.8,0.0,0.0,20.0,3.7,26.5,0.0,0.0,6.0,0.0,0.0,0.0,0.0,0.0,0.0,0.0,0.0,0.0,0.0,0.0,0.0,0.0,0.0,94.2
Paratinga,EBDA,Paratinga,Paratinga - EBDA,-12.684653,-43.184509,São Francisco,RPGA do Rio Carnaíba de Dentro,0.0,0.0,0.0,0.0,0.0,0.0,0.0,0.0,13.3,0.0,0.0,0.0,0.0,0.0,0.0,0.0,0.0,0.0,0.0,19.4,7.8,0.0,0.0,0.0,0.0,0.0,0.0,0.0,0.0,0.0,0.0,40.5
Riacho de Santana,EBDA,Riacho de Santana,Riacho de Santana - EBDA,-13.601338,-42.934507,São Francisco,RPGA do Rio Carnaíba de Dentro,0.0,0.0,0.0,0.0,0.0,0.0,0.0,6.3,0.0,0.0,11.0,7.0,1.3,0.0,15.0,0.0,0.0,0.0,0.0,0.0,0.0,0.0,0.0,0.0,0.0,0.0,0.0,0.0,0.0,0.0,0.0,40.6
Serra do Ramalho,EBDA,Serra do Ramalho,Serra do Ramalho - EBDA,-13.618002,-43.567857,São Francisco,"RPGA do Rio Corrente e Riachos do Ramalho, Serra Dourada e Brejo Velho",0.0,0.0,0.0,0.0,0.0,0.0,14.5,30.0,0.0,0.0,3.7,0.0,3.9,0.0,0.0,0.0,0.0,0.0,0.0,0.0,0.0,0.0,0.0,0.0,0.0,0.0,0.0,0.0,0.0,0.0,0.0,52.1
Santa Maria da Vitória,CT-PR-07,Santa Maria da Vitória,Santa Maria da Vitória - CT-PR-07,-13.384662,-44.184537,São Francisco,"RPGA do Rio Corrente e Riachos do Ramalho, Serra Dourada e Brejo Velho",3.1,9.6,0.0,0.0,0.0,0.0,0.0,0.0,14.8,0.0,0.0,4.2,0.0,0.0,0.0,0.0,0.0,0.0,0.0,0.0,0.0,0.0,0.0,0.8,0.0,0.0,0.0,0.0,0.0,0.0,0.0,32.5
Coribe,EBDA,Coribe,Coribe - EBDA,-13.834669,-44.451212,São Francisco,"RPGA do Rio Corrente e Riachos do Ramalho, Serra Dourada e Brejo Velho",3.0,0.0,0.0,0.0,0.0,0.0,0.0,21.5,0.0,0.0,0.0,0.0,20.5,0.0,0.0,0.0,0.0,0.0,0.0,0.0,0.0,0.0,1.0,0.0,0.0,0.0,0.0,0.0,0.0,0.0,0.0,46.0
Santana,EBDA,Santana,Santana - EBDA,-12.984656,-44.0512,São Francisco,"RPGA do Rio Corrente e Riachos do Ramalho, Serra Dourada e Brejo Velho",0.0,0.0,0.0,0.0,0.0,0.0,0.0,39.1,0.0,0.0,0.0,0.0,0.0,0.0,0.0,0.0,0.0,0.0,0.0,0.0,0.0,2.5,7.9,0.0,0.0,0.0,0.0,0.0,0.0,0.0,0.0,49.5
Iuiú,EBDA,Iuiú,Iuiú - EBDA,-14.40135,-43.551194,São Francisco,RPGA do Rio Carnaíba de Dentro,18.0,12.0,0.0,0.0,0.0,0.0,61.0,0.0,0.0,0.0,0.0,0.0,0.0,0.0,0.0,0.0,0.0,0.0,0.0,0.0,0.0,0.0,0.0,0.0,0.0,0.0,0.0,0.0,0.0,0.0,0.0,91.0
Sebastião Laranjeiras,EBDA,Sebastião Laranjeiras,Sebastião Laranjeiras - EBDA,-14.534689,-42.967846,São Francisco,RPGA do Rio Verde Grande,0.0,0.0,0.0,0.0,0.0,0.0,0.0,0.0,58.0,0.0,0.0,0.0,0.0,0.0,0.0,0.0,0.0,0.0,0.0,0.0,0.0,0.0,0.0,0.0,0.0,0.0,0.0,0.0,0.0,0.0,0.0,58.0
Morpará,46360000,Morpará,Morpará - 46360000,-11.5583,-43.2825,São Francisco,RPGA dos Rios Paramirim e Santo Onofre,0.0,10.0,0.0,0.0,0.0,0.0,1.0,0.0,0.0,1.0,0.0,0.0,0.0,3.0,0.0,11.0,0.0,4.0,0.0,0.0,0.0,0.0,6.0,0.0,0.0,0.0,0.0,15.0,0.0,0.0,0.0,51.0
Santa Maria da Vitória,ANA,Santa Maria da Vitória,Santa Maria da Vitória - ANA,-13.401329,-44.251206,São Francisco,"RPGA do Rio Corrente e Riachos do Ramalho, Serra Dourada e Brejo Velho",1.0,12.0,0.0,0.0,0.0,0.0,0.0,0.0,18.0,0.0,0.0,0.0,3.0,0.0,0.0,0.0,0.0,0.0,0.0,0.0,0.0,0.0,0.0,2.0,0.0,0.0,0.0,0.0,0.0,0.0,0.0,36.0
Barra,EBDA,Barra,Barra - EBDA,-11.084623,-43.151167,São Francisco,RPGA do Rio Grande,0.0,16.6,0.0,0.0,0.0,0.0,0.0,0.0,0.0,19.8,0.0,0.0,3.3,0.0,0.0,0.0,0.0,0.0,0.0,0.0,0.0,0.0,0.0,0.0,0.0,0.0,0.0,0.0,0.0,0.0,0.0,39.7
Gentio do Ouro,EBDA,Gentio do Ouro,Gentio do Ouro - EBDA,-11.417965,-42.501152,São Francisco,RPGA dos Rios Verde e Jacaré,0.0,5.7,0.0,0.0,0.0,23.7,0.0,0.0,0.0,0.0,0.0,0.0,5.4,0.0,0.0,0.0,0.0,8.1,0.0,0.0,0.0,0.0,0.0,0.0,0.0,0.0,0.0,0.0,0.0,0.0,0.0,42.9
Santa Rita de Cássia,A415,Santa Rita de Cássia,Santa Rita de Cássia - A415,-11.002768,-44.524965,São Francisco,RPGA do Rio Grande,1.6,1.4,0.4,0.0,0.0,0.0,0.0,1.0,7.2,2.4,0.0,1.0,0.0,2.0,0.0,0.0,0.0,0.0,0.0,0.0,0.0,0.2,7.2,0.0,3.4,0.0,0.0,0.0,0.0,0.0,0.0,27.8
Bom Jesus da Lapa,A418,Bom Jesus da Lapa,Bom Jesus da Lapa - A418,-13.251094,-43.405365,São Francisco,RPGA do Rio Carnaíba de Dentro,0.0,0.0,0.0,0.0,0.0,4.4,0.6,0.0,17.4,1.0,0.0,0.2,0.0,0.2,2.4,0.0,0.0,0.0,0.0,0.0,0.0,0.0,0.0,0.4,1.2,0.0,0.0,0.0,0.0,0.0,0.0,27.8
Xique-Xique,EBDA,Xique-Xique,Xique-Xique - EBDA,-10.817951,-42.717822,São Francisco,RPGA dos Rios Paramirim e Santo Onofre,0.0,28.3,0.0,0.0,8.5,10.3,0.0,0.0,0.0,0.0,0.0,0.0,17.0,0.0,0.0,0.0,0.0,0.0,0.0,0.0,0.0,0.0,0.0,0.0,0.0,0.0,0.0,0.0,0.0,0.0,0.0,64.1
Brotas de Macaúbas,EBDA,Brotas de Macaúbas,Brotas de Macaúbas - EBDA,-12.001308,-42.617825,São Francisco,RPGA dos Rios Paramirim e Santo Onofre,0.0,0.0,0.0,0.0,8.6,0.0,3.1,14.2,0.0,0.0,0.0,12.9,3.4,5.8,0.0,0.0,0.0,0.0,2.5,43.5,0.0,0.0,0.0,0.0,0.0,0.0,0.0,0.0,0.0,0.0,0.0,94.0
Oliveira dos Brejinhos,EBDA,Oliveira dos Brejinhos,Oliveira dos Brejinhos - EBDA,-12.301314,-42.8845,São Francisco,RPGA dos Rios Paramirim e Santo Onofre,0.0,0.0,0.0,0.0,0.0,0.0,23.3,0.0,10.0,0.0,0.0,0.0,0.0,0.0,0.0,0.0,0.0,0.0,0.0,0.0,0.0,0.0,0.0,0.0,0.0,0.0,0.0,0.0,0.0,0.0,0.0,33.3
Barra,83179,Barra,Barra - 83179,-11.083333,-43.166667,São Francisco,RPGA do Rio Grande,0.0,16.6,0.0,0.4,0.0,0.0,0.3,0.0,0.0,19.8,0.0,0.0,0.0,3.3,0.0,0.0,0.0,1.0,0.0,0.0,0.0,0.0,0.0,0.0,0.0,0.0,0.0,0.0,0.0,0.0,0.0,41.4
Caetité,EBDA,Caetité,Caetité - EBDA,-14.068017,-42.484498,São Francisco,RPGA do Rio de Contas,0.0,0.0,0.0,0.0,0.0,3.0,0.0,0.0,0.0,0.0,0.0,8.5,4.0,0.0,0.0,0.0,0.0,0.0,0.0,0.0,0.0,0.0,0.0,0.0,0.0,0.0,0.0,0.0,0.0,0.0,0.0,15.5
Bom Jesus da Lapa,83288,Bom Jesus da Lapa,Bom Jesus da Lapa - 83288,-13.251389,-43.405278,São Francisco,RPGA do Rio Carnaíba de Dentro,0.0,0.0,0.0,0.0,0.0,4.4,0.7,0.0,17.0,1.0,0.0,0.0,0.0,0.0,2.0,0.0,0.0,0.0,0.0,0.0,0.0,0.0,0.0,0.0,1.2,0.0,0.0,0.0,0.0,0.0,0.0,26.3
Urandi,EBDA,Urandi,Urandi - EBDA,-14.768029,-42.651173,São Francisco,RPGA do Rio Verde Grande,0.0,0.0,0.0,0.0,0.0,0.0,5.0,0.0,0.0,0.0,0.0,25.0,3.0,0.0,0.0,0.0,0.0,0.0,0.0,0.0,0.0,0.0,0.0,0.0,0.0,0.0,0.0,0.0,0.0,0.0,0.0,33.0
Caetité,83339,Caetité,Caetité - 83339,-14.066667,-42.483333,São Francisco,RPGA do Rio de Contas,9.5,0.0,0.0,0.0,0.0,0.0,0.0,0.0,0.0,0.0,0.0,0.0,3.8,1.8,0.0,0.0,0.0,0.0,0.0,0.0,0.0,0.0,0.0,0.0,0.0,0.0,0.0,0.0,0.0,0.0,0.0,15.11
Paramirim,EBDA,Paramirim,Paramirim - EBDA,-13.434672,-42.234489,São Francisco,RPGA dos Rios Paramirim e Santo Onofre,20.0,0.0,0.0,0.0,0.0,0.0,0.0,7.0,0.0,13.0,0.0,0.0,0.0,0.0,0.0,0.0,0.0,0.0,0.0,0.0,0.0,0.0,0.0,0.0,0.0,0.0,0.0,0.0,0.0,0.0,0.0,40.0
Guanambí,EBDA,Guanambí,Guanambí - EBDA,-14.218017,-42.76784,São Francisco,RPGA do Rio Carnaíba de Dentro,0.0,0.0,0.0,7.0,0.0,13.5,0.0,0.0,0.0,0.0,0.0,13.0,7.0,0.0,0.0,0.0,0.0,0.0,0.0,0.0,0.0,0.0,0.0,0.0,0.0,0.0,0.0,0.0,0.0,0.0,0.0,40.5
Macaúbas,EBDA,Macaúbas,Macaúbas - EBDA,-13.017996,-42.684498,São Francisco,RPGA dos Rios Paramirim e Santo Onofre,0.0,0.0,0.0,3.0,0.0,0.0,0.0,0.0,0.0,7.5,0.0,0.0,0.0,0.0,0.0,0.0,0.0,0.0,5.0,0.0,0.0,0.0,0.0,0.0,0.0,0.0,0.0,0.0,0.0,0.0,0.0,15.5
Carinhanha,83408,Carinhanha,Carinhanha - 83408,-14.283333,-43.766667,São Francisco,"RPGA do Rio Corrente e Riachos do Ramalho, Serra Dourada e Brejo Velho",0.9,0.3,0.0,0.0,0.0,0.0,9.8,5.2,33.1,0.0,0.0,0.0,0.0,0.0,0.0,0.0,0.0,0.0,0.0,0.4,0.0,0.0,0.0,0.0,0.0,0.0,0.0,0.0,0.0,0.0,0.0,49.7
Palmas do Monte Alto,EBDA,Palmas do Monte Alto,Palmas do Monte Alto - EBDA,-14.268017,-43.167849,São Francisco,RPGA do Rio Carnaíba de Dentro,0.0,0.0,0.0,0.0,0.0,0.0,41.0,13.5,0.0,0.0,0.0,0.0,0.0,0.0,0.0,0.0,0.0,0.0,0.0,0.0,0.0,0.0,0.0,0.0,0.0,0.0,0.0,0.0,0.0,0.0,0.0,54.5
Guanambí,A426,Guanambí,Guanambí - A426,-14.208123,-42.749647,São Francisco,RPGA do Rio Carnaíba de Dentro,5.0,0.0,0.0,0.0,0.0,0.0,0.6,0.0,0.0,0.0,0.0,0.0,11.0,9.6,1.8,0.0,0.0,0.0,0.0,0.0,0.0,0.0,0.0,0.0,0.0,0.0,0.0,0.0,0.0,0.0,0.0,28.01
Buritirama,A432,Buritirama,Buritirama - A432,-10.722925,-43.651203,São Francisco,RPGA do Rio Grande,0.0,4.4,1.4,0.0,0.0,2.0,10.4,7.4,10.4,17.8,0.0,0.0,2.4,13.6,0.0,0.0,0.0,0.0,0.0,0.0,5.2,0.0,0.0,0.0,0.0,0.6,0.0,0.0,0.0,0.0,0.0,75.6
Barra,A429,Barra,Barra - A429,-11.084858,-43.138998,São Francisco,RPGA do Rio Grande,0.0,21.4,0.0,0.6,0.0,0.0,0.4,0.0,0.0,23.8,0.0,0.0,0.0,0.0,0.0,0.0,0.0,1.4,0.0,0.0,0.0,0.0,0.0,0.0,0.0,0.0,0.0,0.0,0.0,0.0,0.0,47.6
Ibotirama,A439,Ibotirama,Ibotirama - A439,-12.19306,-43.21342,São Francisco,RPGA dos Rios Paramirim e Santo Onofre,2.2,0.0,0.0,0.0,4.8,0.0,0.0,0.0,0.4,2.6,0.0,0.0,0.0,2.0,0.0,0.0,6.0,0.0,0.0,0.0,0.0,0.0,0.0,0.0,0.0,0.0,0.0,0.2,0.0,0.0,0.0,18.2
Feira da Mata,EBDA,Feira da Mata,Feira da Mata - EBDA,-14.218288,-44.268154,São Francisco,RPGA do Rio Carinhanha,0.0,0.0,0.0,0.0,0.0,0.0,0.0,0.0,0.0,0.0,0.0,0.0,0.0,0.0,0.0,0.0,0.0,0.0,0.0,0.0,0.0,0.0,0.0,0.0,0.0,0.0,0.0,0.0,0.0,0.0,0.0,0.0
Canápolis,EBDA,Canápolis,Canápolis - EBDA,-13.06799,-44.201203,São Francisco,"RPGA do Rio Corrente e Riachos do Ramalho, Serra Dourada e Brejo Velho",0.0,0.0,0.0,0.0,0.0,0.0,0.0,0.0,0.0,0.0,0.0,0.0,0.0,0.0,0.0,0.0,0.0,0.0,0.0,0.0,0.0,0.0,0.0,0.0,0.0,0.0,0.0,0.0,0.0,0.0,0.0,0.0
Brejolândia,EBDA,Brejolândia,Brejolândia - EBDA,-12.384644,-43.967861,São Francisco,"RPGA do Rio Corrente e Riachos do Ramalho, Serra Dourada e Brejo Velho",0.0,0.0,0.0,0.0,0.0,0.0,0.0,0.0,0.0,0.0,0.0,0.0,0.0,0.0,0.0,0.0,0.0,0.0,0.0,0.0,15.0,0.0,0.0,0.0,0.0,0.0,0.0,0.0,0.0,0.0,0.0,15.0
Botuporã,EBDA,Botuporã,Botuporã - EBDA,-13.301335,-42.551164,São Francisco,RPGA dos Rios Paramirim e Santo Onofre,0.0,0.0,0.0,11.0,0.0,0.0,0.0,0.0,0.0,0.0,0.0,7.7,0.0,0.0,0.0,0.0,0.0,0.0,0.0,0.0,0.0,0.0,0.0,0.0,0.0,0.0,0.0,0.0,0.0,0.0,0.0,18.7
Fazenda Caraíbas,,Fazenda Caraíbas,Fazenda Caraíbas,-12.571486,-42.074028,São Francisco,RPGA dos Rios Paramirim e Santo Onofre,1.0,0.0,0.0,0.0,0.0,0.0,0.0,0.0,5.5,1.25,0.0,0.0,0.25,0.0,0.0,0.0,0.0,0.25,0.0,0.0,0.0,0.0,0.0,0.0,0.0,0.0,0.0,0.0,0.0,0.0,0.0,8.25
Caetité,CD-CL-01,Caetité,Caetité - CD-CL-01,-13.96659,-42.60482,São Francisco,RPGA do Rio Carnaíba de Dentro,7.25,0.0,0.0,0.0,0.0,0.0,0.0,0.0,0.0,0.0,0.0,0.0,4.25,1.5,0.25,0.0,0.0,0.0,0.0,0.0,0.0,0.0,0.0,0.0,0.0,0.0,0.0,0.5,0.5,0.0,0.0,14.25
Sítio do Mato,EBDA,Sítio do Mato,Sítio do Mato - EBDA,-13.167995,-43.501185,São Francisco,"RPGA do Rio Corrente e Riachos do Ramalho, Serra Dourada e Brejo Velho",15.6,0.0,0.0,0.0,0.0,0.0,0.0,20.8,0.0,0.0,0.0,0.0,0.0,0.0,0.0,0.0,0.0,0.0,0.0,0.0,0.0,0.0,3.4,0.0,0.0,0.0,0.0,0.0,10.0,0.0,0.0,49.8
Matina,EBDA,Matina,Matina - EBDA,-13.918012,-42.834506,São Francisco,RPGA do Rio Carnaíba de Dentro,35.0,0.0,0.0,0.0,0.0,0.0,0.0,0.0,0.0,0.0,0.0,0.0,0.0,0.0,0.0,0.0,0.0,0.0,0.0,0.0,0.0,0.0,0.0,0.0,0.0,0.0,0.0,0.0,0.0,0.0,0.0,35.0
Igaporã,EBDA,Igaporã,Igaporã - EBDA,-13.701341,-42.75117,São Francisco,RPGA do Rio Carnaíba de Dentro,0.0,0.0,0.0,0.0,0.0,0.0,0.0,0.0,0.0,0.0,0.0,20.0,47.0,26.5,0.0,0.0,0.0,0.0,0.0,0.0,0.0,0.0,0.0,0.0,0.0,0.0,0.0,0.0,0.0,0.0,0.0,93.5
Serra Dourada,EBDA - EBDA,Serra Dourada,Serra Dourada - EBDA - EBDA,-12.751317,-43.951194,São Francisco,"RPGA do Rio Corrente e Riachos do Ramalho, Serra Dourada e Brejo Velho",0.0,0.0,0.0,0.0,0.0,0.0,0.0,60.0,0.0,0.0,0.0,0.0,0.0,0.0,0.0,0.0,0.0,0.0,0.0,0.0,0.0,6.0,20.0,0.0,0.0,0.0,0.0,0.0,0.0,0.0,0.0,86.0
