nome_estacao,codigo,municipio,estacao,latitude,longitude,regiao,rpga,01_06_10,02_06_10,03_06_10,04_06_10,05_06_10,06_06_10,07_06_10,08_06_10,09_06_10,10_06_10,11_06_10,12_06_10,13_06_10,14_06_10,15_06_10,16_06_10,17_06_10,18_06_10,19_06_10,20_06_10,21_06_10,22_06_10,23_06_10,24_06_10,25_06_10,26_06_10,27_06_10,28_06_10,29_06_10,30_06_10,total
Iaçu,EBDA,Iaçu,Iaçu - EBDA,-12.768002,-40.217768,Chapada Diamantina,RPGA do Rio Paraguaçu,0.0,0.0,0.0,0.0,0.0,0.0,0.0,0.0,0.0,0.0,0.0,0.0,0.0,0.0,0.0,0.0,0.0,0.0,0.0,0.0,0.0,0.0,0.0,0.0,0.0,0.0,0.0,0.0,0.0,0.0,0.0
Itaberaba,EBDA,Itaberaba,Itaberaba - EBDA,-12.534663,-40.301101,Chapada Diamantina,RPGA do Rio Paraguaçu,0.0,0.0,0.0,0.0,0.0,0.0,0.0,0.0,0.0,0.0,0.0,0.0,0.0,0.0,0.0,0.0,0.0,0.0,0.0,0.0,0.0,0.0,0.0,0.0,0.0,0.0,0.0,0.0,0.0,0.0,0.0
Itaetê,EBDA,Itaetê,Itaetê - EBDA,-12.984669,-40.984455,Chapada Diamantina,RPGA do Rio Paraguaçu,0.0,0.0,0.0,0.0,0.0,0.0,0.0,0.0,0.0,0.0,0.0,0.0,0.0,0.0,0.0,0.0,0.0,0.0,0.0,0.0,0.0,0.0,0.0,0.0,0.0,0.0,0.0,0.0,0.0,0.0,0.0
Ruy Barbosa,EBDA,Ruy Barbosa,Ruy Barbosa - EBDA,-12.284657,-40.501107,Chapada Diamantina,RPGA do Rio Paraguaçu,0.0,0.0,0.0,0.0,0.0,0.0,0.0,0.0,0.0,0.0,0.0,0.0,0.0,0.0,0.0,0.0,0.0,0.0,0.0,0.0,0.0,0.0,0.0,0.0,2.0,8.0,0.0,0.0,0.0,0.0,10.0
Utinga,EBDA,Utinga,Utinga - EBDA,-12.08465,-41.101122,Chapada Diamantina,RPGA do Rio Paraguaçu,0.0,0.0,0.0,0.0,0.0,0.0,0.0,0.0,0.0,0.0,0.0,0.0,0.0,0.0,0.0,0.0,0.0,0.0,0.0,0.0,0.0,0.0,0.0,0.0,0.0,0.0,0.0,0.0,0.0,0.0,0.0
Barra da Estiva,EBDA,Barra da Estiva,Barra da Estiva - EBDA,-13.63468,-41.334467,Chapada Diamantina,RPGA do Rio de Contas,0.0,0.0,0.0,0.0,0.0,5.7,0.0,0.0,0.0,0.0,0.0,0.0,0.0,0.0,0.0,0.0,0.0,0.0,0.0,0.0,0.0,0.0,0.0,0.0,0.0,0.0,0.0,0.0,5.0,5.5,16.2
Itaetê,,Itaetê,Itaetê,-12.981335,-40.951122,Chapada Diamantina,RPGA do Rio Paraguaçu,0.0,0.0,0.0,0.0,0.0,0.0,0.0,0.0,0.0,0.0,0.0,0.0,0.0,0.0,0.0,0.0,0.0,0.0,0.0,0.0,0.0,0.0,0.0,0.0,0.0,5.0,0.0,0.0,0.0,0.0,5.0
Baixa Grande,EBDA,Baixa Grande,Baixa Grande - EBDA,-11.951317,-40.167762,Chapada Diamantina,RPGA do Rio Paraguaçu,0.0,0.0,0.0,0.0,0.0,0.0,0.0,0.0,0.0,0.0,0.0,0.0,0.0,0.0,0.0,0.0,0.0,0.0,0.0,0.0,0.0,0.0,0.0,0.0,0.0,5.0,0.0,0.0,0.0,0.0,5.0
Mairi,EBDA,Mairi,Mairi - EBDA,-11.717981,-40.151095,Chapada Diamantina,RPGA do Rio Paraguaçu,0.0,0.0,0.0,0.0,0.0,0.0,0.0,0.0,0.0,0.0,0.0,0.0,0.0,0.0,0.0,0.0,0.0,0.0,0.0,0.0,0.0,0.0,0.0,0.0,0.0,0.0,0.0,0.0,17.7,0.0,17.7
Morro do Chapéu,EBDA,Morro do Chapéu,Morro do Chapéu - EBDA,-11.551305,-41.151119,Chapada Diamantina,RPGA do Rio Paraguaçu,0.0,0.0,0.0,0.0,0.0,0.0,0.0,0.0,0.0,0.0,0.0,0.0,0.0,0.0,0.0,0.0,0.0,0.0,0.0,0.0,0.0,0.0,0.0,0.0,0.0,0.0,0.0,0.0,0.0,0.0,0.0
Mundo Novo,EBDA,Mundo Novo,Mundo Novo - EBDA,-11.851314,-40.46777,Chapada Diamantina,RPGA do Rio Paraguaçu,0.0,0.0,0.0,0.0,0.0,0.0,0.0,0.0,0.0,0.0,0.0,0.0,0.0,0.0,0.0,0.0,0.0,0.0,0.0,0.0,0.0,0.0,0.0,0.0,0.0,0.0,0.0,33.0,0.0,13.0,46.0
Piritiba,EBDA,Piritiba,Piritiba - EBDA,-11.751314,-40.551104,Chapada Diamantina,RPGA do Rio Paraguaçu,0.0,0.0,0.0,0.0,0.0,0.0,0.0,0.0,0.0,0.0,0.0,0.0,0.0,0.0,0.0,0.0,0.0,0.0,0.0,0.0,0.0,0.0,0.0,0.0,0.0,0.0,0.0,0.0,0.0,0.0,0.0
Itaberaba,A408,Itaberaba,Itaberaba - A408,-12.524062,-40.299714,Chapada Diamantina,RPGA do Rio Paraguaçu,0.0,0.0,0.0,0.2,0.0,0.0,0.0,0.0,0.0,0.0,0.0,0.0,0.0,0.0,0.0,0.0,0.0,0.0,0.0,0.0,0.0,0.0,0.2,0.2,0.0,2.0,0.2,0.6,0.8,0.0,4.2
Barra do Mendes,EBDA,Barra do Mendes,Barra do Mendes - EBDA,-11.817975,-42.06781,Chapada Diamantina,RPGA dos Rios Verde e Jacaré,0.0,0.0,0.0,0.0,0.0,0.0,0.0,0.0,0.0,0.0,0.0,0.0,0.0,0.0,0.0,0.0,0.0,0.0,0.0,0.0,0.0,0.0,0.0,0.0,0.0,0.0,0.0,0.0,0.0,0.0,0.0
Cafarnaum,EBDA,Cafarnaum,Cafarnaum - EBDA,-11.684641,-41.484462,Chapada Diamantina,RPGA dos Rios Verde e Jacaré,0.0,0.0,0.0,0.0,0.0,0.0,0.0,0.0,0.0,0.0,0.0,0.0,0.0,0.0,0.0,0.0,0.0,0.0,0.0,0.0,0.0,0.0,0.0,0.0,0.0,0.0,0.0,0.0,0.0,0.0,0.0
Canarana,EBDA,Canarana,Canarana - EBDA,-11.684641,-41.751137,Chapada Diamantina,RPGA dos Rios Verde e Jacaré,0.0,0.0,0.0,0.0,0.0,0.0,0.0,0.0,0.0,0.0,0.0,0.0,0.0,0.0,0.0,0.0,0.0,0.0,0.0,0.0,0.0,0.0,0.0,0.0,0.0,0.0,0.0,0.0,0.0,0.0,0.0
Andaraí,EBDA,Andaraí,Andaraí - EBDA,-12.801332,-41.317795,Chapada Diamantina,RPGA do Rio Paraguaçu,0.0,0.0,0.0,0.0,0.0,0.0,0.0,0.0,0.0,0.0,0.0,0.0,0.0,0.0,0.0,0.0,0.0,0.0,0.0,0.0,0.0,0.0,0.0,0.0,0.0,0.0,0.0,0.0,0.0,0.0,0.0
Iraquara,EBDA,Iraquara,Iraquara - EBDA,-12.234651,-41.617801,Chapada Diamantina,RPGA do Rio Paraguaçu,0.0,0.0,0.0,0.0,0.0,0.0,0.0,0.0,0.0,0.0,0.0,0.0,0.0,0.0,0.0,0.0,0.0,0.0,0.0,0.0,0.0,0.0,0.0,0.0,0.0,0.0,0.0,0.0,0.0,0.0,0.0
Mucugê,EBDA,Mucugê,Mucugê - EBDA,-13.001335,-41.367798,Chapada Diamantina,RPGA do Rio Paraguaçu,0.0,0.0,0.0,0.0,0.0,0.0,0.0,0.0,0.0,0.0,0.0,0.0,0.0,0.0,0.0,0.0,0.0,0.0,0.0,0.0,0.0,0.0,0.0,0.0,0.0,0.0,0.0,0.0,0.0,0.0,0.0
Piatã,EBDA,Piatã,Piatã - EBDA,-13.201338,-41.751143,Chapada Diamantina,RPGA do Rio de Contas,0.0,0.0,0.0,0.0,0.0,0.0,0.0,0.0,0.0,0.0,0.0,0.0,0.0,0.0,0.0,0.0,0.0,0.0,0.0,0.0,0.0,0.0,0.0,0.0,0.0,0.0,0.0,0.0,0.0,0.0,0.0
Seabra,EBDA,Seabra,Seabra - EBDA,-12.417987,-41.767806,Chapada Diamantina,RPGA do Rio Paraguaçu,0.0,0.0,0.0,0.0,0.0,0.0,0.0,0.0,0.0,0.0,0.0,0.0,0.0,0.0,0.0,0.0,0.0,0.0,0.0,0.0,0.0,0.0,0.0,0.0,0.0,0.0,0.0,0.0,0.0,0.0,0.0
Livramento do Brumado,EBDA,Livramento do Brumado,Livramento do Brumado - EBDA,-13.651344,-41.834479,Chapada Diamantina,RPGA do Rio de Contas,0.0,0.0,0.0,0.0,0.0,0.0,0.0,0.0,0.0,0.0,0.0,0.0,0.0,0.0,0.0,0.0,0.0,0.0,0.0,0.0,0.0,0.0,0.0,0.0,0.0,0.0,0.0,0.0,0.0,0.0,0.0
Itaberaba,83244,Itaberaba,Itaberaba - 83244,-12.516667,-40.283333,Chapada Diamantina,RPGA do Rio Paraguaçu,0.0,0.0,0.0,0.1,0.0,0.0,0.0,0.0,0.0,0.0,0.0,0.0,0.0,0.0,0.0,0.0,0.0,0.0,0.0,0.0,0.0,0.0,0.2,0.0,0.0,1.4,0.0,0.4,0.4,0.0,2.5
Lençóis,83242,Lençóis,Lençóis - 83242,-12.5575,-41.388889,Chapada Diamantina,RPGA do Rio Paraguaçu,0.0,2.1,0.0,0.0,0.0,0.0,0.0,0.0,0.0,0.0,0.0,0.0,0.0,0.0,0.0,0.0,0.0,0.0,0.0,0.0,0.1,0.0,0.0,0.0,0.0,2.1,0.0,0.0,0.0,0.0,4.31
Morro do Chapéu,83184,Morro do Chapéu,Morro do Chapéu - 83184,-11.216667,-41.216667,Chapada Diamantina,RPGA do Rio Salitre,0.0,0.0,1.0,0.2,0.0,0.0,0.0,0.0,0.0,0.0,0.0,0.0,0.0,0.0,0.0,0.1,0.0,0.0,0.0,0.0,0.0,0.0,0.0,0.3,0.0,6.4,6.0,0.0,1.4,1.9,17.3
Piatã,A430,Piatã,Piatã - A430,-13.155681,-41.774125,Chapada Diamantina,RPGA do Rio de Contas,0.0,1.4,0.0,3.0,0.2,0.0,0.0,0.0,0.0,0.0,0.0,0.0,0.0,0.0,0.0,0.0,0.0,0.0,0.0,0.0,0.0,0.0,0.0,0.0,0.4,12.8,0.4,0.6,0.2,0.4,19.4
Lençóis,A425,Lençóis,Lençóis - A425,-12.557854,-41.388808,Chapada Diamantina,RPGA do Rio Paraguaçu,0.0,2.2,0.0,0.0,0.0,0.0,0.0,0.0,0.0,0.0,0.0,0.0,0.2,0.0,0.0,0.0,0.0,0.0,0.0,0.0,0.0,0.0,0.0,0.0,0.0,2.2,0.0,0.0,0.0,0.0,4.61
Lagoa Bonita,PG-PR-15,Iacú,Iacú (Lagoa Bonita) - PG-PR-15,-12.931506,-40.226468,Chapada Diamantina,RPGA do Rio Paraguaçu,0.0,0.0,0.0,0.0,0.0,0.0,0.0,0.0,0.0,0.0,0.0,0.0,0.0,0.0,0.0,0.0,0.0,0.0,0.0,0.0,0.0,0.0,0.0,0.0,0.0,0.5,0.0,0.0,0.0,0.0,0.5
João Amaro,PG-PR-16,Iaçu,Iaçu (João Amaro) - PG-PR-16,-12.800391,-40.363139,Chapada Diamantina,RPGA do Rio Paraguaçu,0.0,0.0,0.0,0.0,0.0,0.0,0.0,0.0,0.0,0.0,0.0,0.0,0.0,0.0,0.0,0.0,0.0,0.0,0.0,0.0,0.0,0.0,0.0,0.0,0.0,2.75,0.0,0.0,0.0,0.0,2.75
Ruy Barbosa,PG-PR-18,Ruy Barbosa,Ruy Barbosa - PG-PR-18,-12.285653,-40.513698,Chapada Diamantina,RPGA do Rio Paraguaçu,0.0,0.0,0.0,0.0,0.0,0.0,0.0,0.0,0.0,0.0,0.0,0.0,0.0,0.0,0.0,0.0,0.0,0.0,0.0,0.0,0.0,0.0,0.0,0.0,0.0,3.25,0.0,0.0,0.5,0.5,4.25
Wagner,PG-PR-22,Wagner,Wagner - PG-PR-22,-12.289538,-41.161774,Chapada Diamantina,RPGA do Rio Paraguaçu,0.0,0.0,0.0,0.0,0.0,0.0,0.0,0.0,0.0,0.0,0.0,0.0,0.0,0.0,0.0,0.25,0.0,0.0,0.0,0.0,0.0,0.0,0.0,0.0,0.0,2.0,0.0,0.0,0.0,0.0,2.25
Utinga,PG-PR-23,Utinga,Utinga - PG-PR-23,-12.030089,-41.058714,Chapada Diamantina,RPGA do Rio Paraguaçu,0.0,0.0,0.0,0.0,0.0,0.0,0.0,0.25,0.25,0.25,0.0,0.25,0.0,0.25,0.25,0.0,0.0,0.0,0.0,0.0,0.0,0.0,0.0,0.0,0.0,1.5,0.25,0.5,0.5,0.5,4.75
Guiné,PG-PR-24,Mucugê,Mucugê (Guiné) - PG-PR-24,-12.771772,-41.540679,Chapada Diamantina,RPGA do Rio Paraguaçu,0.0,0.0,0.0,0.0,0.0,0.0,0.0,0.0,0.0,0.0,0.0,0.0,0.0,0.0,0.0,0.0,0.0,0.0,0.0,0.0,0.0,0.0,0.0,0.0,0.0,2.75,0.0,0.25,0.25,1.0,4.25
Cascavel,PG-PR-27,Mucugê,Mucugê (Cascavel) - PG-PR-27,-13.285954,-41.287619,Chapada Diamantina,RPGA do Rio Paraguaçu,0.5,0.0,0.0,0.0,0.0,0.0,0.0,0.0,0.0,0.0,0.0,0.0,0.0,0.0,0.0,0.0,0.0,0.0,0.0,0.0,0.0,0.0,0.0,0.0,0.0,2.25,0.0,0.0,0.25,0.25,3.25
América Dourada,,América Dourada,América Dourada,-11.464848,-41.442615,Chapada Diamantina,RPGA dos Rios Verde e Jacaré,0.0,0.0,0.0,0.0,0.0,0.0,0.0,0.0,0.0,0.0,0.0,0.0,0.0,0.0,0.0,0.0,0.0,0.0,0.0,0.0,0.0,0.0,0.0,0.0,0.0,0.5,0.0,0.0,0.0,0.0,0.5
Ibiaporã,PG-CL-01,Mundo Novo,Mundo Novo (Ibiaporã) - PG-CL-01,-12.05379,-40.83722,Chapada Diamantina,RPGA do Rio Paraguaçu,0.0,0.0,0.0,0.5,0.0,0.0,0.0,0.25,0.0,0.0,0.0,0.0,0.0,0.0,0.0,0.0,0.0,0.0,0.0,0.0,0.0,0.0,0.0,0.0,0.0,14.0,1.0,0.5,2.0,2.5,20.75
Marcionílio Souza,PG-CL-03,Marcionílio Souza,Marcionílio Souza - PG-CL-03,-13.00021,-40.537783,Chapada Diamantina,RPGA do Rio Paraguaçu,0.0,0.0,0.0,0.0,0.0,0.0,0.0,0.0,0.0,0.0,0.0,0.0,0.0,0.0,0.0,0.0,0.0,0.0,0.0,0.0,1.75,0.0,0.0,0.25,2.0,0.0,0.0,0.0,0.0,0.0,4.0
Iraquara,PG-PR-02,Iraquara,Iraquara - PG-PR-02,-12.255093,-41.61679,Chapada Diamantina,RPGA do Rio Paraguaçu,0.0,0.0,0.0,0.25,0.0,0.0,0.0,0.0,0.25,0.0,0.0,0.0,0.0,0.0,0.0,0.0,0.0,0.0,0.0,0.0,0.0,0.0,0.0,0.0,0.0,3.5,0.0,0.0,0.0,0.5,4.5
Piritiba,PG-PR-07,Piritiba,Piritiba - PG-PR-07,-11.733137,-40.562306,Chapada Diamantina,RPGA do Rio Paraguaçu,0.0,0.0,0.0,0.0,0.0,0.0,0.0,0.0,0.0,0.0,0.0,0.0,0.0,0.0,0.0,3.5,0.0,0.0,0.0,0.0,0.0,0.0,0.0,0.0,0.0,4.75,0.25,0.25,0.5,2.5,11.75
Tapiramutá,PG-PR-09,Tapiramutá,Tapiramutá - PG-PR-09,-11.838502,-40.791761,Chapada Diamantina,RPGA do Rio Paraguaçu,0.0,0.0,4.25,0.5,0.0,0.0,0.0,0.75,0.0,0.25,0.0,0.0,0.0,0.0,0.0,0.25,0.25,0.0,0.0,0.0,0.0,0.0,0.0,0.0,0.0,16.25,3.25,0.75,2.0,4.5,33.0
Bonito,PG-PR-11,Bonito,Bonito - PG-PR-11,-11.98993,-41.25429,Chapada Diamantina,RPGA do Rio Paraguaçu,0.0,0.0,0.5,1.0,0.0,0.0,0.0,0.0,0.0,0.0,0.0,0.0,0.0,0.0,0.0,0.25,0.0,0.25,0.0,0.0,0.0,0.0,0.25,0.0,0.0,23.5,8.75,0.5,2.0,7.0,44.0
Piatã,CO-CL-04,Piatã,Piatã - CO-CL-04,-13.164166,-41.770833,Chapada Diamantina,RPGA do Rio de Contas,0.0,0.0,0.0,2.5,0.0,0.0,0.0,0.0,0.0,0.0,0.0,0.0,0.0,0.0,0.0,0.0,0.0,0.0,0.0,0.0,0.0,0.0,0.0,0.0,0.0,8.0,0.25,0.25,0.0,0.25,11.25
Souto Soares,PG-CL-04,Souto Soares,Souto Soares - PG-CL-04,-12.08538,-41.64815,Chapada Diamantina,RPGA do Rio Paraguaçu,0.0,0.0,0.0,0.5,0.0,0.0,0.0,0.0,0.0,0.0,0.0,0.25,0.75,0.5,0.0,0.0,0.0,0.25,0.75,0.25,0.0,0.75,0.0,0.0,0.0,10.5,0.25,0.0,0.0,1.5,16.25
Palmeiras,EBDA,Palmeiras,Palmeiras - EBDA,-12.46799,-41.617801,Chapada Diamantina,RPGA do Rio Paraguaçu,0.0,0.0,0.0,0.0,0.0,0.0,0.0,0.0,0.0,0.0,0.0,0.0,0.0,0.0,0.0,0.0,0.0,0.0,0.0,0.0,0.0,0.0,0.0,0.0,0.0,0.0,0.0,0.0,0.0,0.0,0.0
Jeremoabo,EBDA,Jeremoabo,Jeremoabo - EBDA,-10.067951,-38.351041,Nordeste,RPGA do Rio Vaza-Barris,0.0,0.0,0.0,0.0,0.0,0.0,0.0,0.0,0.0,0.0,0.0,0.0,0.0,0.0,0.0,0.0,0.0,0.0,0.0,0.0,0.0,0.0,0.0,0.0,0.0,0.0,0.0,0.0,0.0,0.0,0.0
Coronel João Sá,EBDA,Coronel João Sá,Coronel João Sá - EBDA,-10.284624,-37.917698,Nordeste,RPGA do Rio Vaza-Barris,0.0,0.0,0.0,0.0,0.0,0.0,0.0,0.0,0.0,0.0,0.0,0.0,0.0,0.0,0.0,0.0,0.0,0.0,0.0,0.0,0.0,0.0,0.0,0.0,0.0,0.0,0.0,0.0,0.0,0.0,0.0
Abaré,EBDA,Abaré,Abaré - EBDA,-8.71792,-39.117725,Nordeste,RPGA dos Rios Macururé e Curaçá,0.0,0.0,0.0,0.0,0.0,0.0,0.0,0.0,0.0,0.0,0.0,0.0,0.0,0.0,0.0,0.0,0.0,0.0,0.0,0.0,0.0,0.0,0.0,0.0,0.0,0.0,10.3,0.0,0.0,0.0,10.3
Chorrochó,EBDA,Chorrochó,Chorrochó - EBDA,-8.984593,-39.101059,Nordeste,RPGA dos Rios Macururé e Curaçá,0.0,0.0,0.0,0.0,0.0,0.0,0.0,0.0,0.0,0.0,0.0,0.0,0.0,0.0,0.0,0.0,0.0,0.0,0.0,0.0,0.0,0.0,0.0,0.0,0.0,0.0,0.0,0.0,0.0,0.0,0.0
Rodelas,EBDA,Rodelas,Rodelas - EBDA,-8.83459,-38.751049,Nordeste,RPGA dos Rios Macururé e Curaçá,0.0,0.0,0.0,0.0,0.0,0.0,0.0,0.0,0.0,0.0,0.0,0.0,0.0,0.0,0.0,0.0,0.0,0.0,0.0,0.0,0.0,0.0,0.0,0.0,0.0,0.0,0.0,0.0,0.0,0.0,0.0
Macururé,EBDA,Macururé,Macururé - EBDA,-9.16793,-39.051056,Nordeste,RPGA dos Rios Macururé e Curaçá,0.0,0.0,0.0,0.0,0.0,0.0,0.0,0.0,0.0,0.0,0.0,0.0,0.0,0.0,0.0,0.0,0.0,0.0,0.0,0.0,0.0,0.0,0.0,0.0,0.0,0.0,0.0,0.0,0.0,0.0,0.0
Curaçá,EBDA,Curaçá,Curaçá - EBDA,-8.98459,-39.90108,Nordeste,RPGA dos Rios Macururé e Curaçá,0.0,0.0,0.0,0.0,0.0,0.0,0.0,0.0,0.0,0.0,0.0,0.0,0.0,0.0,0.0,0.0,0.0,0.0,0.0,0.0,0.0,0.0,0.0,10.5,0.0,0.0,6.7,0.0,0.0,0.0,17.2
Jacobina,EBDA,Jacobina,Jacobina - EBDA,-11.167968,-40.501101,Nordeste,RPGA do Rio Itapicuru,0.0,0.0,0.0,0.0,0.0,0.0,0.0,0.0,0.0,0.0,0.0,0.0,0.0,0.0,0.0,0.0,0.0,0.0,0.0,0.0,0.0,0.0,0.0,0.0,0.0,0.0,0.0,0.0,0.0,0.0,0.0
Banzaê,EBDA,Banzaê,Banzaê - EBDA,-10.584629,-38.617717,Nordeste,RPGA do Rio Itapicuru,0.0,11.5,0.0,0.0,1.1,0.0,36.8,4.5,13.1,4.8,5.2,2.6,0.7,0.0,0.0,0.8,0.0,2.3,1.0,0.0,0.0,18.0,4.0,2.7,9.7,24.2,0.0,0.0,1.8,15.3,160.11
Miguel Calmon,EBDA,Miguel Calmon,Miguel Calmon - EBDA,-11.417972,-40.584438,Nordeste,RPGA do Rio Itapicuru,0.0,0.0,0.0,0.0,0.0,0.0,0.0,0.0,0.0,0.0,0.0,0.0,0.0,0.0,0.0,0.0,0.0,0.0,0.0,0.0,0.0,0.0,0.0,0.0,0.0,8.0,0.7,0.0,1.5,5.1,15.3
Saúde,EBDA,Saúde,Saúde - EBDA,-10.934629,-40.417765,Nordeste,RPGA do Rio Itapicuru,0.0,0.0,0.0,0.0,0.0,0.0,0.0,0.0,5.0,0.0,0.0,0.0,0.0,0.0,0.0,0.0,0.0,0.0,0.0,0.0,0.0,0.0,0.0,0.0,0.0,0.0,0.0,0.0,21.0,0.0,26.0
Paulo Afonso,A411,Paulo Afonso,Paulo Afonso - A411,-9.379325,-38.227424,Nordeste,RPGA dos Rios Macururé e Curaçá,0.0,0.0,0.2,0.0,0.0,0.0,0.0,0.0,0.0,0.0,0.0,0.0,0.2,0.0,0.0,0.0,0.0,0.0,0.0,0.0,0.0,0.0,0.0,0.0,0.0,0.0,0.0,0.0,0.0,0.0,0.4
Cipó,83192,Cipó,Cipó - 83192,-11.083333,-38.516667,Nordeste,RPGA do Rio Itapicuru,0.0,0.0,10.8,1.1,0.0,0.0,0.0,19.1,4.8,2.6,1.1,0.6,0.5,0.6,0.0,0.0,0.0,2.1,0.4,1.2,1.5,0.0,5.1,0.0,2.3,13.3,9.7,0.1,0.9,2.8,80.61
Jacobina,83186,Jacobina,Jacobina - 83186,-11.172778,-40.534167,Nordeste,RPGA do Rio Itapicuru,0.0,0.0,0.1,0.2,0.1,0.0,0.0,1.3,0.0,0.3,0.0,0.0,0.0,0.0,0.0,0.0,0.0,0.0,0.0,0.0,0.0,0.0,0.0,0.0,0.0,11.9,5.4,0.0,0.8,6.5,26.6
Monte Santo,83090,Monte Santo,Monte Santo - 83090,-10.4425,-39.331111,Nordeste,RPGA do Rio Itapicuru,0.0,0.0,5.0,0.3,0.0,2.8,0.0,0.0,4.5,7.1,3.0,0.5,2.6,0.0,0.2,0.0,0.0,2.2,0.4,2.7,0.0,0.0,8.7,2.7,2.4,7.8,22.3,0.7,2.1,7.7,85.7
Paulo Afonso,82986,Paulo Afonso,Paulo Afonso - 82986,-9.379325,-38.227424,Nordeste,RPGA dos Rios Macururé e Curaçá,0.0,0.0,0.9,3.3,0.6,0.0,0.0,8.3,0.0,1.2,4.6,0.5,1.1,0.0,0.0,0.0,0.1,3.7,16.7,0.4,0.0,0.0,3.9,0.3,3.6,0.3,2.0,0.4,0.0,0.0,51.9
Senhor do Bonfim,83088,Senhor do Bonfim,Senhor do Bonfim - 83088,-10.490649,-40.100044,Nordeste,RPGA do Rio Itapicuru,0.0,14.4,9.2,2.2,0.0,0.0,0.0,5.8,7.1,17.0,4.0,6.8,0.6,0.0,0.0,0.0,0.0,0.1,1.2,0.0,0.0,0.0,7.2,0.0,2.0,15.0,16.5,1.2,4.2,21.5,136.0
Serrinha,83190,Serrinha,Serrinha - 83190,-11.633333,-38.966667,Nordeste,RPGA do Recôncavo Norte,0.0,1.9,5.4,0.2,0.0,0.0,0.5,12.0,0.9,2.4,0.0,8.1,1.2,0.0,0.0,0.0,0.3,0.0,0.0,0.0,0.0,0.0,1.4,0.0,0.1,13.9,5.0,3.3,5.0,17.6,79.2
Conde,A431,Conde,Conde - A431,-12.03622,-37.68322,Nordeste,RPGA do Rio Itapicuru,0.2,2.0,2.8,0.6,1.8,1.6,11.2,103.6,15.4,24.0,5.4,2.6,7.4,1.4,0.0,9.4,0.2,4.4,0.0,1.0,1.4,3.2,13.6,0.2,1.8,40.0,1.0,2.8,10.0,14.4,283.4
Uauá,A435,Uauá,Uauá - A435,-9.833617,-39.495631,Nordeste,RPGA do Rio Vaza-Barris,0.0,0.0,2.2,0.0,0.0,1.2,0.0,0.0,2.6,1.0,0.2,0.2,0.0,0.0,1.0,0.0,0.0,1.0,1.2,0.2,0.6,0.0,10.4,0.2,0.6,4.8,26.4,0.0,0.0,0.4,54.2
Euclides da Cunha,A442,Euclides da Cunha,Euclides da Cunha - A442,-10.537233,-38.996605,Nordeste,RPGA do Rio Itapicuru,0.0,0.0,21.0,0.0,0.6,0.6,0.2,4.6,6.8,16.8,5.4,1.8,7.0,0.8,0.4,0.0,0.4,3.6,2.6,4.4,1.0,0.0,13.6,4.0,3.2,4.0,18.6,0.2,0.6,1.6,123.8
Queimadas,A436,Queimadas,Queimadas - A436,-10.984645,-39.617009,Nordeste,RPGA do Rio Itapicuru,0.0,0.2,0.8,0.2,0.2,0.0,0.2,3.0,3.6,3.6,1.4,1.6,0.0,0.0,0.0,0.0,0.0,0.0,0.0,0.0,0.0,0.0,2.2,0.0,0.0,12.0,5.4,1.6,1.0,14.2,51.2
Jacobina,A440,Jacobina,Jacobina - A440,-11.205136,-40.464979,Nordeste,RPGA do Rio Itapicuru,0.0,0.4,1.8,1.6,2.4,0.0,0.0,2.0,0.2,0.6,0.0,0.2,0.0,0.0,0.0,0.2,0.4,0.0,0.0,0.0,0.0,0.0,2.0,0.0,0.2,11.8,7.2,0.0,1.8,7.0,39.8
Serrinha,A441,Serrinha,Serrinha - A441,-11.664586,-39.022946,Nordeste,RPGA do Rio Paraguaçu,0.0,4.0,4.2,0.2,0.0,0.0,1.8,15.6,1.0,2.0,0.0,9.4,1.4,0.0,0.0,0.0,0.2,0.0,0.0,0.0,0.0,0.0,1.6,0.0,0.2,13.6,5.6,3.8,4.4,21.6,90.61
Riachão do Jacuípe_EBDA,,Riachão do Jacuípe_EBDA,Riachão do Jacuípe_EBDA,-11.801317,-39.384408,Nordeste,RPGA do Rio Paraguaçu,0.0,0.0,0.0,0.0,0.0,0.0,10.0,0.0,3.5,0.0,0.0,0.0,0.0,0.0,0.0,2.5,0.0,0.0,0.0,0.0,0.0,0.0,0.0,8.0,0.0,8.0,0.0,6.0,14.0,26.0,78.0
Santa Bárbara,EBDA,Santa Bárbara,Santa Bárbara - EBDA,-11.984657,-38.984398,Nordeste,RPGA do Recôncavo Norte,0.0,0.0,0.0,0.0,0.0,0.0,0.0,0.0,0.0,0.0,0.0,0.0,0.0,2.0,0.0,0.0,0.0,0.0,0.0,0.0,0.0,0.0,0.0,0.0,15.0,20.0,0.0,0.0,2.5,37.5,77.0
EBDA Alagoinhas,EBDA,Itapicuru,Itapicuru (EBDA Alagoinhas) - EBDA,-11.317978,-38.217708,Nordeste,RPGA do Rio Itapicuru,0.0,17.5,0.0,0.0,0.0,2.0,26.0,12.5,10.0,0.0,0.0,2.0,0.0,0.0,0.0,0.0,0.0,0.0,29.5,0.0,0.0,0.0,0.0,0.0,0.0,0.0,0.0,0.0,0.0,0.0,99.5
Senhor do Bonfim,A428,Senhor do Bonfim,Senhor do Bonfim - A428,-10.443072,-40.148244,Nordeste,RPGA do Rio Itapicuru,0.0,13.4,6.6,1.6,0.0,0.0,0.0,5.0,5.4,12.0,3.0,5.2,0.6,0.0,0.0,0.8,0.0,0.0,1.0,0.0,0.0,0.0,6.4,0.0,1.8,10.6,11.4,1.0,4.0,21.6,111.4
Caém,EBDA,Caém,Caém - EBDA,-11.091855,-40.436378,Nordeste,RPGA do Rio Itapicuru,0.75,4.0,4.0,0.5,2.0,0.0,0.0,2.75,0.25,1.25,0.0,0.0,0.0,0.0,0.0,3.25,0.0,0.0,0.0,0.0,0.0,0.0,0.25,0.0,8.75,16.5,0.5,1.25,15.0,5.5,66.5
Capela do Alto Alegre,EBDA,Capela do Alto Alegre,Capela do Alto Alegre - EBDA,-11.669369,-39.838864,Nordeste,RPGA do Rio Paraguaçu,0.0,3.0,0.0,0.0,0.0,0.0,0.0,5.0,0.0,0.0,0.0,0.0,0.0,0.0,0.0,1.0,0.0,0.0,0.0,0.0,0.0,0.0,0.0,0.0,14.0,5.0,0.0,0.0,22.0,15.0,65.0
Cansanção,EBDA,Cansanção,Cansanção - EBDA,-10.66796,-39.501074,Nordeste,RPGA do Rio Itapicuru,0.0,0.0,0.0,0.0,0.0,0.0,0.0,0.0,0.0,20.8,0.0,0.0,0.0,0.0,0.0,0.0,0.0,13.8,22.4,0.0,0.0,0.0,12.8,16.4,0.0,78.4,0.0,0.0,60.4,0.0,225.0
Ipirá,PG-CL-02,Ipirá,Ipirá - PG-CL-02,-12.14986,-39.76454,Nordeste,RPGA do Rio Paraguaçu,0.0,0.0,0.25,0.0,1.0,0.0,0.0,0.25,0.0,0.0,0.0,0.0,0.0,0.0,0.0,3.25,1.5,0.0,0.0,0.0,0.0,0.0,0.0,0.0,0.0,11.25,0.0,3.25,5.5,4.5,30.75
Jacobina,DERBA,Jacobina,Jacobina - DERBA,-11.184635,-40.534435,Nordeste,RPGA do Rio Itapicuru,0.0,0.0,0.0,0.0,0.0,0.0,0.0,0.0,0.0,0.0,0.0,0.0,0.0,0.0,0.0,0.0,0.0,0.0,0.0,0.0,0.0,0.0,0.0,0.0,17.4,5.0,0.0,0.0,7.5,0.0,29.9
Senhor do Bonfim,DERBA,Senhor do Bonfim,Senhor do Bonfim - DERBA,-10.467954,-40.184425,Nordeste,RPGA do Rio Itapicuru,0.0,17.2,2.6,0.0,0.0,0.0,0.0,0.0,0.0,19.8,0.0,4.1,0.0,0.0,0.0,0.0,0.0,0.0,0.0,0.0,0.0,6.0,0.0,3.0,0.0,19.5,0.0,0.0,27.9,0.0,100.1
Valente,PG-PR-04,Valente,Valente - PG-PR-04,-11.40119,-39.458099,Nordeste,RPGA do Rio Paraguaçu,0.0,1.25,2.25,0.5,0.25,0.0,0.0,6.5,1.75,1.5,0.0,3.5,0.0,0.0,0.0,0.0,0.0,0.0,0.0,0.0,0.0,0.0,0.0,0.0,0.0,7.25,2.75,0.0,4.5,16.5,48.5
Tucano,EBDA,Tucano,Tucano - EBDA,-10.971302,-38.781056,Nordeste,RPGA do Rio Itapicuru,0.0,10.0,1.0,0.0,0.0,0.0,5.0,10.0,3.0,4.0,3.0,4.0,2.0,0.0,1.5,0.0,1.0,0.0,0.0,0.0,0.0,7.0,0.0,0.0,10.0,21.0,0.0,3.0,3.0,13.0,101.5
Itapeipu,IT-PR-34,Jacobina,Jacobina (Itapeipu) - IT-PR-34,-11.315629,-40.356742,Nordeste,RPGA do Rio Itapicuru,0.0,0.0,0.0,0.0,0.0,0.0,0.0,0.0,0.0,0.0,0.0,0.0,0.0,0.0,0.0,0.0,0.0,0.0,0.0,0.0,0.0,0.0,0.0,0.0,0.0,10.5,3.75,0.25,2.75,4.75,22.0
Caém,IT-PR-35,Caém,Caém - IT-PR-35,-11.093399,-40.437579,Nordeste,RPGA do Rio Itapicuru,0.0,1.25,7.0,1.0,2.0,0.0,0.0,1.0,1.75,1.25,0.25,0.0,0.0,0.0,0.0,3.25,0.0,0.0,0.0,0.0,0.0,0.0,0.25,0.0,0.0,15.5,10.25,0.75,2.0,16.0,63.5
Tombador Araújo,IT-PR-36,Jacobina,Jacobina (Tombador Araújo) - IT-PR-36,-11.168677,-40.670642,Nordeste,RPGA do Rio Itapicuru,0.0,0.0,0.25,0.0,0.25,0.0,0.0,0.75,0.5,0.0,0.0,0.0,0.0,0.0,0.0,0.0,0.0,0.0,0.0,0.0,0.0,0.0,0.0,0.0,0.0,6.5,2.25,0.5,1.0,5.0,17.0
Carrapichel,IT-PR-37,Senhor do Bonfim,Senhor do Bonfim (Carrapichel) - IT-PR-37,-10.388101,-40.220067,Nordeste,RPGA do Rio Itapicuru,0.0,9.25,8.25,2.0,0.0,0.0,0.0,1.5,8.5,15.5,3.0,4.0,0.5,0.0,0.0,0.0,0.0,0.0,0.0,0.0,0.0,0.0,7.5,0.75,0.75,13.0,17.0,0.25,3.0,21.5,116.25
Riacho da Onça,IT-PR-15,Queimadas,Queimadas (Riacho da Onça) - IT-PR-15,-11.24424,-39.790055,Nordeste,RPGA do Rio Itapicuru,0.0,0.25,1.75,2.25,0.25,0.0,0.0,0.5,0.25,2.0,0.0,0.75,0.0,0.0,0.0,0.0,0.0,0.0,0.0,0.0,0.0,0.0,0.0,0.0,0.0,10.75,2.5,1.0,1.0,13.75,37.0
Povoado Rio do Peixe,IT-PR-16,Queimadas,Queimadas (Povoado Rio do Peixe) - IT-PR-16,-11.097292,-39.524491,Nordeste,RPGA do Rio Itapicuru,0.0,0.0,0.0,0.0,0.0,0.0,0.25,1.25,1.75,0.5,0.0,0.5,0.0,0.0,0.0,0.0,0.0,0.0,0.0,0.0,0.0,0.0,0.0,0.0,0.0,9.0,0.75,2.0,0.0,6.75,22.75
Santaluz,IT-PR-17,Santaluz,Santaluz - IT-PR-17,-11.24831,-39.37563,Nordeste,RPGA do Rio Itapicuru,0.0,0.0,0.0,0.0,0.0,0.0,0.0,13.5,0.25,0.5,0.0,0.5,0.0,0.0,0.0,0.0,0.0,0.25,0.0,0.0,0.0,0.0,0.0,0.0,0.5,11.5,2.0,1.5,0.25,10.75,41.5
Ambrósio,IT-PR-19,Cansanção,Cansanção (Ambrósio) - IT-PR-19,-10.986458,-39.237813,Nordeste,RPGA do Rio Itapicuru,0.0,0.0,0.0,1.0,0.0,0.0,0.0,1.0,1.75,0.5,0.0,0.75,0.0,0.0,0.0,0.0,0.0,0.0,0.0,0.0,0.0,0.0,1.75,1.0,0.5,15.5,3.25,1.5,1.0,9.5,39.0
Cansanção,IT-PR-20,Cansanção,Cansanção - IT-PR-20,-10.702836,-39.543932,Nordeste,RPGA do Rio Itapicuru,0.0,0.5,1.5,0.5,0.0,0.0,0.0,0.5,3.25,3.0,0.0,3.0,0.5,0.0,0.0,0.0,0.0,0.0,0.0,0.0,0.0,0.0,6.25,0.0,2.5,10.25,10.5,3.0,3.0,8.75,57.0
Açude Monteiro,IT-PR-23,Nordestina,Nordestina (Açude Monteiro) - IT-PR-23,-10.77645,-39.559491,Nordeste,RPGA do Rio Itapicuru,0.0,0.5,1.25,0.0,0.0,0.0,0.0,0.0,1.75,3.75,0.0,5.0,0.25,0.0,0.0,0.0,0.0,0.0,0.0,0.0,0.0,0.0,4.5,0.0,0.75,19.5,9.5,2.5,1.0,16.75,67.0
Pedra Vermelha,IT-PR-24,Monte Santo,Monte Santo (Pedra Vermelha) - IT-PR-24,-10.454497,-39.559488,Nordeste,RPGA do Rio Itapicuru,0.0,0.0,1.0,0.0,0.0,0.5,0.0,0.25,1.75,3.0,0.0,0.0,0.25,0.0,0.0,0.0,0.0,0.25,0.0,0.0,0.0,0.0,6.75,0.0,1.25,8.5,14.5,0.75,1.0,6.25,46.0
Quijingue,IT-PR-25,Quijingue,Quijingue - IT-PR-25,-10.783951,-39.20809,Nordeste,RPGA do Rio Itapicuru,0.0,0.0,0.75,0.0,0.0,0.0,0.0,2.0,6.5,3.25,0.0,0.5,1.0,0.0,0.0,0.0,0.75,0.0,0.0,0.0,0.0,0.0,3.5,1.0,4.0,12.0,12.25,0.75,1.0,3.25,52.5
Conde,IT-PR-31,Conde,Conde - IT-PR-31,-11.813434,-37.616927,Nordeste,RPGA do Rio Itapicuru,0.0,1.0,1.75,0.5,1.25,1.0,9.5,90.75,12.25,19.0,3.25,3.0,6.25,1.25,0.0,8.5,0.0,4.0,0.0,0.5,0.75,2.5,12.25,0.0,1.25,37.25,0.5,2.5,9.25,12.5,242.5
Umbuzeiro,IT-PR-32,Olindina,Olindina (Umbuzeiro) - IT-PR-32,-11.454252,-38.455844,Nordeste,RPGA do Rio Itapicuru,0.0,0.25,5.5,0.0,0.0,0.0,0.0,4.25,2.25,4.25,0.0,1.25,0.0,0.0,0.25,0.0,0.0,0.0,0.0,3.25,1.5,0.0,2.25,0.25,1.5,25.0,7.25,1.25,4.75,5.25,70.25
Curral Falso,IT-PR-01,Ribeira do Pombal,Ribeira do Pombal (Curral Falso) - IT-PR-01,-10.697843,-38.5714,Nordeste,RPGA do Rio Itapicuru,0.0,0.0,3.5,0.0,0.0,0.0,0.0,16.25,6.75,17.0,4.75,1.25,2.0,0.0,0.0,0.25,0.25,1.0,3.5,3.0,0.0,0.0,17.0,2.0,2.0,5.75,21.5,0.0,0.5,0.0,108.25
Aribicé,IT-PR-02,Euclides da Cunha,Euclides da Cunha (Aribicé) - IT-PR-02,-10.557835,-38.793352,Nordeste,RPGA do Rio Itapicuru,0.0,0.0,7.0,0.5,0.25,0.25,0.0,19.0,5.25,7.0,1.75,1.25,0.5,0.25,0.0,0.5,0.25,0.75,2.0,2.25,0.0,0.0,8.75,2.5,2.0,5.75,11.0,0.5,1.5,0.75,81.5
Ribeira do Pombal,IT-PR-04,Ribeira do Pombal,Ribeira do Pombal - IT-PR-04,-10.823399,-38.545844,Nordeste,RPGA do Rio Itapicuru,0.0,0.0,8.5,0.5,0.5,0.0,0.0,2.75,8.75,10.75,1.75,0.5,6.0,1.0,0.0,0.25,0.0,1.5,1.0,1.25,0.25,0.0,17.25,2.25,3.5,10.0,14.25,0.0,0.25,3.25,96.0
Fazenda Santo Antônio,IT-PR-06,Euclides da Cunha,Euclides da Cunha (Fazenda Santo Antônio) - IT-PR-06,-10.405331,-39.045582,Nordeste,RPGA do Rio Itapicuru,0.0,0.5,14.75,0.25,1.25,2.75,0.0,4.25,10.0,9.75,6.5,1.0,3.5,0.5,0.25,0.0,0.0,2.5,3.25,3.0,0.25,0.0,13.5,0.75,3.0,7.0,19.0,0.25,0.25,3.5,111.5
Crisópolis,IT-PR-08,Crisópolis,Crisópolis - IT-PR-08,-11.510923,-38.120832,Nordeste,RPGA do Rio Itapicuru,0.0,4.75,19.0,0.25,0.0,0.0,0.0,30.25,8.75,4.75,1.0,3.75,1.0,1.0,0.25,0.5,0.0,1.5,0.75,0.0,0.25,0.0,5.5,0.75,1.25,28.75,5.25,0.75,0.75,8.25,129.0
Fazenda Laranjeiras III,IT-PR-09,Araci,Araci (Fazenda Laranjeiras III) - IT-PR-09,-11.334248,-38.968638,Nordeste,RPGA do Rio Itapicuru,0.0,0.0,0.0,0.0,0.0,0.0,0.25,0.25,0.0,0.0,0.0,1.0,0.0,0.0,0.0,0.0,0.0,0.0,0.0,0.0,0.25,0.0,0.75,0.0,0.25,21.5,2.5,1.25,1.25,7.0,36.25
Estação Experimental,IT-PR-10,Nova Soure,Nova Soure (Estação Experimental) - IT-PR-10,-11.3083,-38.5361,Nordeste,RPGA do Rio Itapicuru,0.0,0.0,2.25,0.0,0.0,0.0,0.25,10.5,4.25,0.75,0.0,0.25,0.0,0.0,0.5,0.0,0.0,0.0,0.0,1.0,0.5,0.0,4.0,0.25,1.5,31.25,10.0,0.5,5.0,2.25,75.0
Olindina,IT-PR-11,Olindina,Olindina - IT-PR-11,-11.343693,-38.318892,Nordeste,RPGA do Rio Itapicuru,0.0,0.0,9.25,0.0,0.0,0.0,0.0,11.5,4.75,0.75,0.25,0.75,0.0,2.25,0.0,0.25,0.0,0.0,0.0,1.0,1.0,0.0,2.5,0.25,2.75,14.75,9.25,0.25,0.25,5.0,66.75
Itapicuru,IT-PR-12,Itapicuru,Itapicuru - IT-PR-12,-11.321193,-38.225003,Nordeste,RPGA do Rio Itapicuru,0.0,1.0,7.0,0.0,0.0,0.0,0.25,19.25,8.25,4.75,1.25,0.25,0.75,0.25,0.0,0.25,0.0,1.25,0.0,0.5,0.5,0.0,5.5,0.25,3.5,13.75,4.75,0.25,0.0,2.0,75.5
Boa Hora,IT-PR-13,Ribeira do Amparo,Ribeira do Amparo (Boa Hora) - IT-PR-13,-10.965,-38.5234,Nordeste,RPGA do Rio Itapicuru,0.0,0.5,5.25,0.0,1.5,0.0,1.5,10.0,5.0,3.0,0.75,1.5,1.5,0.25,0.0,0.0,0.0,0.0,0.75,0.75,3.0,0.5,6.75,1.0,3.0,10.75,11.0,0.0,0.75,5.0,74.0
Tanquinho,EBDA,Tanquinho,Tanquinho - EBDA,-11.96799,-39.101068,Nordeste,RPGA do Rio Paraguaçu,0.0,5.2,3.8,0.0,0.0,0.0,9.0,31.8,0.0,0.0,1.8,1.8,0.0,0.0,0.0,0.0,0.0,0.0,0.0,0.0,0.0,0.0,0.0,0.0,0.0,9.1,0.0,8.8,10.5,39.0,120.8
Candeal,EBDA,Candeal,Candeal - EBDA,-11.80132,-39.117735,Nordeste,RPGA do Rio Paraguaçu,0.0,8.0,4.2,0.0,0.0,0.0,0.0,10.0,2.3,0.0,0.0,0.0,0.0,0.0,0.0,0.0,0.0,0.0,0.0,0.0,0.0,0.0,0.0,0.0,6.3,8.2,5.0,7.8,12.0,12.8,76.6
Inhambupe,EBDA,Inhambupe,Inhambupe - EBDA,-11.784656,-38.351047,Nordeste,RPGA do Recôncavo Norte,0.0,7.5,0.0,0.0,0.0,0.0,0.0,6.0,5.5,0.0,0.0,0.0,0.0,0.0,0.0,0.0,0.0,0.0,0.0,0.0,0.0,0.0,0.0,0.0,35.0,6.5,4.5,0.0,18.0,35.0,118.0
Esplanada,EBDA,Esplanada,Esplanada - EBDA,-11.784656,-37.951038,Nordeste,RPGA do Recôncavo Norte,0.0,0.0,15.0,5.0,5.0,5.0,40.0,0.0,0.0,0.0,0.0,0.0,0.0,0.0,0.0,0.0,0.0,0.0,0.0,0.0,0.0,0.0,0.0,5.0,5.0,15.0,40.0,5.0,5.0,8.0,153.0
Entre Rios,EBDA,Entre Rios,Entre Rios - EBDA,-11.951326,-38.084374,Nordeste,RPGA do Recôncavo Norte,0.0,1.0,5.0,5.0,2.5,16.5,20.0,10.0,10.2,3.0,3.0,3.0,0.0,0.0,0.0,0.0,0.0,0.0,0.0,0.0,4.5,0.0,10.0,25.0,15.0,7.0,6.0,0.5,18.0,4.0,169.2
Rio Real,EBDA,Rio Real,Rio Real - EBDA,-11.48465,-37.934369,Nordeste,RPGA do Rio Real,6.4,12.2,0.0,0.0,1.6,0.0,24.8,44.6,8.0,6.0,6.0,4.5,0.0,0.0,2.2,0.0,2.4,0.0,0.0,4.8,2.6,12.0,2.0,5.2,6.0,30.2,0.0,4.8,2.2,0.0,188.5
Sátiro Dias,EBDA,Sátiro Dias,Sátiro Dias - EBDA,-11.58465,-38.584386,Nordeste,RPGA do Recôncavo Norte,0.0,0.0,20.0,0.0,0.0,5.0,0.0,0.0,0.0,10.0,0.0,0.0,7.5,0.0,0.0,0.0,0.0,0.0,0.0,0.0,0.0,0.0,11.0,0.0,0.0,37.5,4.0,5.0,0.0,30.0,130.0
Ribeira do Pombal,EBDA,Ribeira do Pombal,Ribeira do Pombal - EBDA,-10.834635,-38.534383,Nordeste,RPGA do Rio Itapicuru,0.0,10.0,0.0,0.0,0.0,0.0,3.2,5.0,15.0,6.0,0.0,8.1,0.0,0.0,0.0,0.0,0.0,4.9,0.0,0.0,0.0,0.0,18.7,3.6,0.0,10.6,0.0,0.0,3.6,15.7,104.4
Cipó,EBDA,Cipó,Cipó - EBDA,-11.101305,-38.517717,Nordeste,RPGA do Rio Itapicuru,0.0,12.3,0.0,0.0,0.0,0.0,22.7,10.3,3.0,1.5,0.0,1.7,0.0,0.0,0.0,0.0,0.0,0.0,0.0,0.0,0.0,7.0,0.0,3.0,0.0,22.7,0.0,0.0,1.7,9.8,95.7
Olindina_EBDA,EBDA,Olindina_EBDA,Olindina_EBDA - EBDA,-11.351311,-38.33438,Nordeste,RPGA do Rio Itapicuru,0.0,11.0,0.0,0.0,0.0,0.0,16.0,9.0,0.0,0.0,0.0,0.0,0.0,0.0,0.0,0.0,2.8,0.0,0.0,0.0,0.0,0.0,0.0,0.0,0.0,0.0,29.0,0.0,2.8,23.0,93.6
Antas,EBDA,Antas,Antas - EBDA,-10.401293,-38.334375,Nordeste,RPGA do Rio Vaza-Barris,0.0,5.0,9.5,0.0,1.5,0.0,0.0,15.0,16.5,4.0,18.0,6.0,0.0,0.0,0.0,0.0,10.5,2.5,0.0,0.0,0.0,0.0,14.5,0.0,8.6,7.5,0.0,3.5,5.0,4.5,132.1
Paripiranga,EBDA,Paripiranga,Paripiranga - EBDA,-10.684633,-37.851032,Nordeste,RPGA do Rio Vaza-Barris,0.0,23.3,0.0,0.0,0.0,0.0,9.0,16.5,23.4,11.5,0.0,10.8,0.0,0.0,5.6,0.0,17.8,10.0,0.0,0.0,0.0,0.0,0.0,22.9,14.0,17.0,0.0,0.0,5.6,7.8,195.2
Nova Soure,EBDA,Nova Soure,Nova Soure - EBDA,-11.251311,-38.484383,Nordeste,RPGA do Rio Itapicuru,0.0,4.1,0.0,0.0,0.0,0.0,3.1,16.4,2.0,0.0,0.0,0.0,1.0,0.0,0.0,0.0,0.0,0.0,0.0,3.0,0.0,0.0,2.0,10.0,17.8,10.0,0.2,1.2,6.8,20.7,98.3
Ribeira do Amparo,EBDA,Ribeira do Amparo,Ribeira do Amparo - EBDA,-11.034638,-38.43438,Nordeste,RPGA do Rio Itapicuru,0.0,12.3,0.0,0.0,0.0,0.0,18.0,12.3,3.7,1.5,4.5,1.7,0.0,0.0,0.0,0.0,0.0,0.0,0.0,0.0,0.0,11.5,0.0,3.5,0.0,22.7,0.0,0.0,4.0,12.6,108.3
Heliópolis,EBDA,Heliópolis,Heliópolis - EBDA,-10.667965,-38.284375,Nordeste,RPGA do Rio Real,0.0,5.0,15.5,0.0,0.0,0.0,0.0,9.9,16.1,18.0,3.5,5.5,2.0,0.0,0.0,0.0,4.9,0.0,0.0,1.7,0.0,12.0,8.0,0.0,10.0,15.5,0.0,0.0,0.0,11.6,139.21
Cícero Dantas,EBDA,Cícero Dantas,Cícero Dantas - EBDA,-10.584629,-38.384377,Nordeste,RPGA do Rio Real,0.0,10.0,10.0,5.0,0.0,0.0,0.0,17.5,10.0,17.5,5.0,5.0,0.0,0.0,0.0,2.5,7.5,7.5,5.0,0.0,0.0,0.0,0.0,5.0,5.0,30.0,0.0,5.0,5.0,0.0,152.5
Sítio do Quinto,EBDA,Sítio do Quinto,Sítio do Quinto - EBDA,-10.367959,-38.201038,Nordeste,RPGA do Rio Vaza-Barris,0.0,16.5,5.4,0.0,6.7,0.0,0.0,13.5,16.9,5.2,7.8,12.7,0.0,0.0,0.0,6.2,0.0,0.0,10.6,0.0,0.0,10.6,8.5,16.5,14.8,0.0,0.0,0.0,0.0,9.6,161.5
Pedro Alexandre,EBDA,Pedro Alexandre,Pedro Alexandre - EBDA,-10.017951,-37.884362,Nordeste,RPGA do Rio Vaza-Barris,0.0,0.0,0.0,0.0,0.0,0.0,0.0,0.0,0.0,0.0,0.0,0.0,0.0,0.0,0.0,0.0,0.0,0.0,0.0,0.0,0.0,0.0,0.0,0.0,0.0,0.0,0.0,0.0,0.0,0.0,0.0
Adustina,EBDA,Adustina,Adustina - EBDA,-10.534629,-38.117704,Nordeste,RPGA do Rio Vaza-Barris,2.5,11.6,4.4,0.0,0.0,0.0,10.0,22.7,26.1,0.0,0.0,0.0,13.9,0.0,0.0,2.8,0.0,0.0,2.7,0.0,0.0,0.0,11.1,5.5,0.0,16.4,0.0,1.6,0.0,5.5,136.8
Uauá,EBDA,Uauá,Uauá - EBDA,-9.834609,-39.484404,Nordeste,RPGA do Rio Vaza-Barris,0.0,1.0,0.0,0.0,0.0,0.0,0.0,1.2,0.0,0.0,0.0,0.0,0.0,0.0,0.0,0.0,0.0,0.0,0.0,0.0,0.0,0.0,5.4,0.0,0.0,15.6,0.0,0.0,0.0,3.0,26.2
Andorinha,EBDA,Andorinha,Andorinha - EBDA,-10.33462,-39.834414,Nordeste,RPGA do Rio Itapicuru,2.5,0.0,2.0,0.0,0.0,0.0,0.0,2.0,6.5,0.0,1.0,2.0,0.0,0.0,0.0,1.0,0.0,0.5,0.0,0.0,0.0,5.0,0.0,3.0,10.0,2.5,0.0,2.0,5.0,5.0,50.0
Araci,EBDA,Araci,Araci - EBDA,-11.334644,-38.951062,Nordeste,RPGA do Rio Itapicuru,0.0,0.0,0.0,0.0,0.0,0.0,0.0,0.0,2.5,0.0,2.0,3.0,0.0,0.0,0.0,0.0,0.0,0.0,0.0,0.0,0.0,0.0,0.0,3.0,26.0,3.0,4.0,9.0,0.0,25.0,77.5
Paulo Afonso,EBDA,Paulo Afonso,Paulo Afonso - EBDA,-9.401269,-38.217702,Nordeste,RPGA dos Rios Macururé e Curaçá,0.0,0.0,0.0,0.0,0.0,0.0,0.0,0.0,0.0,0.0,0.0,0.0,0.0,0.0,0.0,0.0,0.0,0.0,0.0,0.0,0.0,0.0,0.0,0.0,0.0,0.0,0.0,0.0,0.0,0.0,0.0
Santa Brígida,EBDA,Santa Brígida,Santa Brígida - EBDA,-9.734611,-38.134368,Nordeste,RPGA do Riacho do Tará,0.0,0.0,0.0,0.0,0.0,0.0,0.0,0.0,0.0,0.0,0.0,0.0,0.0,0.0,0.0,0.0,0.0,0.0,0.0,0.0,0.0,0.0,0.0,0.0,0.0,0.0,0.0,0.0,0.0,0.0,0.0
Glória,EBDA,Glória,Glória - EBDA,-9.351269,-38.251038,Nordeste,RPGA dos Rios Macururé e Curaçá,0.0,0.0,0.0,0.0,0.0,0.0,0.0,0.0,0.0,0.0,0.0,0.0,0.0,0.0,0.0,0.0,0.0,0.0,0.0,0.0,0.0,0.0,0.0,0.0,0.0,0.0,0.0,0.0,0.0,0.0,0.0
Casa Nova,EBDA,Casa Nova,Casa Nova - EBDA,-9.08459,-40.617764,Norte,RPGA do Lago de Sobradinho,0.0,0.0,0.0,0.0,0.0,0.0,0.0,0.0,0.0,0.0,0.0,0.0,0.0,0.0,0.0,0.0,0.0,0.0,0.0,0.0,0.0,0.0,0.0,0.0,0.0,0.0,0.0,0.0,0.0,0.0,0.0
Remanso,EBDA,Remanso,Remanso - EBDA,-9.601263,-42.08447,Norte,RPGA do Lago de Sobradinho,0.0,9.6,0.0,0.0,0.0,0.0,0.0,0.0,0.0,0.0,0.0,0.0,0.0,0.0,0.0,0.0,0.0,0.0,0.0,0.0,0.0,0.0,0.0,0.0,5.4,0.0,0.0,0.0,2.7,0.2,17.9
Sento Sé,EBDA,Sento Sé,Sento Sé - EBDA,-9.734599,-41.851131,Norte,RPGA do Lago de Sobradinho,0.0,0.0,0.0,0.0,0.0,0.0,0.0,0.0,0.0,0.0,0.0,0.0,0.0,0.0,0.0,0.0,0.0,0.0,0.0,0.0,0.0,0.0,0.0,0.0,0.0,0.0,0.0,0.0,0.0,0.0,0.0
Juazeiro -EBDA,,Juazeiro -EBDA,Juazeiro -EBDA,-9.41793,-40.501095,Norte,RPGA dos Rios Macururé e Curaçá,0.0,0.0,0.0,0.0,0.0,0.0,0.0,0.0,0.0,0.0,0.0,0.0,0.0,0.0,0.0,0.0,0.0,0.0,0.0,0.0,0.0,0.0,0.0,0.0,0.0,0.0,0.0,0.0,0.0,0.0,0.0
Sobradinho,EBDA,Sobradinho,Sobradinho - EBDA,-9.334594,-40.81777,Norte,RPGA do Lago de Sobradinho,0.0,0.0,0.0,0.0,0.0,0.0,0.0,0.0,0.0,0.0,0.0,0.0,0.0,0.0,0.0,0.0,0.0,0.0,0.0,0.0,0.0,0.0,0.0,0.0,0.0,0.0,0.8,0.0,0.0,0.0,0.8
Taquarendi,EBDA,Taquarendi,Taquarendi - EBDA,-10.834626,-40.701104,Norte,RPGA do Rio Salitre,0.0,0.0,0.0,0.0,0.0,0.0,0.0,0.0,0.0,0.0,0.0,0.0,0.0,0.0,0.0,0.0,0.0,0.0,0.0,0.0,0.0,0.0,0.0,0.0,0.0,0.0,0.0,5.0,0.0,2.0,7.0
Central,EBDA,Central,Central - EBDA,-11.151293,-42.11781,Norte,RPGA dos Rios Verde e Jacaré,0.0,0.0,0.0,0.0,0.0,0.0,0.0,0.0,0.0,0.0,0.0,0.0,0.0,0.0,0.0,0.0,0.0,0.0,0.0,0.0,0.0,0.0,0.0,0.0,0.0,0.0,0.0,0.0,0.0,0.0,0.0
Ibipeba,EBDA,Ibipeba,Ibipeba - EBDA,-11.634638,-42.034476,Norte,RPGA dos Rios Verde e Jacaré,0.0,0.0,0.0,0.0,0.0,0.0,0.0,0.0,0.0,0.0,0.0,0.0,0.0,0.0,0.0,0.0,0.0,0.0,0.0,0.0,0.0,0.0,0.0,0.0,0.0,0.0,0.0,0.0,0.0,0.0,0.0
Ibititá,EBDA,Ibititá,Ibititá - EBDA,-11.523108,-41.976085,Norte,RPGA dos Rios Verde e Jacaré,0.0,0.0,0.0,0.0,0.0,0.0,0.0,0.0,0.0,0.0,0.0,0.0,0.0,0.0,0.0,0.0,0.0,0.0,0.0,0.0,0.0,0.0,0.0,0.0,0.0,0.0,0.0,0.0,0.0,0.0,0.0
Irecê,EBDA,Irecê,Irecê - EBDA,-11.317966,-41.867804,Norte,RPGA dos Rios Verde e Jacaré,0.0,0.0,0.0,0.0,0.0,0.0,0.0,0.0,0.0,0.0,0.0,0.0,0.0,0.0,0.0,0.0,0.0,0.0,0.0,0.0,0.0,0.0,0.0,0.0,0.0,0.0,0.0,0.0,0.0,0.0,0.0
João Dourado,EBDA,João Dourado,João Dourado - EBDA,-11.334633,-41.651131,Norte,RPGA dos Rios Verde e Jacaré,0.0,0.0,0.0,0.0,0.0,0.0,0.0,0.0,0.0,0.0,0.0,0.0,0.0,0.0,0.0,0.0,0.0,0.0,0.0,0.0,0.0,0.0,0.0,0.0,0.0,0.0,0.0,0.0,0.0,0.0,0.0
Jussara,EBDA,Jussara,Jussara - EBDA,-11.051296,-40.96778,Norte,RPGA do Rio Salitre,0.0,0.0,0.0,0.0,0.0,0.0,0.0,0.0,0.0,0.0,0.0,0.0,0.0,0.0,0.0,0.0,0.0,0.0,0.0,0.0,0.0,0.0,0.0,0.0,0.0,0.0,0.0,0.0,0.0,0.0,0.0
Lapão,EBDA,Lapão,Lapão - EBDA,-11.367966,-41.817803,Norte,RPGA dos Rios Verde e Jacaré,0.0,0.0,0.0,0.0,0.0,0.0,0.0,0.0,0.0,0.0,0.0,0.0,0.0,0.0,0.0,0.0,0.0,0.0,0.0,0.0,0.0,0.0,0.0,0.0,0.0,0.0,0.0,0.0,0.0,0.0,0.0
Presidente Dutra,EBDA,Presidente Dutra,Presidente Dutra - EBDA,-11.284632,-41.651131,Norte,RPGA dos Rios Verde e Jacaré,0.0,0.0,0.0,0.0,0.0,0.0,0.0,0.0,0.0,0.0,0.0,0.0,0.0,0.0,0.0,0.0,0.0,0.0,0.0,0.0,0.0,0.0,0.0,0.0,0.0,0.0,0.0,0.0,0.0,0.0,0.0
Uibaí,EBDA,Uibaí,Uibaí - EBDA,-11.334632,-42.134477,Norte,RPGA dos Rios Verde e Jacaré,0.0,0.0,0.0,0.0,0.0,0.0,0.0,0.0,0.0,0.0,0.0,0.0,0.0,0.0,0.0,0.0,0.0,0.0,0.0,0.0,0.0,0.0,0.0,0.0,0.0,0.0,0.0,0.0,0.0,0.0,0.0
Irecê,83182,Irecê,Irecê - 83182,-11.3,-41.866667,Norte,RPGA dos Rios Verde e Jacaré,0.0,0.0,0.0,0.0,0.0,0.0,0.0,0.0,0.0,0.0,0.0,0.0,0.0,0.0,0.0,0.0,0.0,0.0,0.0,0.0,0.0,0.0,0.0,0.0,0.0,0.0,0.0,0.0,0.0,0.0,0.0
Remanso,82979,Remanso,Remanso - 82979,-9.633333,-42.1,Norte,RPGA do Lago de Sobradinho,0.0,9.6,0.0,0.0,0.0,0.0,0.0,0.0,0.0,0.0,0.0,0.0,0.0,0.0,0.0,0.0,0.0,0.0,0.0,0.0,0.0,0.0,0.0,0.0,0.0,5.4,0.0,0.0,0.0,2.7,17.7
Delfino,A443,Umburanas,Umburanas (Delfino) - A443,-10.45492,-41.206996,Norte,RPGA do Rio Salitre,0.0,0.0,0.6,0.8,0.2,0.0,0.0,0.0,0.2,0.2,0.0,0.0,0.0,0.0,0.0,0.0,0.0,0.0,0.0,0.0,0.0,0.0,0.0,0.0,0.0,2.2,1.0,0.8,0.0,3.2,9.2
Remanso,A423,Remanso,Remanso - A423,-9.625693,-42.077214,Norte,RPGA do Lago de Sobradinho,0.0,9.8,0.0,0.0,0.0,0.0,0.0,0.0,0.0,0.0,0.0,0.0,0.0,0.0,0.0,0.0,0.0,0.0,0.0,0.0,0.0,0.0,0.0,0.0,0.0,5.6,0.0,0.0,0.0,2.4,17.8
Irecê,A424,Irecê,Irecê - A424,-11.328998,-41.864504,Norte,RPGA dos Rios Verde e Jacaré,0.0,0.0,0.0,0.0,0.0,0.0,0.0,0.0,0.0,0.0,0.0,0.0,0.0,0.0,0.0,0.0,0.0,0.0,0.0,0.0,0.0,0.0,0.0,0.0,0.0,0.8,0.0,0.0,0.0,0.0,0.8
Juazeiro,UEP - EMBRAPA -EBDA - EBDA,Juazeiro,Juazeiro - UEP - EMBRAPA -EBDA - EBDA,-9.41293,-40.499706,Norte,RPGA dos Rios Macururé e Curaçá,0.0,0.0,0.0,0.0,0.0,0.0,0.0,0.0,0.0,0.0,0.0,0.0,0.0,0.0,0.0,0.0,0.0,0.0,0.0,0.0,0.0,0.0,0.0,0.0,0.0,0.0,0.0,0.0,0.0,0.0,0.0
Juazeiro,Est. Exp. Caraíbas - EBDA,Juazeiro,Juazeiro - Est. Exp. Caraíbas - EBDA,-9.418208,-40.510817,Norte,RPGA dos Rios Macururé e Curaçá,0.0,0.0,0.0,0.0,0.0,0.0,0.0,0.0,0.0,0.0,0.0,0.0,0.0,0.0,0.0,0.0,0.0,0.0,0.0,0.0,0.0,0.0,0.0,0.0,0.0,0.0,0.0,0.0,0.0,0.0,0.0
Ibitibá,,Ibitibá,Ibitibá,-11.551736,-41.968187,Norte,RPGA dos Rios Verde e Jacaré,0.0,0.0,0.0,0.0,0.0,0.0,0.0,0.0,0.0,0.0,0.0,0.0,0.0,0.0,0.0,0.0,0.0,0.0,0.0,0.0,0.0,0.0,0.0,0.0,0.0,0.25,0.0,0.0,0.0,0.0,0.25
Jussara,Arrecife,Jussara,Jussara - Arrecife,-11.065335,-41.974853,Norte,RPGA dos Rios Verde e Jacaré,0.0,0.0,0.0,0.0,0.0,0.0,0.0,0.0,0.0,0.0,0.0,0.0,0.0,0.0,0.0,0.0,0.0,0.0,0.0,0.0,0.0,0.0,0.0,0.0,0.0,0.0,0.0,0.0,0.0,0.0,0.0
Ibipeba,,Ibipeba,Ibipeba,-11.673962,-42.010413,Norte,RPGA dos Rios Verde e Jacaré,0.0,0.0,0.0,0.0,0.0,0.0,0.0,0.0,0.0,0.0,0.0,0.0,0.0,0.0,0.0,0.0,0.0,0.0,0.0,0.0,0.0,0.0,0.0,0.0,0.0,1.0,0.0,0.0,0.0,0.0,1.0
Central,,Central,Central,-11.135391,-42.093468,Norte,RPGA dos Rios Verde e Jacaré,0.0,0.0,0.0,0.0,0.0,0.0,0.0,0.0,0.0,0.0,0.0,0.0,0.0,0.0,0.0,0.0,0.0,0.0,0.0,0.0,0.0,0.0,0.0,0.0,0.0,0.0,0.0,0.0,0.0,0.0,0.0
Irecê,VJ-CL-01,Irecê,Irecê - VJ-CL-01,-11.289166,-41.894166,Norte,RPGA dos Rios Verde e Jacaré,0.0,0.0,0.0,0.0,0.0,0.0,0.0,0.0,0.0,0.0,0.0,0.0,0.0,0.0,0.0,0.0,0.0,0.0,0.0,0.0,0.0,0.0,0.0,0.0,0.0,0.0,0.0,0.0,0.0,0.0,0.0
Santa Rosa,SM-PR-01,Jaguarari,Jaguarari (Santa Rosa) - SM-PR-01,-10.098374,-39.869774,Norte,RPGA dos Rios Macururé e Curaçá,0.0,0.0,1.5,0.25,0.25,0.25,0.0,0.0,1.75,9.0,0.5,0.0,0.25,0.0,0.0,0.0,0.0,0.0,3.0,0.0,0.0,0.0,8.25,0.0,0.75,5.5,22.75,0.5,0.75,5.5,60.75
Campo Formoso,IT-PR-27,Campo Formoso,Campo Formoso - IT-PR-27,-10.510327,-40.332849,Norte,RPGA do Rio Itapicuru,0.75,2.25,4.0,4.0,0.75,2.0,0.75,0.75,14.0,9.0,1.0,0.0,0.0,0.0,0.0,0.0,1.0,0.0,0.25,0.25,0.25,1.25,4.0,1.25,0.75,12.5,27.75,1.0,8.25,26.5,124.25
Jaguarari,IT-PR-28,Jaguarari,Jaguarari - IT-PR-28,-10.269489,-40.200344,Norte,RPGA do Rio Itapicuru,0.0,0.0,0.0,0.0,0.0,0.0,0.0,0.0,0.0,0.0,0.0,0.0,0.0,0.0,0.0,0.0,0.0,0.0,1.25,0.0,0.0,0.0,8.75,0.25,0.5,8.5,15.25,0.5,0.25,7.75,43.0
Mirangaba,IT-PR-29,Mirangaba,Mirangaba - IT-PR-29,-10.954784,-40.574527,Norte,RPGA do Rio Itapicuru,0.0,0.25,2.5,1.0,0.5,0.0,0.0,0.75,0.25,2.5,0.0,0.0,0.0,0.0,0.0,0.0,0.5,0.0,0.0,0.0,0.0,0.0,0.0,0.0,0.0,6.5,8.0,0.5,0.5,12.25,36.0
América Dourada,EBDA,América Dourada,América Dourada - EBDA,-11.384635,-41.584464,Norte,RPGA dos Rios Verde e Jacaré,0.0,0.0,0.0,0.0,0.0,0.0,0.0,0.0,0.0,0.0,0.0,0.0,0.0,0.0,0.0,0.0,0.0,0.0,0.0,0.0,0.0,0.0,0.0,0.0,0.0,0.0,0.0,0.0,0.0,0.0,0.0
Taquarendi,,Taquarendi,Taquarendi,-10.893669,-40.687028,Norte,RPGA do Rio Salitre,0.0,0.0,0.25,0.25,0.0,0.0,0.0,0.0,0.0,0.0,0.0,0.0,0.0,0.0,0.0,0.0,0.0,0.0,0.0,0.0,0.0,0.0,0.0,0.0,0.0,1.25,1.75,0.5,0.25,1.25,5.5
São Gabriel,EBDA,São Gabriel,São Gabriel - EBDA,-11.134629,-41.867803,Norte,RPGA dos Rios Verde e Jacaré,0.0,0.0,0.0,0.0,0.0,0.0,0.0,0.0,0.0,0.0,0.0,0.0,0.0,0.0,0.0,0.0,0.0,0.0,0.0,0.0,0.0,0.0,0.0,0.0,0.0,0.0,0.0,0.0,0.0,0.0,0.0
Campo Formoso,EBDA,Campo Formoso,Campo Formoso - EBDA,-10.501287,-40.317761,Norte,RPGA do Rio Itapicuru,0.0,6.0,10.0,2.0,0.0,0.0,0.0,24.0,16.0,11.0,9.0,0.0,0.0,0.0,0.0,6.0,0.0,0.0,0.0,0.0,6.0,4.0,0.0,0.0,20.0,57.0,9.0,5.0,48.0,29.0,262.0
Limoeiro,GR-PR-18,Barreiras,Barreiras (Limoeiro) - GR-PR-18,-12.293403,-45.544421,Oeste,RPGA do Rio Grande,0.0,0.0,0.0,0.0,0.0,0.0,0.0,0.0,0.0,0.0,0.0,0.0,0.0,0.0,0.0,0.0,0.0,0.0,0.0,0.0,0.0,0.0,0.0,0.0,0.0,0.0,0.0,0.0,0.0,0.0,0.0
Fazenda Rio Brilhante,,Fazenda Rio Brilhante,Fazenda Rio Brilhante,-12.802859,-45.729985,Oeste,RPGA do Rio Grande,0.0,0.0,0.0,0.0,0.0,0.0,0.0,0.0,0.0,0.0,0.0,0.0,0.0,0.0,0.0,0.0,0.0,0.0,0.0,0.0,0.0,0.0,0.0,0.0,0.0,0.0,0.0,0.0,0.0,0.0,0.0
Fazenda Buritis,,Fazenda Buritis,Fazenda Buritis,-12.643967,-45.453029,Oeste,RPGA do Rio Grande,0.0,0.0,0.0,0.0,0.0,0.0,0.0,0.0,0.0,0.0,0.0,0.0,0.0,0.0,0.0,0.0,0.0,0.0,0.0,0.0,0.0,0.0,0.0,0.0,0.0,0.0,0.0,0.0,0.0,0.0,0.0
Fazenda Catarinense,,Fazenda Catarinense,Fazenda Catarinense,-13.286201,-46.028331,Oeste,RPGA do Rio Grande,0.0,0.0,0.0,0.0,0.0,0.0,0.0,0.0,0.0,0.0,0.0,0.0,0.0,0.0,0.0,0.0,0.0,0.0,0.0,0.0,0.0,0.0,0.0,0.0,0.0,0.0,0.0,0.0,0.0,0.0,0.0
INMET,EBDA,Barreiras,Barreiras (INMET) - EBDA,-12.134635,-44.984551,Oeste,RPGA do Rio Grande,0.0,0.0,0.0,0.0,0.0,0.0,0.0,0.0,0.0,0.0,0.0,0.0,0.0,0.0,0.0,0.0,0.0,0.0,0.0,0.0,0.0,0.0,0.0,0.0,0.0,0.0,0.0,0.0,0.0,0.0,0.0
Arrojolândia,,Arrojolândia,Arrojolândia,-13.741772,-45.466093,Oeste,"RPGA do Rio Corrente e Riachos do Ramalho, Serra Dourada e Brejo Velho",0.0,0.0,0.0,0.0,0.0,0.0,0.0,0.0,0.0,0.0,0.0,0.0,0.0,0.0,0.0,0.0,0.0,0.0,0.0,0.0,0.0,0.0,0.0,0.0,0.0,0.75,0.0,0.0,0.0,0.0,0.75
Rosário,CT-PR-03,Correntina,Correntina (Rosário) - CT-PR-03,-13.940105,-46.188064,Oeste,"RPGA do Rio Corrente e Riachos do Ramalho, Serra Dourada e Brejo Velho",0.0,0.0,0.0,0.0,0.0,0.0,0.0,0.0,0.0,0.0,0.0,0.0,0.0,0.0,0.0,0.0,0.0,0.0,0.0,0.0,0.0,0.0,0.0,0.0,0.0,0.0,0.0,0.0,0.0,0.0,0.0
Fazenda Nova Esperança,,Fazenda Nova Esperança,Fazenda Nova Esperança,-13.987891,-45.389148,Oeste,"RPGA do Rio Corrente e Riachos do Ramalho, Serra Dourada e Brejo Velho",0.0,0.0,0.0,0.0,0.0,0.0,0.0,0.0,0.0,0.0,0.0,0.0,0.0,0.0,0.0,0.0,0.0,0.0,0.0,0.0,0.0,0.0,0.0,0.0,0.25,0.25,0.0,0.0,0.0,0.0,0.5
SEDE,EBDA,Formosa do Rio Preto,Formosa do Rio Preto (SEDE) - EBDA,-11.051281,-45.201218,Oeste,RPGA do Rio Grande,0.0,0.0,0.0,0.0,0.0,0.0,0.0,0.0,0.0,0.0,0.0,0.0,0.0,0.0,0.0,0.0,0.0,0.0,0.0,0.0,0.0,0.0,0.0,0.0,0.0,0.0,0.0,0.0,0.0,0.0,0.0
Fazenda Cachoeirinha,,Fazenda Cachoeirinha,Fazenda Cachoeirinha,-14.389284,-45.840279,Oeste,"RPGA do Rio Corrente e Riachos do Ramalho, Serra Dourada e Brejo Velho",0.0,0.0,0.0,0.25,0.0,0.0,0.0,0.0,0.0,0.0,0.0,0.0,0.0,0.0,0.0,0.0,0.0,0.0,0.0,0.0,0.0,0.0,0.0,0.0,0.0,0.0,0.0,0.0,0.0,0.0,0.25
Projeto Alto Formoso,,Projeto Alto Formoso,Projeto Alto Formoso,-14.260954,-45.27887,Oeste,"RPGA do Rio Corrente e Riachos do Ramalho, Serra Dourada e Brejo Velho",0.0,0.0,0.0,0.0,0.0,0.0,0.0,0.0,0.0,0.0,0.0,0.0,0.0,0.0,0.0,0.0,0.0,0.0,0.0,0.0,0.0,0.0,0.0,0.0,0.0,0.0,0.0,0.0,0.0,0.0,0.0
Correntina,A416,Correntina,Correntina - A416,-13.332386,-44.617376,Oeste,"RPGA do Rio Corrente e Riachos do Ramalho, Serra Dourada e Brejo Velho",0.0,0.0,0.0,0.0,0.0,0.0,0.0,0.0,0.0,0.0,0.0,0.0,0.0,0.0,0.0,0.0,0.0,0.0,0.0,0.0,0.0,0.0,0.0,0.0,0.0,0.0,0.0,0.0,0.0,0.0,0.0
Correntina,83286,Correntina,Correntina - 83286,-13.332222,-44.617222,Oeste,"RPGA do Rio Corrente e Riachos do Ramalho, Serra Dourada e Brejo Velho",0.0,0.0,0.0,0.0,0.0,0.0,0.0,0.0,0.0,0.0,0.0,0.0,0.0,0.0,0.0,0.0,0.0,0.0,0.0,0.0,0.0,0.0,0.0,0.0,0.0,0.0,0.0,0.0,0.0,0.0,0.0
SEDE,EBDA,Riachão das Neves,Riachão das Neves (SEDE) - EBDA,-11.747407,-44.911215,Oeste,RPGA do Rio Grande,0.0,0.0,0.0,0.0,0.0,0.0,0.0,0.0,0.0,0.0,0.0,0.0,0.0,0.0,0.0,0.0,0.0,0.0,0.0,0.0,0.0,0.0,0.0,0.0,0.0,0.0,0.0,0.0,0.0,0.0,0.0
Form. Rio Preto,46550000,Barreiras,Barreiras (Form. Rio Preto) - 46550000,-11.154444,-45.009166,Oeste,RPGA do Rio Grande,0.0,0.0,0.0,0.0,0.0,0.0,0.0,0.0,0.0,0.0,0.0,0.0,0.0,0.0,0.0,0.0,0.0,0.0,0.0,0.0,0.0,0.0,0.0,0.0,0.0,0.0,0.0,0.0,0.0,0.0,0.0
COACERAL,GR-CL-02,Formosa do Rio Preto,Formosa do Rio Preto (COACERAL) - GR-CL-02,-10.561944,-45.693333,Oeste,RPGA do Rio Grande,0.0,0.0,0.0,0.0,0.0,0.0,0.0,0.0,0.0,0.0,0.0,0.0,0.0,0.0,0.0,0.0,0.0,0.0,0.0,0.0,0.0,0.0,0.0,0.0,0.0,0.0,0.0,0.0,0.0,0.0,0.0
Barreiras,A402,Barreiras,Barreiras - A402,-12.124715,-45.027049,Oeste,RPGA do Rio Grande,0.0,0.0,0.0,0.0,0.0,0.0,0.0,0.0,0.0,0.0,0.0,0.0,0.0,0.0,0.0,0.0,0.0,0.0,0.0,0.0,0.0,0.0,0.0,0.0,0.0,0.0,0.0,0.0,0.0,0.0,0.0
Luís Eduardo Magalhães,A404,Luís Eduardo Magalhães,Luís Eduardo Magalhães - A404,-12.152394,-45.829745,Oeste,RPGA do Rio Grande,0.0,0.0,0.0,0.0,0.0,0.0,0.0,0.0,0.0,0.0,0.0,0.0,0.0,0.0,0.0,0.0,0.0,0.0,0.0,0.0,0.0,0.0,0.0,0.0,0.0,0.0,0.0,0.0,0.0,0.0,0.0
Barreiras,EBDA,Barreiras,Barreiras - EBDA,-12.084632,-45.6679,Oeste,RPGA do Rio Grande,0.0,0.0,0.0,0.0,0.0,0.0,0.0,0.0,0.0,0.0,0.0,0.0,0.0,0.0,0.0,0.0,0.0,0.0,0.0,0.0,0.0,0.0,0.0,0.0,0.0,0.0,0.0,0.0,0.0,0.0,0.0
São Desidério,R. Velha - GR-CL-01,São Desidério,São Desidério - R. Velha - GR-CL-01,-12.898055,-46.157222,Oeste,RPGA do Rio Grande,0.0,0.0,0.0,0.0,0.0,0.0,0.0,0.0,0.0,0.0,0.0,0.0,0.0,0.0,0.0,0.0,0.0,0.0,0.0,0.0,0.0,0.0,0.0,0.0,0.0,0.0,0.0,0.0,0.0,0.0,0.0
Fazenda Evandro,GR-PR-01,Formosa do Rio Preto,Formosa do Rio Preto (Fazenda Evandro) - GR-PR-01,-10.600581,-45.822752,Oeste,RPGA do Rio Grande,0.0,0.0,0.0,0.0,0.0,0.0,0.0,0.0,0.0,0.0,0.0,0.0,0.0,0.0,0.0,0.0,0.0,0.0,0.0,0.0,0.0,0.0,0.0,0.0,0.0,0.25,0.0,0.0,0.0,0.0,0.25
Garganta,GR-PR-04,Formosa do Rio Preto,Formosa do Rio Preto (Garganta) - GR-PR-04,-11.384764,-46.505001,Oeste,RPGA do Rio Grande,0.0,0.0,0.0,0.0,0.0,0.0,0.0,0.0,0.0,0.0,0.0,0.0,0.0,0.0,0.0,0.0,0.0,0.0,0.0,0.0,0.0,0.0,0.0,0.0,0.0,0.0,0.0,0.0,0.0,0.0,0.0
Restaurante Anel da Soja,,Restaurante Anel da Soja,Restaurante Anel da Soja,-11.598938,-46.005263,Oeste,RPGA do Rio Grande,0.0,0.0,0.0,0.0,0.0,0.0,0.0,0.0,0.0,0.0,0.0,0.0,0.0,0.0,0.0,0.0,0.0,0.0,0.0,0.25,0.0,0.0,0.0,0.0,0.0,0.0,0.0,0.0,0.0,0.0,0.25
Fazenda Santa Rita de Cássia,,Fazenda Santa Rita de Cássia,Fazenda Santa Rita de Cássia,-11.625053,-45.645252,Oeste,RPGA do Rio Grande,0.0,0.0,0.0,0.0,0.0,0.0,0.0,0.0,0.0,0.0,0.0,0.0,0.0,0.0,0.0,0.0,0.0,0.0,0.0,0.0,0.0,0.0,0.0,0.0,0.0,0.0,0.0,0.0,0.0,0.0,0.0
Algocel,,Algocel,Algocel,-11.758942,-46.205271,Oeste,RPGA do Rio Grande,0.0,0.0,0.0,0.0,0.0,0.0,0.0,0.0,0.0,0.0,0.0,0.0,0.0,0.0,0.0,0.0,0.0,0.0,0.0,0.0,0.0,0.0,0.0,0.0,0.0,0.0,0.0,0.0,0.0,0.0,0.0
Santa Inês,EBDA,Santa Inês,Santa Inês - EBDA,-13.28468,-39.834426,Recôncavo,RPGA do Recôncavo Sul,0.0,0.0,0.0,0.0,0.0,0.0,0.0,0.0,0.0,0.0,0.0,0.0,0.0,0.0,0.0,0.0,0.0,0.0,0.0,0.0,0.0,0.0,0.0,0.0,0.0,0.0,2.0,0.0,0.0,0.0,2.0
Argoim,Rafael Jambeiro,Argoim,Argoim - Rafael Jambeiro,-12.551332,-39.531083,Recôncavo,RPGA do Rio Paraguaçu,0.0,0.0,0.0,0.0,0.0,0.0,0.0,0.0,0.0,0.0,0.0,0.0,0.0,0.0,0.0,1.0,0.0,0.0,0.0,0.0,0.0,0.0,0.0,0.0,0.0,5.0,0.0,2.0,0.0,1.0,9.0
J. Zoológico,A401,Salvador,Salvador (J. Zoológico) - A401,-13.005515,-38.50576,Recôncavo,RPGA do Recôncavo Norte,0.0,0.8,10.6,1.2,0.4,0.0,0.0,10.8,0.8,5.0,0.0,0.2,3.8,0.6,12.8,9.4,0.8,0.2,6.6,1.4,1.4,0.2,2.0,1.6,5.6,3.8,0.2,2.4,4.2,18.2,105.01
Cruz das Almas,A406,Cruz das Almas,Cruz das Almas - A406,-12.675422,-39.08958,Recôncavo,RPGA do Rio Paraguaçu,0.0,1.8,6.2,6.6,1.8,0.0,0.0,12.0,0.4,2.6,0.6,0.0,0.0,0.0,0.4,10.0,0.0,0.2,0.0,0.4,0.0,0.0,0.0,1.0,4.4,15.6,1.2,2.0,20.2,14.4,101.81
Salvador,Canabrava,Salvador,Salvador - Canabrava,-12.924122,-38.429942,Recôncavo,RPGA do Recôncavo Norte,0.0,0.8,9.8,0.0,0.2,0.0,0.0,3.6,0.0,0.9,0.0,4.8,0.0,0.3,1.0,11.9,0.0,0.0,3.0,0.0,0.0,0.0,1.8,2.1,4.5,0.0,6.3,1.2,5.0,2.2,59.41
Salvador,Inema -Monte Serrat,Salvador,Salvador - Inema -Monte Serrat,-12.930789,-38.517167,Recôncavo,RPGA do Recôncavo Norte,0.0,2.9,1.4,0.6,0.7,0.0,0.0,4.1,3.6,3.9,0.8,1.8,4.5,0.2,11.3,5.4,0.5,0.0,4.1,0.9,1.7,0.0,1.3,0.9,7.9,9.3,0.2,6.6,6.2,9.9,90.7
Salvador,19 BC,Salvador,Salvador - 19 BC,-12.961069,-38.461056,Recôncavo,RPGA do Recôncavo Norte,2.1,0.8,1.8,0.5,0.7,0.4,0.0,6.1,1.2,0.3,0.9,1.9,0.4,10.3,2.1,2.5,1.8,0.7,1.1,0.7,0.8,2.9,0.5,1.7,1.3,3.5,0.9,2.5,12.5,7.5,70.4
Salvador,Base Naval/SSN,Salvador,Salvador - Base Naval/SSN,-12.796341,-38.489389,Recôncavo,RPGA do Recôncavo Norte,0.0,1.2,10.4,0.9,3.0,0.2,0.0,11.0,0.0,1.1,0.0,3.2,1.7,1.1,0.0,12.8,3.4,0.2,0.0,55.4,0.0,1.0,0.0,0.0,0.0,13.7,2.9,6.5,6.8,3.9,140.41
Salvador,Ilha Amarela,Salvador,Salvador - Ilha Amarela,-12.891344,-38.470778,Recôncavo,RPGA do Recôncavo Norte,0.0,1.9,17.5,1.0,2.0,0.0,0.0,1.7,0.0,1.4,0.6,5.3,7.2,0.2,0.2,8.8,3.6,0.3,4.9,1.1,0.5,0.0,0.6,3.2,6.9,9.6,2.6,2.3,10.0,17.5,110.9
Feira de Santana,A413,Feira de Santana,Feira de Santana - A413,-12.1962,-38.967384,Recôncavo,RPGA do Recôncavo Norte,0.0,0.0,0.0,0.0,0.0,0.0,0.0,0.0,0.0,0.0,0.0,0.0,0.0,0.0,0.0,0.0,0.0,0.0,0.0,0.0,0.0,0.0,0.0,0.0,0.0,0.0,0.0,0.0,0.0,0.0,0.0
Alagoinhas,83249,Alagoinhas,Alagoinhas - 83249,-12.148333,-38.425556,Recôncavo,RPGA do Recôncavo Norte,0.0,12.9,18.2,1.3,0.3,0.3,18.8,19.6,0.8,4.2,0.0,12.8,3.8,0.2,0.4,1.1,0.2,0.0,0.3,0.0,0.0,0.0,7.1,0.0,2.1,27.2,2.1,3.7,10.4,26.2,174.0
Cruz das Almas,83222,Cruz das Almas,Cruz das Almas - 83222,-12.666667,-39.083333,Recôncavo,RPGA do Rio Paraguaçu,0.0,1.9,6.2,5.6,1.0,0.0,0.0,10.7,0.0,2.4,0.0,0.0,0.0,0.0,0.2,10.9,0.0,0.0,0.0,0.0,0.0,0.0,0.0,0.8,4.9,14.8,1.1,2.0,19.8,12.4,94.7
Feira de Santana,83221,Feira de Santana,Feira de Santana - 83221,-12.196111,-38.967222,Recôncavo,RPGA do Recôncavo Norte,0.0,3.9,4.2,4.9,0.4,0.0,0.0,15.8,0.0,2.4,0.8,3.8,0.0,0.0,1.2,1.4,2.8,0.0,0.0,0.0,0.0,0.0,0.0,0.0,0.1,13.7,1.3,1.6,11.8,12.2,82.3
Santo Estêvão,EBDA,Santo Estêvão,Santo Estêvão - EBDA,-12.434665,-39.251074,Recôncavo,RPGA do Rio Paraguaçu,0.0,1.0,1.3,0.2,0.0,0.0,4.8,0.0,0.0,0.0,0.0,0.0,0.0,0.0,5.2,0.9,0.0,0.0,0.0,0.0,0.0,0.0,0.0,0.0,6.8,3.5,4.5,14.9,14.7,22.6,80.4
Amargosa,A434,Amargosa,Amargosa - A434,-13.009468,-39.616881,Recôncavo,RPGA do Recôncavo Sul,0.0,0.0,0.8,1.2,0.2,0.2,0.0,0.4,0.0,0.0,0.0,0.0,0.0,0.0,0.0,0.2,2.4,0.2,0.4,0.6,0.2,0.0,0.0,0.2,3.0,12.0,0.6,5.8,2.8,3.0,34.2
São Sebastião do Passé,EBDA,São Sebastião do Passé,São Sebastião do Passé - EBDA,-12.518004,-38.501056,Recôncavo,RPGA do Recôncavo Norte,0.0,1.6,19.7,0.0,0.0,0.0,62.0,7.3,2.1,0.5,15.8,0.5,2.7,0.0,2.3,0.0,0.0,0.0,0.0,0.0,0.0,0.0,9.6,2.3,12.1,1.1,9.4,19.3,14.7,52.0,235.0
Feira de Santana,Fz.C. Mocó - EBDA,Feira de Santana,Feira de Santana - Fz.C. Mocó - EBDA,-12.267996,-38.967732,Recôncavo,RPGA do Rio Paraguaçu,0.0,9.0,10.0,0.0,0.0,0.0,0.0,12.0,0.0,0.0,0.0,0.0,10.0,13.0,15.0,0.0,0.0,0.0,0.0,0.0,0.0,0.0,0.0,0.0,20.0,0.0,5.5,15.0,20.0,21.0,150.5
Conceição da Feira,EBDA,Conceição da Feira,Conceição da Feira - EBDA,-12.501335,-39.001068,Recôncavo,RPGA do Recôncavo Norte,4.4,4.4,8.0,0.3,0.0,0.0,10.0,0.0,0.0,0.0,0.0,0.0,0.0,0.0,9.5,1.0,0.0,0.0,0.0,0.0,0.0,0.0,0.0,0.4,0.5,19.0,2.5,12.0,2.0,32.0,106.0
Valença,A444,Valença,Valença - A444,-13.34361,-39.12667,Recôncavo,RPGA do Recôncavo Sul,0.0,0.6,5.4,6.2,3.2,0.2,0.0,0.2,0.0,1.0,0.0,0.0,0.0,0.0,0.0,2.4,1.6,0.4,6.0,3.8,5.8,0.0,0.0,0.2,11.4,16.2,1.4,12.4,14.4,4.6,97.4
Mata de São João,ETA - Embasa,Mata de São João,Mata de São João - ETA - Embasa,-12.394946,-37.934649,Recôncavo,RPGA do Recôncavo Norte,0.0,0.0,5.9,0.3,0.0,0.0,5.1,0.0,15.0,10.0,0.3,3.9,3.8,2.0,3.1,0.3,1.5,3.3,2.5,0.0,0.0,1.3,13.1,0.5,3.9,34.7,1.4,8.1,9.0,32.1,161.1
Candeias,EMBASA,Candeias,Candeias - EMBASA,-12.663561,-38.533,Recôncavo,RPGA do Recôncavo Norte,0.0,2.9,4.1,0.5,0.5,0.0,27.5,0.0,1.3,1.3,0.3,7.7,4.4,15.6,3.4,11.8,2.9,0.3,0.1,0.0,1.6,0.0,3.4,0.0,0.0,10.7,0.0,3.5,6.1,8.1,118.0
Dias D´Ávila,EMBASA,Dias D´Ávila,Dias D´Ávila - EMBASA,-12.620505,-38.315217,Recôncavo,RPGA do Recôncavo Norte,0.0,0.0,10.0,2.5,0.0,0.0,1.3,60.0,0.0,0.0,1.2,35.0,0.0,5.0,0.0,14.0,3.0,0.0,2.5,4.0,0.0,0.0,0.0,5.0,5.0,16.3,1.8,8.2,22.5,21.0,218.3
São Sebastião do Passé-EMBASA,,São Sebastião do Passé-EMBASA,São Sebastião do Passé-EMBASA,-12.517449,-38.492165,Recôncavo,RPGA do Recôncavo Norte,0.0,4.2,0.0,0.0,0.0,0.0,0.0,56.9,0.0,0.0,1.2,16.0,7.2,0.0,2.0,3.9,6.3,6.3,0.0,0.0,0.0,0.0,0.0,3.3,5.9,16.2,3.4,1.2,21.2,17.3,172.5
Joanes II,322,Simões Filho,Simões Filho (Joanes II) - 322,-12.674147,-38.376254,Recôncavo,RPGA do Recôncavo Norte,0.0,0.8,0.0,0.0,0.0,2.1,0.0,57.5,8.5,0.2,0.0,12.3,2.5,1.2,0.8,8.6,3.6,0.3,0.0,0.0,2.0,0.0,1.2,0.0,3.6,9.3,2.8,1.6,15.5,13.2,147.6
Santa Helena,323,Camaçari,Camaçari (Santa Helena) - 323,-12.56202,-38.1606,Recôncavo,RPGA do Recôncavo Norte,0.0,0.5,10.5,0.0,0.0,0.0,0.9,56.7,2.4,1.4,0.6,0.0,1.6,2.4,1.2,0.4,1.1,1.3,1.3,5.5,0.0,0.0,3.6,1.8,1.1,18.1,1.2,1.7,7.5,1.1,123.9
Pedrão,EBDA,Pedrão,Pedrão - EBDA,-12.151329,-38.651056,Recôncavo,RPGA do Recôncavo Norte,0.0,10.0,2.5,0.0,0.0,0.0,20.0,5.0,0.0,0.0,10.0,20.0,12.0,0.0,0.0,0.0,0.0,0.0,0.0,0.0,0.0,3.0,5.0,0.0,15.0,5.0,5.0,0.0,15.0,55.0,182.5
Saubara,EBDA,Saubara,Saubara - EBDA,-12.734674,-38.784396,Recôncavo,RPGA do Recôncavo Norte,4.6,4.6,3.6,3.6,0.0,0.0,0.0,0.0,0.0,0.4,0.0,0.0,0.0,1.3,3.5,5.0,0.0,0.0,0.0,0.0,0.0,0.0,0.0,1.1,14.0,10.9,36.8,16.6,14.1,38.9,159.0
Ondina,83229,Salvador,Salvador (Ondina) - 83229,-13.005278,-38.505833,Recôncavo,RPGA do Recôncavo Norte,0.0,0.6,10.0,0.9,0.2,0.0,0.0,10.8,0.6,4.9,0.0,0.0,3.1,0.8,10.8,8.8,0.6,0.1,6.2,1.2,1.6,0.2,1.8,1.6,5.3,3.8,0.0,2.1,4.0,16.6,96.6
Feira de Santana,PG-PR-13,Feira de Santana,Feira de Santana - PG-PR-13,-12.268161,-38.96642,Recôncavo,RPGA do Rio Paraguaçu,0.0,3.5,8.5,4.25,0.75,0.0,0.0,11.5,0.0,2.75,1.5,4.25,0.0,0.0,0.25,3.5,0.5,0.0,0.0,0.0,0.0,0.0,0.0,0.0,0.25,11.75,0.25,2.0,14.25,12.5,82.25
Itatim,PG-PR-14,Itatim,Itatim - PG-PR-14,-12.720391,-39.700059,Recôncavo,RPGA do Rio Paraguaçu,0.0,0.0,0.0,0.0,0.0,0.0,0.0,0.0,0.0,0.0,0.0,0.0,0.0,0.0,0.0,0.0,0.0,0.0,0.0,0.0,0.0,0.0,0.0,0.0,0.0,0.25,0.0,0.5,0.0,0.0,0.75
Feira de Santana,DERBA,Feira de Santana,Feira de Santana - DERBA,-12.251329,-38.767728,Recôncavo,RPGA do Recôncavo Norte,0.0,0.0,0.0,11.2,0.0,0.0,1.0,21.1,0.0,3.4,0.0,3.7,0.0,0.0,0.0,2.6,3.1,0.0,0.0,0.0,0.0,0.0,0.0,0.0,0.0,4.0,3.5,5.0,15.5,1.8,75.9
Salvador,Itapuã - RN-CL-01,Salvador,Salvador - Itapuã - RN-CL-01,-12.931388,-38.361111,Recôncavo,RPGA do Recôncavo Norte,1.1,2.9,15.9,0.3,0.4,0.2,0.0,12.1,0.6,0.2,0.5,5.5,5.2,5.2,1.1,4.3,0.9,0.4,4.6,0.4,0.4,5.5,0.3,0.9,4.2,2.8,0.5,1.3,4.0,16.6,98.31
Muritiba,PG-PR-12,Muritiba,Muritiba - PG-PR-12,-12.617895,-39.005591,Recôncavo,RPGA do Rio Paraguaçu,0.0,3.5,7.25,4.5,0.25,0.0,0.0,14.0,0.0,1.0,0.0,0.5,0.0,0.0,0.0,4.25,0.0,0.25,0.0,0.25,0.0,0.0,0.0,0.0,6.25,15.75,0.75,5.0,18.0,12.5,94.0
Amargosa,EBDA,Amargosa,Amargosa - EBDA,-13.034677,-39.601086,Recôncavo,RPGA do Recôncavo Sul,0.0,0.0,1.2,0.0,0.0,0.0,0.0,4.0,0.0,0.0,0.0,0.0,0.0,0.0,1.0,1.5,0.0,0.0,0.0,0.0,0.0,0.0,0.0,0.0,0.0,0.0,0.0,12.5,2.1,1.0,23.3
Coração de Maria,EBDA,Coração de Maria,Coração de Maria - EBDA,-12.234663,-38.751059,Recôncavo,RPGA do Recôncavo Norte,0.0,3.0,18.6,0.0,0.0,0.0,71.4,2.2,0.0,0.0,0.0,13.0,0.0,0.0,0.0,3.8,0.0,0.0,0.0,0.0,0.0,0.0,0.0,0.0,22.0,12.5,3.0,4.0,19.8,54.9,228.21
Irará,EBDA,Irará,Irará - EBDA,-12.034659,-38.767726,Recôncavo,RPGA do Recôncavo Norte,0.0,12.5,2.0,0.0,0.0,0.5,12.5,7.5,2.0,5.0,25.0,7.0,0.0,0.0,0.0,2.5,0.0,0.0,0.0,0.0,0.0,4.0,3.0,0.0,18.0,2.5,3.0,8.0,22.0,50.0,187.0
Santo Amaro,EBDA,Santo Amaro,Santo Amaro - EBDA,-12.551335,-38.701059,Recôncavo,RPGA do Recôncavo Norte,23.2,9.3,36.2,0.0,0.0,0.0,25.3,0.0,0.0,11.0,0.0,0.0,0.0,22.0,41.9,2.0,0.0,0.0,0.0,0.0,0.0,8.0,3.0,12.0,23.0,19.0,28.0,8.0,0.0,0.0,271.9
Conceição de Jacuípe,EBDA,Conceição de Jacuípe,Conceição de Jacuípe - EBDA,-12.317998,-38.767728,Recôncavo,RPGA do Recôncavo Norte,15.0,0.0,0.0,0.0,0.0,0.0,67.0,0.0,0.0,0.0,0.0,0.0,0.0,0.0,20.0,0.0,0.0,0.0,0.0,0.0,0.0,0.0,0.0,0.0,25.5,0.0,0.0,0.0,30.0,50.0,207.5
Itaparica,EBDA,Itaparica,Itaparica - EBDA,-12.884677,-38.684395,Recôncavo,RPGA do Recôncavo Sul,14.7,16.2,2.5,0.0,0.0,0.0,18.3,0.0,1.2,2.5,2.0,8.4,2.8,0.5,12.9,0.8,0.0,0.4,0.0,1.3,0.0,0.0,0.0,4.8,17.5,13.3,7.2,0.0,0.0,0.0,127.31
Muritiba,EBDA,Muritiba,Muritiba - EBDA,-12.618004,-38.984401,Recôncavo,RPGA do Rio Paraguaçu,0.0,15.0,10.0,2.5,0.0,0.0,17.5,0.0,0.0,0.0,0.0,0.0,0.0,0.0,12.5,3.0,0.0,0.0,0.0,0.0,0.0,0.0,0.0,0.0,30.0,2.5,5.0,0.0,6.0,15.0,119.0
Santo Antônio de Jesus,EBDA,Santo Antônio de Jesus,Santo Antônio de Jesus - EBDA,-12.96801,-39.267744,Recôncavo,RPGA do Recôncavo Sul,0.0,0.0,6.5,0.0,0.0,0.0,0.0,0.0,0.0,0.0,0.0,0.0,0.0,0.0,0.0,7.5,0.0,0.0,0.0,0.0,0.0,0.0,0.0,0.0,30.0,0.0,0.0,10.0,7.5,0.0,61.5
Valença,EBDA,Valença,Valença - EBDA,-13.368019,-39.06774,Recôncavo,RPGA do Recôncavo Sul,0.0,0.0,0.0,0.0,0.0,0.0,0.0,0.0,0.0,0.0,0.0,0.0,0.0,0.0,0.0,0.0,0.0,0.0,0.0,0.0,0.0,0.0,0.0,0.0,2.0,0.0,2.0,3.0,2.0,0.0,9.0
Ubaíra,EBDA,Ubaíra,Ubaíra - EBDA,-13.268014,-39.667756,Recôncavo,RPGA do Recôncavo Sul,0.0,0.0,0.0,0.0,0.0,0.0,0.0,0.0,0.0,0.0,0.0,0.0,0.0,0.0,0.0,0.0,0.0,0.0,0.0,0.0,0.0,0.0,0.0,2.0,0.0,2.0,3.0,2.0,0.0,0.0,9.0
Castro Alves,EBDA,Castro Alves,Castro Alves - EBDA,-12.751338,-39.434413,Recôncavo,RPGA do Rio Paraguaçu,0.0,0.0,0.0,0.0,0.0,0.0,0.0,0.0,0.0,0.0,0.0,0.0,0.0,0.0,0.0,0.0,0.0,0.0,0.0,0.0,0.0,0.0,0.0,0.0,10.0,6.0,7.0,10.0,0.0,0.0,33.0
Cruz das Almas,EBDA,Cruz das Almas,Cruz das Almas - EBDA,-12.668004,-39.101071,Recôncavo,RPGA do Rio Paraguaçu,0.0,0.0,12.0,0.0,0.0,0.0,13.0,0.0,1.5,0.0,0.0,0.0,0.0,0.5,10.0,0.0,0.0,0.0,0.0,0.0,0.0,0.0,0.0,2.0,5.0,15.0,2.0,20.0,11.5,17.0,109.5
Conceição do Almeida,EBDA,Conceição do Almeida,Conceição do Almeida - EBDA,-12.768005,-39.16774,Recôncavo,RPGA do Recôncavo Sul,0.0,0.0,10.0,5.0,5.0,0.0,0.0,3.0,9.0,0.0,0.0,0.0,0.0,0.0,0.0,5.0,0.0,0.0,0.0,0.0,0.0,0.0,0.0,2.5,7.5,20.0,12.5,10.0,20.0,15.0,124.5
Alagoinhas,EBDA,Alagoinhas,Alagoinhas - EBDA,-12.134662,-38.434384,Recôncavo,RPGA do Recôncavo Norte,14.0,0.0,20.0,1.0,0.0,17.0,18.0,2.0,2.5,0.0,13.0,5.5,1.0,1.0,0.0,0.0,0.0,0.0,0.0,0.0,0.0,6.0,5.5,9.0,25.0,2.5,2.0,7.0,28.0,44.0,224.0
Aramari,EBDA,Aramari,Aramari - EBDA,-12.08466,-38.501053,Recôncavo,RPGA do Recôncavo Norte,0.0,11.0,22.0,0.0,0.0,32.0,31.2,1.2,3.5,0.0,14.6,0.0,0.0,0.0,0.0,0.0,0.0,0.0,0.0,0.0,0.0,2.8,0.0,0.0,22.6,2.0,0.6,14.2,23.0,33.2,213.9
Mata de São João,EBDA,Mata de São João,Mata de São João - EBDA,-12.534671,-38.30105,Recôncavo,RPGA do Recôncavo Norte,5.0,7.0,22.0,0.0,0.0,0.0,48.0,0.0,0.0,5.0,0.0,0.0,47.0,8.0,0.0,0.0,4.0,0.0,0.0,0.0,2.0,0.0,0.0,0.0,0.0,20.0,15.0,17.0,16.0,16.0,232.0
Catu,EBDA,Catu,Catu - EBDA,-12.351333,-38.384384,Recôncavo,RPGA do Recôncavo Norte,0.0,5.0,0.0,0.0,5.0,0.0,17.2,8.5,0.0,10.5,10.5,30.0,0.0,0.0,0.0,0.0,0.0,0.0,7.5,0.0,0.0,7.5,10.0,5.0,25.0,15.0,7.5,15.0,15.0,20.0,214.2
Salvador,CIA,Salvador,Salvador - CIA,-12.865789,-38.365219,Recôncavo,RPGA do Recôncavo Norte,0.0,5.0,30.0,0.0,0.0,0.0,0.0,18.0,0.0,0.0,0.0,9.0,10.0,0.0,0.0,6.0,0.0,0.0,8.0,0.0,0.0,8.0,0.0,0.0,7.0,2.0,0.0,0.0,20.0,7.0,130.0
Feira de Santana,EBDA,Feira de Santana,Feira de Santana - EBDA,-12.268274,-38.96801,Recôncavo,RPGA do Rio Paraguaçu,0.0,0.0,0.0,0.0,0.0,0.0,0.0,0.0,0.0,4.2,0.0,0.0,0.0,0.0,0.0,0.0,0.0,0.0,0.0,0.0,0.0,0.0,0.0,0.0,0.0,12.6,0.0,14.8,15.4,22.8,69.8
Abaeté,RN-PR-01,Salvador,Salvador (Abaeté) - RN-PR-01,-12.945407,-38.361404,Recôncavo,RPGA do Recôncavo Norte,0.0,0.0,6.4,0.0,0.2,1.0,0.0,4.3,0.0,0.0,0.2,4.0,2.0,0.0,1.2,13.2,0.0,0.0,1.4,0.0,1.0,2.2,0.0,0.0,4.2,3.0,0.0,0.0,6.2,3.2,53.71
Rio Seco,EBDA,Amélia Rodrigues,Amélia Rodrigues (Rio Seco) - EBDA,-12.400777,-38.758839,Recôncavo,RPGA do Recôncavo Norte,7.5,23.0,9.0,7.6,0.0,0.0,48.0,6.0,7.5,3.0,17.5,6.0,0.0,6.0,14.0,0.0,0.0,0.0,0.0,0.0,0.0,0.0,0.0,0.0,32.5,5.0,7.5,17.5,25.5,38.0,281.1
Espinheira,,Espinheira,Espinheira,-14.283478,-41.75792,Sudoeste,RPGA do Rio de Contas,0.0,0.0,0.0,0.0,0.0,0.0,0.0,0.0,0.0,0.0,0.0,0.0,0.0,0.0,0.0,0.0,0.0,0.0,0.0,0.0,0.0,0.0,0.0,0.0,1.5,0.0,0.0,0.0,0.0,0.0,1.5
Maracás,EBDA,Maracás,Maracás - EBDA,-13.43468,-40.434443,Sudoeste,RPGA do Rio de Contas,0.0,0.0,0.0,0.0,0.0,0.0,0.0,0.0,0.0,0.0,0.0,0.0,0.0,0.0,0.0,0.0,0.0,0.0,0.0,0.0,0.0,0.0,3.0,0.0,0.0,0.0,0.0,0.0,0.0,0.0,3.0
Tanhaçu,EBDA,Tanhaçu,Tanhaçu - EBDA,-14.018022,-41.234467,Sudoeste,RPGA do Rio de Contas,0.0,0.0,0.0,0.0,0.0,0.0,0.0,0.0,0.0,0.0,0.0,0.0,0.0,0.0,0.0,0.0,0.0,0.0,0.0,0.0,0.0,0.0,0.0,0.0,0.0,0.0,0.0,0.0,0.0,0.0,0.0
Anagé,EBDA,Anagé,Anagé - EBDA,-14.618034,-41.134467,Sudoeste,RPGA do Rio de Contas,0.0,0.0,0.0,0.0,0.0,0.0,0.0,0.0,0.0,0.0,0.0,0.0,0.0,0.0,0.0,0.0,0.0,0.0,0.0,0.0,0.0,0.0,0.0,0.0,0.25,0.0,0.0,0.0,0.0,0.0,0.25
Cândido Sales,EBDA,Cândido Sales,Cândido Sales - EBDA,-15.501383,-41.234473,Sudoeste,RPGA do Rio Pardo,0.0,0.0,0.0,0.0,0.0,0.0,0.0,0.0,0.0,0.0,0.0,0.0,0.0,0.0,0.0,0.0,0.0,0.0,0.0,0.0,0.0,0.0,0.0,0.0,0.0,0.0,1.8,0.0,0.0,0.0,1.8
Ibicuí,EBDA,Ibicuí,Ibicuí - EBDA,-14.83471,-39.984437,Sudoeste,RPGA do Rio de Contas,0.0,0.0,0.0,2.0,1.0,0.0,2.0,0.0,0.0,0.0,0.0,0.0,0.0,0.0,0.0,0.0,0.0,0.0,0.0,0.0,0.0,0.0,0.0,0.0,8.5,0.0,7.0,1.0,0.0,0.0,21.5
Itapetinga,EBDA,Itapetinga,Itapetinga - EBDA,-15.251383,-40.251113,Sudoeste,RPGA do Rio Pardo,0.0,0.0,1.9,0.0,0.0,0.0,0.0,0.0,0.0,0.0,0.0,0.0,0.0,0.0,0.0,0.0,0.0,0.0,0.0,0.0,0.0,0.0,0.0,0.0,0.0,20.0,0.0,0.0,0.0,0.0,21.9
Itarantim,EBDA,Itarantim,Itarantim - EBDA,-15.651392,-40.067777,Sudoeste,RPGA do Rio Pardo,0.0,0.0,0.0,0.0,0.0,0.0,0.0,0.0,0.0,0.0,0.0,0.0,0.0,0.0,0.0,0.0,0.0,0.0,0.0,0.0,0.0,0.0,0.0,10.0,12.0,0.0,0.0,0.0,0.0,0.0,22.0
Macarani,EBDA,Macarani,Macarani - EBDA,-15.568056,-40.417786,Sudoeste,RPGA do Rio Pardo,0.0,0.0,0.0,0.0,0.0,0.0,0.0,0.0,0.0,0.0,0.0,0.0,0.0,0.0,0.0,0.0,0.0,0.0,0.0,0.0,0.0,0.0,0.0,7.0,7.0,0.0,0.0,4.0,0.0,0.0,18.0
Vitória da Conquista,EBDA,Vitória da Conquista,Vitória da Conquista - EBDA,-14.851374,-40.834461,Sudoeste,RPGA do Rio Pardo,0.0,0.0,0.0,6.5,0.0,0.0,0.0,0.0,0.0,0.0,0.0,0.0,0.0,0.0,0.0,0.0,0.0,0.0,0.0,0.0,0.0,0.0,0.0,4.45,3.3,0.0,0.25,1.45,1.0,0.0,16.95
Santo Antônio,Tanhaçu,Santo Antônio,Santo Antônio - Tanhaçu,-14.271359,-41.284468,Sudoeste,RPGA do Rio de Contas,0.0,0.0,0.0,0.0,0.0,0.0,0.0,0.0,0.0,0.0,0.0,0.0,0.0,0.0,0.0,0.0,0.0,0.0,0.0,0.0,0.0,0.0,0.0,0.0,0.0,0.0,0.0,0.0,0.0,0.0,0.0
Itiruçu,A407,Itiruçu,Itiruçu - A407,-13.52629,-40.12055,Sudoeste,RPGA do Recôncavo Sul,0.2,0.0,2.0,2.0,1.2,0.2,0.0,1.2,0.0,0.0,0.2,0.0,0.0,0.0,0.2,0.2,0.0,0.0,0.2,0.8,0.2,0.0,0.4,0.0,4.4,6.2,1.6,7.4,2.2,0.2,31.0
Vitória da Conquista,A414,Vitória da Conquista,Vitória da Conquista - A414,-14.886428,-40.80133,Sudoeste,RPGA do Rio Pardo,0.2,0.0,1.0,5.8,0.2,0.0,0.0,0.0,0.0,0.0,0.0,0.0,0.0,0.2,0.2,0.0,0.2,0.0,0.2,0.0,0.2,0.0,0.0,1.0,6.6,1.4,0.4,1.6,1.4,0.0,20.6
Condeúba,EBDA,Condeúba,Condeúba - EBDA,-14.884701,-41.984489,Sudoeste,RPGA do Rio de Contas,0.0,0.0,0.0,0.0,0.0,0.0,0.0,0.0,0.0,0.0,0.0,0.0,0.0,0.0,0.0,0.0,0.0,0.0,0.0,0.0,0.0,0.0,0.0,0.0,0.0,0.0,0.0,0.0,0.0,0.0,0.0
Brumado,EBDA,Brumado,Brumado - EBDA,-14.201356,-41.651143,Sudoeste,RPGA do Rio de Contas,0.0,0.0,0.0,0.0,0.0,0.0,0.0,0.0,0.0,0.0,0.0,0.0,0.0,0.0,0.0,0.0,0.0,0.0,0.0,0.0,0.0,0.0,0.0,0.0,0.0,0.0,0.0,0.0,0.0,0.0,0.0
Ituaçu,83292,Ituaçu,Ituaçu - 83292,-13.812778,-41.3,Sudoeste,RPGA do Rio de Contas,0.0,0.0,0.0,0.0,0.0,0.0,0.0,0.0,0.0,0.0,0.0,0.0,0.0,0.0,0.0,0.0,0.0,0.0,0.0,0.0,0.0,0.0,0.0,0.0,2.4,3.0,0.0,0.0,0.0,0.0,5.4
Vitória da Conquista,83344,Vitória da Conquista,Vitória da Conquista - 83344,-14.883333,-40.8,Sudoeste,RPGA do Rio Pardo,0.0,0.1,1.1,6.0,0.3,0.0,0.0,0.0,0.0,0.0,0.0,0.0,0.0,0.0,0.0,0.0,0.0,0.0,0.0,0.0,0.0,0.0,0.0,1.1,6.7,1.6,0.3,1.6,1.4,0.1,20.31
Jaguaquara,83295,Ituruçu,Ituruçu (Jaguaquara) - 83295,-13.527828,-40.119752,Sudoeste,RPGA do Recôncavo Sul,0.0,0.0,1.9,1.6,1.0,0.0,0.0,1.0,0.0,0.0,0.0,0.0,0.0,0.0,0.0,0.0,0.0,0.0,0.0,0.2,0.0,0.0,0.0,0.0,4.0,5.7,1.6,7.4,1.8,0.0,26.2
Brumado,A433,Brumado,Brumado - A433,-14.181886,-41.672281,Sudoeste,RPGA do Rio de Contas,0.0,0.0,0.0,0.0,0.0,0.0,0.0,0.0,0.0,0.0,0.0,0.0,0.0,0.0,0.0,0.0,0.0,0.0,0.0,0.0,0.0,0.0,0.0,0.2,1.0,0.2,0.0,0.0,0.0,0.0,1.4
Jequié,EBDA,Jequié,Jequié - EBDA,-13.851356,-40.084435,Sudoeste,RPGA do Rio de Contas,0.0,0.0,0.0,0.0,0.0,0.0,0.0,0.0,0.0,0.0,0.0,0.0,0.0,0.0,0.0,0.0,0.0,0.0,0.0,0.0,0.0,0.0,0.0,0.0,3.0,2.5,0.0,0.0,0.0,0.0,5.5
Ipiaú,A445,Ipiaú,Ipiaú - A445,-14.171304,-39.692502,Sudoeste,RPGA do Rio de Contas,0.0,0.0,3.0,1.2,1.4,0.2,0.0,0.2,0.0,0.0,0.0,0.0,0.2,0.0,0.0,0.0,0.0,0.0,0.2,0.2,0.0,0.0,0.0,0.0,15.0,3.8,1.4,0.8,1.2,0.0,28.8
Itapetinga,A446,Itapetinga,Itapetinga - A446,-15.24462,-40.22955,Sudoeste,RPGA do Rio Pardo,0.2,2.8,2.6,3.0,0.0,0.0,0.0,0.0,0.0,0.0,0.0,0.0,0.0,0.2,0.0,0.0,0.0,0.0,0.0,0.2,0.0,0.0,0.0,1.6,13.2,1.0,0.6,0.0,0.6,0.2,26.2
Malhada de Pedras,EBDA,Malhada de Pedras,Malhada de Pedras - EBDA,-14.389415,-41.880318,Sudoeste,RPGA do Rio de Contas,0.0,0.0,0.0,0.0,0.0,0.0,0.0,0.0,0.0,0.0,0.0,0.0,0.0,0.0,0.0,0.0,0.0,0.0,0.0,0.0,0.0,0.0,0.0,0.0,0.0,0.0,0.0,0.0,0.0,0.0,0.0
Itiruçu,EBDA,Itiruçu,Itiruçu - EBDA,-13.534683,-40.151101,Sudoeste,RPGA do Rio de Contas,0.0,0.0,6.0,4.0,0.0,0.0,0.0,0.0,0.0,0.0,0.0,0.0,0.0,0.0,0.0,0.0,0.0,0.0,0.0,4.0,7.5,4.0,5.5,0.0,0.0,0.0,0.0,0.0,0.0,0.0,31.0
Ipiaú,EBDA,Ipiaú,Ipiaú - EBDA,-14.134698,-39.734428,Sudoeste,RPGA do Rio de Contas,0.0,0.0,2.1,0.8,1.3,0.0,0.0,0.7,0.0,0.0,0.0,0.0,0.0,0.0,0.0,0.0,0.0,0.0,0.0,0.0,0.0,0.0,0.0,0.0,12.4,1.7,0.8,1.3,2.1,0.0,23.21
Jaguaquara,EBDA,Jaguaquara,Jaguaquara - EBDA,-13.534684,-39.984431,Sudoeste,RPGA do Recôncavo Sul,0.0,0.0,0.0,0.0,0.0,0.0,1.5,0.0,0.0,0.0,0.0,0.0,0.0,0.0,0.0,0.0,0.0,0.0,0.0,0.0,0.0,0.0,0.0,6.5,10.0,4.0,8.0,5.0,3.0,2.5,40.5
Anagé,CO-CL-01,Anagé,Anagé - CO-CL-01,-14.618055,-41.149722,Sudoeste,RPGA do Rio de Contas,0.0,0.0,0.0,0.0,0.0,0.0,0.0,0.0,0.0,0.0,0.0,0.0,0.0,0.0,0.0,0.0,0.0,0.0,0.0,0.0,0.0,0.0,0.0,0.0,0.0,0.0,0.0,0.0,0.0,0.0,0.0
Brumado,CO-CL-02,Brumado,Brumado - CO-CL-02,-14.207222,-41.778055,Sudoeste,RPGA do Rio de Contas,0.0,0.0,0.0,0.0,0.0,0.0,0.0,0.0,0.0,0.0,0.0,0.0,0.0,0.0,0.0,0.0,0.0,0.0,0.0,0.0,0.0,0.0,0.0,0.0,4.0,0.5,0.0,0.0,0.0,0.0,4.5
Planaltino,PG-PR-03,Planaltino,Planaltino - PG-PR-03,-13.259292,-40.373976,Sudoeste,RPGA do Recôncavo Sul,0.0,0.0,0.0,0.0,0.0,0.0,0.0,0.0,0.0,0.0,0.0,1.25,0.0,0.0,0.25,0.0,0.0,0.0,0.0,3.25,1.5,0.0,2.25,0.25,1.5,25.0,7.25,1.25,4.75,5.25,53.75
Jaguaquara,RS-CL-01,Jaguaquara,Jaguaquara - RS-CL-01,-13.573055,-39.940833,Sudoeste,RPGA do Recôncavo Sul,0.0,0.0,0.25,2.0,0.0,0.0,0.0,1.75,0.0,0.0,0.0,0.0,0.0,0.0,0.0,0.0,0.0,0.0,0.0,0.5,0.0,0.0,0.25,0.0,8.25,17.0,2.75,9.5,6.5,0.75,49.5
Jequié,CO-CL-03,Jequié,Jequié - CO-CL-03,-13.873055,-40.071944,Sudoeste,RPGA do Rio de Contas,0.0,0.0,0.0,0.0,0.0,0.0,0.0,0.0,0.0,0.0,0.0,0.0,0.0,0.0,0.0,0.0,0.0,0.0,0.0,0.0,0.0,0.0,0.0,0.0,2.0,1.0,0.0,0.0,0.0,0.0,3.0
Vitória da Conquista,PA-CL-01,Vitória da Conquista,Vitória da Conquista - PA-CL-01,-14.886111,-40.800833,Sudoeste,RPGA do Rio Pardo,0.0,0.0,0.0,0.0,0.0,0.0,0.0,0.0,0.0,0.0,0.0,0.0,0.0,0.0,0.0,0.0,0.0,0.0,0.0,0.0,0.0,0.0,0.0,0.75,6.25,0.75,0.25,1.25,0.25,0.0,9.5
Tremedal,CO-PR-03,Tremedal,Tremedal - CO-PR-03,-14.980998,-41.410135,Sudoeste,RPGA do Rio de Contas,0.0,0.0,0.0,0.0,0.0,0.0,0.0,0.0,0.0,0.0,0.0,0.0,0.0,0.0,0.0,0.0,0.0,0.0,0.0,0.0,0.0,0.0,0.0,0.0,0.25,0.0,0.0,0.0,0.0,0.0,0.25
Barra do Choça,EBDA,Barra do Choça,Barra do Choça - EBDA,-14.868041,-40.651122,Sudoeste,RPGA do Rio Pardo,0.0,0.0,0.0,0.0,0.0,0.0,0.0,0.0,0.0,0.0,0.0,0.0,0.0,0.0,0.0,0.0,0.0,0.0,0.0,0.0,0.0,0.0,5.0,5.0,0.0,10.0,0.0,10.0,0.0,0.0,30.0
Fz Nanci,53880000,Camacã,Camacã (Fz Nanci) - 53880000,-15.581395,-39.521095,Sul,RPGA do Rio Pardo,0.0,0.0,1.0,1.0,2.0,0.0,0.0,0.0,0.0,0.0,0.0,0.0,0.0,0.0,1.0,0.0,0.0,0.0,1.0,0.0,1.0,0.0,0.0,2.0,5.0,0.0,1.0,0.0,2.0,0.0,17.0
Caravelas,A405,Caravelas,Caravelas - A405,-17.739413,-39.258617,Sul,"RPGA dos Rios Peruípe, Itanhém e Jucuruçu",0.0,2.0,1.6,4.6,0.8,0.0,0.0,0.0,0.0,1.4,0.0,1.4,1.4,0.0,0.2,0.0,0.0,0.0,0.0,0.0,0.4,0.0,0.2,3.4,1.0,0.8,2.0,0.6,0.2,0.0,22.0
Ilhéus,A410,Ilhéus,Ilhéus - A410,-14.658803,-39.181438,Sul,RPGA do Leste,0.2,0.0,0.8,0.0,0.8,0.0,0.0,0.2,0.0,0.0,0.0,0.0,0.0,0.0,0.4,0.0,0.6,0.4,0.2,0.0,0.2,0.2,1.6,0.0,21.0,1.4,2.6,3.0,0.4,0.2,34.2
Canavieiras,83398,Canavieiras,Canavieiras - 83398,-15.666667,-38.95,Sul,RPGA do Rio Pardo,0.0,8.1,3.4,2.9,1.3,0.0,0.7,0.5,0.0,0.0,0.0,0.0,0.0,1.8,0.0,0.0,0.0,0.0,0.0,0.0,0.0,0.0,0.0,3.2,5.2,0.0,5.7,5.5,0.0,2.1,40.41
Caravelas,83498,Caravelas,Caravelas - 83498,-17.739167,-39.258333,Sul,"RPGA dos Rios Peruípe, Itanhém e Jucuruçu",2.0,19.0,6.8,6.2,0.5,0.0,0.0,0.0,0.0,13.8,0.0,1.6,1.2,2.0,1.5,0.0,0.0,0.0,0.0,0.0,0.0,0.0,0.0,3.5,0.8,2.4,0.3,2.7,0.2,0.0,64.5
Guaratinga,83446,Guaratinga,Guaratinga - 83446,-16.58,-39.78,Sul,"RPGA dos Rios dos Frades, Buranhém e Santo Antônio",0.4,0.0,0.2,0.4,1.2,0.0,0.0,0.0,0.0,0.0,0.0,0.0,0.0,0.0,0.0,0.2,0.0,0.0,0.0,0.0,0.0,0.0,0.0,3.5,3.0,0.0,2.6,1.0,1.4,0.0,13.9
Teixeira de Freitas,DERBA,Teixeira de Freitas,Teixeira de Freitas - DERBA,-17.5681,-39.234434,Sul,"RPGA dos Rios Peruípe, Itanhém e Jucuruçu",0.0,5.0,0.0,2.0,0.0,0.0,0.0,0.0,0.0,0.0,0.0,0.0,0.0,0.0,0.0,0.0,0.0,0.0,0.0,0.0,0.0,0.0,0.0,0.0,0.0,0.0,0.0,0.0,0.0,0.0,7.0
Porto Seguro,A427,Porto Seguro,Porto Seguro - A427,-16.388977,-39.182389,Sul,"RPGA dos Rios dos Frades, Buranhém e Santo Antônio",6.4,9.4,4.4,7.0,1.0,0.2,0.4,0.0,0.0,4.4,0.2,0.0,0.2,0.0,0.0,2.8,0.2,0.2,0.0,0.2,0.0,0.2,0.2,28.0,27.4,2.2,12.2,6.2,3.0,0.0,116.41
Belmonte,A447,Belmonte,Belmonte - A447,-16.08487,-39.21726,Sul,"RPGA dos Rios dos Frades, Buranhém e Santo Antônio",0.8,2.8,3.4,5.8,1.4,0.2,0.0,0.0,0.0,1.0,0.0,0.0,0.2,0.0,0.0,0.2,0.0,0.0,0.0,0.0,0.2,0.0,0.0,11.4,9.8,0.0,4.6,1.0,3.6,0.0,46.41
Teixeira de Freitas,EBDA,Teixeira de Freitas,Teixeira de Freitas - EBDA,-17.534762,-39.734446,Sul,"RPGA dos Rios Peruípe, Itanhém e Jucuruçu",0.0,0.0,0.0,0.0,0.0,0.0,0.0,0.0,0.0,0.25,2.25,0.0,0.0,0.0,0.0,0.0,0.0,0.0,0.0,0.0,0.0,0.0,0.0,2.75,0.5,0.0,1.25,1.5,0.0,0.0,8.5
Eunápolis,EBDA,Eunápolis,Eunápolis - EBDA,-16.368074,-39.567768,Sul,"RPGA dos Rios dos Frades, Buranhém e Santo Antônio",0.0,0.0,0.5,0.5,0.0,0.0,0.0,0.0,0.0,0.0,0.0,0.0,0.0,0.0,0.0,0.0,0.0,0.0,0.0,0.0,0.0,0.0,0.0,0.0,14.75,0.75,2.5,8.25,2.25,0.0,29.5
Itamaraju,EBDA,Itamaraju,Itamaraju - EBDA,-17.068089,-39.534438,Sul,"RPGA dos Rios Peruípe, Itanhém e Jucuruçu",0.0,0.0,1.5,6.5,0.0,0.0,0.0,0.0,0.0,2.0,0.0,1.0,0.0,1.0,0.0,0.0,0.0,0.0,0.0,0.0,0.0,0.0,0.0,4.0,8.0,0.0,9.0,2.5,0.0,0.0,35.5
Eunápolis,FB-CL-01,Eunápolis,Eunápolis - FB-CL-01,-16.290555,-39.579722,Sul,"RPGA dos Rios dos Frades, Buranhém e Santo Antônio",0.0,0.0,0.5,0.5,0.0,0.0,0.0,0.0,0.0,0.0,0.0,0.0,0.0,0.0,0.0,0.0,0.0,0.0,0.0,0.0,0.0,0.0,0.0,0.0,14.75,0.75,4.5,8.25,2.25,0.0,31.5
CPLAC,LE-CL-01,Ilhéus,Ilhéus (CPLAC) - LE-CL-01,-14.80184,-39.181444,Sul,RPGA do Leste,0.0,0.0,0.0,0.0,0.0,0.0,0.0,0.75,0.0,0.0,0.0,0.0,0.0,0.0,0.0,0.0,1.0,0.0,0.0,0.0,0.0,0.0,0.0,0.0,16.0,0.0,2.0,2.5,0.5,0.0,22.75
Teixeira de Freitas,PJ-CL-01,Teixeira de Freitas,Teixeira de Freitas - PJ-CL-01,-17.575555,-39.732777,Sul,"RPGA dos Rios Peruípe, Itanhém e Jucuruçu",0.0,0.0,0.0,0.0,0.0,0.0,0.0,0.0,0.0,0.25,2.25,0.0,0.0,0.0,0.0,0.0,0.0,0.0,0.0,0.0,0.0,0.0,0.0,2.75,0.5,0.0,1.25,1.5,0.0,0.0,8.5
SEDE,EBDA,Angical,Angical (SEDE) - EBDA,-12.001302,-44.684543,São Francisco,RPGA do Rio Grande,0.0,0.0,0.0,0.0,0.0,0.0,0.0,0.0,0.0,0.0,0.0,0.0,0.0,0.0,0.0,0.0,0.0,0.0,0.0,0.0,0.0,0.0,0.0,0.0,0.0,0.0,0.0,0.0,0.0,0.0,0.0
SEDE,EBDA,Baianópolis,Baianópolis (SEDE) - EBDA,-12.301308,-44.53454,São Francisco,RPGA do Rio Grande,0.0,0.0,0.0,0.0,0.0,0.0,0.0,0.0,0.0,0.0,0.0,0.0,0.0,0.0,0.0,0.0,0.0,0.0,0.0,0.0,0.0,0.0,0.0,0.0,0.0,0.0,0.0,0.0,0.0,0.0,0.0
SEDE,EBDA,Cristópolis,Cristópolis (SEDE) - EBDA,-12.217972,-44.434539,São Francisco,RPGA do Rio Grande,0.0,0.0,0.0,0.0,0.0,0.0,0.0,0.0,0.0,0.0,0.0,0.0,0.0,0.0,0.0,0.0,0.0,0.0,0.0,0.0,0.0,0.0,0.0,0.0,0.0,0.0,0.0,0.0,0.0,0.0,0.0
SEDE,,Santa Rita de Cássia,Santa Rita de Cássia (SEDE),-11.001281,-44.517867,São Francisco,RPGA do Rio Grande,0.0,0.0,0.0,0.0,0.0,0.0,0.0,0.0,0.0,0.0,0.0,0.0,0.0,0.0,0.0,0.0,0.0,0.0,0.0,0.0,0.0,0.0,0.0,0.0,0.0,0.0,0.0,0.0,0.0,0.0,0.0
SEDE,EBDA,Wanderley,Wanderley (SEDE) - EBDA,-12.117972,-43.884524,São Francisco,RPGA do Rio Grande,0.0,0.0,0.0,0.0,0.0,0.0,0.0,0.0,0.0,0.0,0.0,0.0,0.0,0.0,0.0,0.0,0.0,0.0,0.0,0.0,0.0,0.0,0.0,0.0,0.0,0.0,0.0,0.0,0.0,0.0,0.0
Bom Jesus da Lapa,EBDA,Bom Jesus da Lapa,Bom Jesus da Lapa - EBDA,-13.251329,-43.417851,São Francisco,RPGA do Rio Carnaíba de Dentro,0.0,0.0,0.0,0.0,0.0,0.0,0.0,0.0,0.0,0.0,0.0,0.0,0.0,0.0,0.0,0.0,0.0,0.0,0.0,0.0,0.0,0.0,0.0,0.0,0.0,0.0,0.0,0.0,0.0,0.0,0.0
Carinhanha,EBDA,Carinhanha,Carinhanha - EBDA,-14.301347,-43.767864,São Francisco,"RPGA do Rio Corrente e Riachos do Ramalho, Serra Dourada e Brejo Velho",0.0,0.0,0.0,0.0,0.0,0.0,0.0,0.0,0.0,0.0,0.0,0.0,0.0,0.0,0.0,0.0,0.0,0.0,0.0,0.0,0.0,0.0,0.0,0.0,0.0,0.0,0.0,0.0,0.0,0.0,0.0
Ibotirama,EBDA,Ibotirama,Ibotirama - EBDA,-12.184644,-43.21784,São Francisco,RPGA dos Rios Paramirim e Santo Onofre,0.0,0.0,0.0,0.0,0.0,0.0,0.0,0.0,0.0,0.0,0.0,0.0,0.0,0.0,0.0,0.0,0.0,0.0,0.0,0.0,0.0,0.0,0.0,0.0,0.0,0.0,0.0,0.0,0.0,0.0,0.0
Paratinga,EBDA,Paratinga,Paratinga - EBDA,-12.684653,-43.184509,São Francisco,RPGA do Rio Carnaíba de Dentro,0.0,0.0,0.0,0.0,0.0,0.0,0.0,0.0,0.0,0.0,0.0,0.0,0.0,0.0,0.0,0.0,0.0,0.0,0.0,0.0,0.0,0.0,0.0,0.0,0.0,0.0,0.0,0.0,0.0,0.0,0.0
Riacho de Santana,EBDA,Riacho de Santana,Riacho de Santana - EBDA,-13.601338,-42.934507,São Francisco,RPGA do Rio Carnaíba de Dentro,0.0,0.0,0.0,0.0,0.0,0.0,0.0,0.0,0.0,0.0,0.0,0.0,0.0,0.0,0.0,0.0,0.0,0.0,0.0,0.0,0.0,0.0,0.0,0.0,0.0,0.0,0.0,0.0,0.0,0.0,0.0
Serra do Ramalho,EBDA,Serra do Ramalho,Serra do Ramalho - EBDA,-13.618002,-43.567857,São Francisco,"RPGA do Rio Corrente e Riachos do Ramalho, Serra Dourada e Brejo Velho",0.0,0.0,0.0,0.0,0.0,0.0,0.0,0.0,0.0,0.0,0.0,0.0,0.0,0.0,0.0,0.0,0.0,0.0,0.0,0.0,0.0,0.0,0.0,0.0,0.0,0.0,0.0,0.0,0.0,0.0,0.0
Santa Maria da Vitória,CT-PR-07,Santa Maria da Vitória,Santa Maria da Vitória - CT-PR-07,-13.384662,-44.184537,São Francisco,"RPGA do Rio Corrente e Riachos do Ramalho, Serra Dourada e Brejo Velho",0.0,0.0,0.0,0.0,0.0,0.0,0.0,0.0,0.0,0.0,0.0,0.0,0.0,0.0,0.0,0.0,0.0,0.0,0.0,0.0,0.0,0.0,0.0,0.0,0.0,0.0,0.0,0.0,0.0,0.0,0.0
Coribe,EBDA,Coribe,Coribe - EBDA,-13.834669,-44.451212,São Francisco,"RPGA do Rio Corrente e Riachos do Ramalho, Serra Dourada e Brejo Velho",0.0,0.0,0.0,0.0,0.0,0.0,0.0,0.0,0.0,0.0,0.0,0.0,0.0,0.0,0.0,0.0,0.0,0.0,0.0,0.0,0.0,0.0,0.0,0.0,0.0,0.0,0.0,0.0,0.0,0.0,0.0
Santana,EBDA,Santana,Santana - EBDA,-12.984656,-44.0512,São Francisco,"RPGA do Rio Corrente e Riachos do Ramalho, Serra Dourada e Brejo Velho",0.0,0.0,0.0,0.0,0.0,0.0,0.0,0.0,0.0,0.0,0.0,0.0,0.0,0.0,0.0,0.0,0.0,0.0,0.0,0.0,0.0,0.0,0.0,0.0,0.0,0.0,0.0,0.0,0.0,0.0,0.0
Iuiú,EBDA,Iuiú,Iuiú - EBDA,-14.40135,-43.551194,São Francisco,RPGA do Rio Carnaíba de Dentro,0.0,0.0,0.0,0.0,0.0,0.0,0.0,0.0,0.0,0.0,0.0,0.0,0.0,0.0,0.0,0.0,0.0,0.0,0.0,0.0,0.0,0.0,0.0,0.0,0.0,0.0,0.0,0.0,0.0,0.0,0.0
Sebastião Laranjeiras,EBDA,Sebastião Laranjeiras,Sebastião Laranjeiras - EBDA,-14.534689,-42.967846,São Francisco,RPGA do Rio Verde Grande,0.0,0.0,0.0,0.0,0.0,0.0,0.0,0.0,0.0,0.0,0.0,0.0,0.0,0.0,0.0,0.0,0.0,0.0,0.0,0.0,0.0,0.0,0.0,0.0,0.0,0.0,0.0,0.0,0.0,0.0,0.0
Morpará,46360000,Morpará,Morpará - 46360000,-11.5583,-43.2825,São Francisco,RPGA dos Rios Paramirim e Santo Onofre,0.0,0.0,0.0,0.0,0.0,0.0,0.0,0.0,0.0,0.0,0.0,0.0,0.0,0.0,0.0,0.0,0.0,0.0,0.0,0.0,0.0,0.0,0.0,0.0,0.0,0.0,0.0,0.0,0.0,0.0,0.0
Santa Maria da Vitória,ANA,Santa Maria da Vitória,Santa Maria da Vitória - ANA,-13.401329,-44.251206,São Francisco,"RPGA do Rio Corrente e Riachos do Ramalho, Serra Dourada e Brejo Velho",0.0,0.0,0.0,0.0,0.0,0.0,0.0,0.0,0.0,0.0,0.0,0.0,0.0,0.0,0.0,0.0,0.0,0.0,0.0,0.0,0.0,0.0,0.0,0.0,0.0,0.0,0.0,0.0,0.0,0.0,0.0
Barra,EBDA,Barra,Barra - EBDA,-11.084623,-43.151167,São Francisco,RPGA do Rio Grande,0.0,0.0,0.0,0.0,0.0,0.0,0.0,0.0,0.0,0.0,0.0,0.0,0.0,0.0,0.0,0.0,0.0,0.0,0.0,0.0,0.0,0.0,0.0,0.0,0.0,0.0,0.0,0.0,0.0,0.0,0.0
Gentio do Ouro,EBDA,Gentio do Ouro,Gentio do Ouro - EBDA,-11.417965,-42.501152,São Francisco,RPGA dos Rios Verde e Jacaré,0.0,0.0,0.0,0.0,0.0,0.0,0.0,0.0,0.0,0.0,0.0,0.0,0.0,0.0,0.0,0.0,0.0,0.0,0.0,0.0,0.0,0.0,0.0,0.0,0.0,0.0,0.0,0.0,0.0,0.0,0.0
Santa Rita de Cássia,A415,Santa Rita de Cássia,Santa Rita de Cássia - A415,-11.002768,-44.524965,São Francisco,RPGA do Rio Grande,0.0,0.0,0.0,0.0,0.0,0.0,0.0,0.0,0.0,0.0,0.0,0.0,0.0,0.0,0.0,0.0,0.0,0.0,0.0,0.0,0.0,0.0,0.0,0.0,0.0,0.0,0.0,0.0,0.0,0.0,0.0
Bom Jesus da Lapa,A418,Bom Jesus da Lapa,Bom Jesus da Lapa - A418,-13.251094,-43.405365,São Francisco,RPGA do Rio Carnaíba de Dentro,0.0,0.0,0.0,0.0,0.0,0.0,0.0,0.0,0.0,0.0,0.0,0.0,0.0,0.0,0.0,0.0,0.0,0.0,0.0,0.0,0.0,0.0,0.0,0.0,0.0,0.0,0.0,0.0,0.0,0.0,0.0
Xique-Xique,EBDA,Xique-Xique,Xique-Xique - EBDA,-10.817951,-42.717822,São Francisco,RPGA dos Rios Paramirim e Santo Onofre,0.0,0.0,0.0,0.0,0.0,0.0,0.0,0.0,0.0,0.0,0.0,0.0,0.0,0.0,0.0,0.0,0.0,0.0,0.0,0.0,0.0,0.0,0.0,0.0,0.0,0.0,0.0,0.0,0.0,0.0,0.0
Brotas de Macaúbas,EBDA,Brotas de Macaúbas,Brotas de Macaúbas - EBDA,-12.001308,-42.617825,São Francisco,RPGA dos Rios Paramirim e Santo Onofre,0.0,0.0,0.0,0.0,0.0,0.0,0.0,0.0,0.0,0.0,0.0,0.0,0.0,0.0,0.0,0.0,0.0,0.0,0.0,0.0,0.0,0.0,0.0,0.0,0.0,0.0,0.0,0.0,0.0,0.0,0.0
Oliveira dos Brejinhos,EBDA,Oliveira dos Brejinhos,Oliveira dos Brejinhos - EBDA,-12.301314,-42.8845,São Francisco,RPGA dos Rios Paramirim e Santo Onofre,0.0,0.0,0.0,0.0,0.0,0.0,0.0,0.0,0.0,0.0,0.0,0.0,0.0,0.0,0.0,0.0,0.0,0.0,0.0,0.0,0.0,0.0,0.0,0.0,0.0,0.0,0.0,0.0,0.0,0.0,0.0
Barra,83179,Barra,Barra - 83179,-11.083333,-43.166667,São Francisco,RPGA do Rio Grande,0.0,0.0,0.0,0.0,0.0,0.0,0.0,0.0,0.0,0.0,0.0,0.0,0.0,0.0,0.0,0.0,0.0,0.0,0.0,0.0,0.0,0.0,0.0,0.0,0.0,0.0,0.0,0.0,0.0,0.0,0.0
Caetité,EBDA,Caetité,Caetité - EBDA,-14.068017,-42.484498,São Francisco,RPGA do Rio de Contas,0.0,0.0,0.0,0.0,0.0,0.0,0.0,0.0,0.0,0.0,0.0,0.0,0.0,0.0,0.0,0.0,0.0,0.0,0.0,0.0,0.0,0.0,0.0,0.0,0.0,5.0,0.0,0.0,0.0,0.0,5.0
Bom Jesus da Lapa,83288,Bom Jesus da Lapa,Bom Jesus da Lapa - 83288,-13.251389,-43.405278,São Francisco,RPGA do Rio Carnaíba de Dentro,0.0,0.0,0.0,0.0,0.0,0.0,0.0,0.0,0.0,0.0,0.0,0.0,0.0,0.0,0.0,0.0,0.0,0.0,0.0,0.0,0.0,0.0,0.0,0.0,0.0,0.0,0.0,0.0,0.0,0.0,0.0
Urandi,EBDA,Urandi,Urandi - EBDA,-14.768029,-42.651173,São Francisco,RPGA do Rio Verde Grande,0.0,0.0,0.0,0.0,0.0,0.0,0.0,0.0,0.0,0.0,0.0,0.0,0.0,0.0,0.0,0.0,0.0,0.0,0.0,0.0,0.0,0.0,0.0,0.0,0.0,0.0,0.0,0.0,0.0,0.0,0.0
Caetité,83339,Caetité,Caetité - 83339,-14.066667,-42.483333,São Francisco,RPGA do Rio de Contas,0.0,0.0,0.0,0.0,0.0,0.0,0.0,0.0,0.0,0.0,0.0,0.0,0.0,0.0,0.0,0.0,0.0,0.0,0.0,0.0,0.0,0.0,0.0,0.0,1.3,0.0,0.2,0.0,0.0,0.0,1.5
Paramirim,EBDA,Paramirim,Paramirim - EBDA,-13.434672,-42.234489,São Francisco,RPGA dos Rios Paramirim e Santo Onofre,0.0,0.0,0.0,0.0,0.0,0.0,0.0,0.0,0.0,0.0,0.0,0.0,0.0,0.0,0.0,0.0,0.0,0.0,0.0,0.0,0.0,0.0,0.0,0.0,0.0,0.0,0.0,0.0,0.0,0.0,0.0
Guanambí,EBDA,Guanambí,Guanambí - EBDA,-14.218017,-42.76784,São Francisco,RPGA do Rio Carnaíba de Dentro,0.0,0.0,0.0,0.0,0.0,0.0,0.0,0.0,0.0,0.0,0.0,0.0,0.0,0.0,0.0,0.0,0.0,0.0,0.0,0.0,0.0,0.0,0.0,0.0,0.0,0.0,0.0,0.0,0.0,0.0,0.0
Macaúbas,EBDA,Macaúbas,Macaúbas - EBDA,-13.017996,-42.684498,São Francisco,RPGA dos Rios Paramirim e Santo Onofre,0.0,0.0,0.0,0.0,0.0,0.0,0.0,0.0,0.0,0.0,0.0,0.0,0.0,0.0,0.0,0.0,0.0,0.0,0.0,0.0,0.0,0.0,0.0,0.0,0.0,0.0,0.0,0.0,0.0,0.0,0.0
Carinhanha,83408,Carinhanha,Carinhanha - 83408,-14.283333,-43.766667,São Francisco,"RPGA do Rio Corrente e Riachos do Ramalho, Serra Dourada e Brejo Velho",0.0,0.0,0.0,0.0,0.0,0.0,0.0,0.0,0.0,0.0,0.0,0.0,0.0,0.0,0.0,0.0,0.0,0.0,0.6,0.6,0.0,0.0,0.0,0.0,0.1,0.0,0.0,0.0,0.0,0.0,1.3
Palmas do Monte Alto,EBDA,Palmas do Monte Alto,Palmas do Monte Alto - EBDA,-14.268017,-43.167849,São Francisco,RPGA do Rio Carnaíba de Dentro,0.0,0.0,0.0,0.0,0.0,0.0,0.0,0.0,0.0,0.0,0.0,0.0,0.0,0.0,0.0,0.0,0.0,0.0,0.0,0.0,0.0,0.0,0.0,0.0,0.0,0.0,0.0,0.0,0.0,0.0,0.0
Santa Rita de Cássia,83076,Santa Rita de Cássia,Santa Rita de Cássia - 83076,-11.016667,-44.516667,São Francisco,RPGA do Rio Grande,0.0,0.0,0.0,0.0,0.0,0.0,0.0,0.0,0.0,0.0,0.0,0.0,0.0,0.0,0.0,0.0,0.0,0.0,0.0,0.0,0.0,0.0,0.0,0.0,0.0,0.0,0.0,0.0,0.0,0.0,0.0
Guanambí,A426,Guanambí,Guanambí - A426,-14.208123,-42.749647,São Francisco,RPGA do Rio Carnaíba de Dentro,0.0,0.0,0.0,0.0,0.0,0.0,0.0,0.0,0.0,0.0,0.0,0.0,0.0,0.0,0.0,0.0,0.0,0.0,0.0,0.0,0.0,0.0,0.0,0.0,0.4,0.0,0.0,0.0,0.0,0.0,0.4
Buritirama,A432,Buritirama,Buritirama - A432,-10.722925,-43.651203,São Francisco,RPGA do Rio Grande,0.0,0.0,0.0,0.0,0.0,0.0,0.0,0.0,0.0,0.0,0.0,0.0,0.0,0.0,0.0,0.0,0.0,0.0,0.0,0.0,0.0,0.0,0.0,0.0,0.0,0.2,0.0,0.0,0.0,0.0,0.2
Barra,A429,Barra,Barra - A429,-11.084858,-43.138998,São Francisco,RPGA do Rio Grande,0.0,0.0,0.0,0.0,0.0,0.0,0.0,0.0,0.0,0.0,0.0,0.0,0.0,0.0,0.0,0.0,0.0,0.0,0.0,0.0,0.0,0.0,0.0,0.0,0.0,0.0,0.0,0.0,0.0,0.0,0.0
Feira da Mata,EBDA,Feira da Mata,Feira da Mata - EBDA,-14.218288,-44.268154,São Francisco,RPGA do Rio Carinhanha,0.0,0.0,0.0,0.0,0.0,0.0,0.0,0.0,0.0,0.0,0.0,0.0,0.0,0.0,0.0,0.0,0.0,0.0,0.0,0.0,0.0,0.0,0.0,0.0,0.0,0.0,0.0,0.0,0.0,0.0,0.0
Canápolis,EBDA,Canápolis,Canápolis - EBDA,-13.06799,-44.201203,São Francisco,"RPGA do Rio Corrente e Riachos do Ramalho, Serra Dourada e Brejo Velho",0.0,0.0,0.0,0.0,0.0,0.0,0.0,0.0,0.0,0.0,0.0,0.0,0.0,0.0,0.0,0.0,0.0,0.0,0.0,0.0,0.0,0.0,0.0,0.0,0.0,0.0,0.0,0.0,0.0,0.0,0.0
Brejolândia,EBDA,Brejolândia,Brejolândia - EBDA,-12.384644,-43.967861,São Francisco,"RPGA do Rio Corrente e Riachos do Ramalho, Serra Dourada e Brejo Velho",0.0,0.0,0.0,0.0,0.0,0.0,0.0,0.0,0.0,0.0,0.0,0.0,0.0,0.0,0.0,0.0,0.0,0.0,0.0,0.0,0.0,0.0,0.0,0.0,0.0,0.0,0.0,0.0,0.0,0.0,0.0
Botuporã,EBDA,Botuporã,Botuporã - EBDA,-13.301335,-42.551164,São Francisco,RPGA dos Rios Paramirim e Santo Onofre,0.0,0.0,0.0,0.0,0.0,0.0,0.0,0.0,0.0,0.0,0.0,0.0,0.0,0.0,0.0,0.0,0.0,0.0,0.0,0.0,0.0,0.0,0.0,0.0,0.0,0.0,0.0,0.0,0.0,0.0,0.0
Fazenda Caraíbas,,Fazenda Caraíbas,Fazenda Caraíbas,-12.571486,-42.074028,São Francisco,RPGA dos Rios Paramirim e Santo Onofre,0.0,0.0,0.0,0.0,0.0,0.0,0.0,0.0,0.0,0.0,0.0,0.0,0.0,0.0,0.0,0.0,0.0,0.0,0.0,0.0,0.0,0.0,0.0,0.0,0.0,0.75,0.0,0.0,0.0,0.0,0.75
Caetité,CD-CL-01,Caetité,Caetité - CD-CL-01,-13.96659,-42.60482,São Francisco,RPGA do Rio Carnaíba de Dentro,0.0,0.0,0.0,0.0,0.0,0.0,0.0,0.0,0.0,0.0,0.0,0.0,0.0,0.0,0.0,0.0,0.0,0.0,0.0,0.0,0.0,0.0,0.0,0.0,0.0,0.0,0.0,0.0,0.0,0.0,0.0
Sítio do Mato,EBDA,Sítio do Mato,Sítio do Mato - EBDA,-13.167995,-43.501185,São Francisco,"RPGA do Rio Corrente e Riachos do Ramalho, Serra Dourada e Brejo Velho",0.0,0.0,0.0,0.0,0.0,0.0,0.0,0.0,0.0,0.0,0.0,0.0,0.0,0.0,0.0,0.0,0.0,0.0,0.0,0.0,0.0,0.0,0.0,0.0,0.0,0.0,0.0,0.0,0.0,0.0,0.0
Matina,EBDA,Matina,Matina - EBDA,-13.918012,-42.834506,São Francisco,RPGA do Rio Carnaíba de Dentro,0.0,0.0,0.0,0.0,0.0,0.0,0.0,0.0,0.0,0.0,0.0,0.0,0.0,0.0,0.0,0.0,0.0,0.0,0.0,0.0,0.0,0.0,0.0,0.0,0.0,0.0,0.0,0.0,0.0,0.0,0.0
Igaporã,EBDA,Igaporã,Igaporã - EBDA,-13.701341,-42.75117,São Francisco,RPGA do Rio Carnaíba de Dentro,0.0,0.0,0.0,0.0,0.0,0.0,0.0,0.0,0.0,0.0,0.0,0.0,0.0,0.0,0.0,0.0,0.0,0.0,0.0,0.0,0.0,0.0,0.0,0.0,0.0,0.0,0.0,0.0,0.0,0.0,0.0
Serra Dourada,EBDA - EBDA,Serra Dourada,Serra Dourada - EBDA - EBDA,-12.751317,-43.951194,São Francisco,"RPGA do Rio Corrente e Riachos do Ramalho, Serra Dourada e Brejo Velho",0.0,0.0,0.0,0.0,0.0,0.0,0.0,0.0,0.0,0.0,0.0,0.0,0.0,0.0,0.0,0.0,0.0,0.0,0.0,0.0,0.0,0.0,0.0,0.0,0.0,0.0,0.0,0.0,0.0,0.0,0.0
