nome_estacao,codigo,municipio,estacao,latitude,longitude,regiao,rpga,01_07_17,02_07_17,03_07_17,04_07_17,05_07_17,06_07_17,07_07_17,08_07_17,09_07_17,10_07_17,11_07_17,12_07_17,13_07_17,14_07_17,15_07_17,16_07_17,17_07_17,18_07_17,19_07_17,20_07_17,21_07_17,22_07_17,23_07_17,24_07_17,25_07_17,26_07_17,27_07_17,28_07_17,29_07_17,30_07_17,31_07_17,total
Itaberaba,A408,Itaberaba,Itaberaba - A408,-12.524062,-40.299714,Chapada Diamantina,RPGA do Rio Paraguaçu,0.2,0.0,0.0,0.0,0.0,0.8,2.0,0.0,0.0,0.4,5.8,0.0,0.0,0.2,3.4,0.2,0.0,3.6,0.0,0.0,0.0,0.0,0.0,0.0,2.6,0.2,4.6,0.6,3.0,3.6,4.6,35.81
Macajuba,A412,Macajuba,Macajuba - A412,-12.131694,-40.354222,Chapada Diamantina,RPGA do Rio Paraguaçu,0.0,0.0,0.0,0.8,0.2,0.0,0.2,0.0,0.0,0.0,0.0,0.2,1.6,1.4,4.2,0.4,0.2,0.0,0.2,0.0,0.0,0.0,0.0,0.0,0.2,1.4,3.0,1.2,0.6,0.4,0.0,16.2
Itaberaba,83244,Itaberaba,Itaberaba - 83244,-12.516667,-40.283333,Chapada Diamantina,RPGA do Rio Paraguaçu,0.0,0.0,0.0,0.0,0.0,0.7,1.5,0.0,0.0,0.1,5.7,0.0,0.0,0.0,2.9,0.0,0.0,3.0,0.0,0.0,0.0,0.0,0.0,0.2,2.1,0.0,4.3,0.5,2.8,3.0,4.3,31.1
Lençóis,83242,Lençóis,Lençóis - 83242,-12.5575,-41.388889,Chapada Diamantina,RPGA do Rio Paraguaçu,9.3,3.1,0.0,0.5,0.0,0.0,2.3,1.4,0.5,1.2,4.8,0.0,2.6,2.4,2.6,0.3,0.0,0.4,0.0,0.2,0.0,0.3,0.0,0.0,8.4,0.0,1.0,0.0,6.5,1.3,0.3,49.4
Morro do Chapéu,83184,Morro do Chapéu,Morro do Chapéu - 83184,-11.216667,-41.216667,Chapada Diamantina,RPGA do Rio Salitre,0.3,0.0,0.0,0.7,0.0,0.3,0.4,0.6,0.0,0.0,2.2,0.2,1.7,0.8,0.4,0.7,0.0,0.4,0.0,0.7,1.6,0.0,0.0,0.0,5.5,0.0,3.8,1.2,0.0,4.3,3.8,29.6
Piatã,A430,Piatã,Piatã - A430,-13.155681,-41.774125,Chapada Diamantina,RPGA do Rio de Contas,0.4,0.0,0.0,0.2,0.0,0.2,0.0,0.4,0.2,0.2,1.2,0.0,0.6,0.2,0.2,0.0,0.0,0.2,0.0,0.0,0.0,0.0,0.0,0.0,0.0,0.0,0.2,0.0,0.4,0.6,0.2,5.4
Lençóis,A425,Lençóis,Lençóis - A425,-12.557854,-41.388808,Chapada Diamantina,RPGA do Rio Paraguaçu,9.6,3.2,0.0,0.6,0.0,0.0,2.4,1.2,0.4,1.2,4.6,0.0,2.6,2.6,2.8,0.2,0.0,0.6,0.0,0.2,0.2,0.2,0.0,0.0,8.8,0.0,1.0,0.0,6.8,1.4,0.2,50.81
Itaetê,,Itaetê,Itaetê,-12.991944,-40.960833,Chapada Diamantina,RPGA do Rio Paraguaçu,0.2,2.2,0.0,0.0,0.0,0.0,0.8,0.2,0.0,0.0,6.6,0.0,0.0,0.8,1.4,0.0,0.2,0.4,0.0,0.0,0.0,0.0,0.0,0.0,4.2,0.0,0.0,0.0,1.0,4.8,0.2,23.0
Boa Vista Tupim,PG-PR-17,Boa Vista Tupim,Boa Vista Tupim - PG-PR-17,-12.65622,-40.589813,Chapada Diamantina,RPGA do Rio Paraguaçu,2.0,0.0,0.0,0.0,0.0,0.0,0.0,0.5,0.5,1.25,2.75,0.0,0.0,1.75,0.25,0.0,0.0,0.25,0.0,0.0,0.0,0.0,0.0,0.0,1.25,0.25,2.75,0.0,0.0,3.5,1.0,18.0
Ruy Barbosa,PG-PR-18,Ruy Barbosa,Ruy Barbosa - PG-PR-18,-12.285653,-40.513698,Chapada Diamantina,RPGA do Rio Paraguaçu,0.0,0.0,0.0,0.25,0.0,0.25,0.0,0.25,0.25,0.5,1.5,0.0,0.25,0.0,1.25,0.25,0.0,2.0,0.0,0.0,0.0,0.0,0.0,0.0,0.25,0.0,1.75,0.0,0.5,2.25,2.75,14.25
Wagner,PG-PR-22,Wagner,Wagner - PG-PR-22,-12.289538,-41.161774,Chapada Diamantina,RPGA do Rio Paraguaçu,0.75,0.0,0.25,0.0,0.0,0.0,1.0,1.25,0.5,0.5,1.25,0.0,0.0,0.25,0.25,0.0,0.0,0.0,0.0,0.0,0.0,0.0,0.0,0.0,1.75,0.0,1.5,0.0,1.5,1.0,1.25,13.0
Guiné,PG-PR-24,Mucugê,Mucugê (Guiné) - PG-PR-24,-12.771772,-41.540679,Chapada Diamantina,RPGA do Rio Paraguaçu,0.25,0.25,0.0,0.0,0.0,0.25,0.25,0.25,1.0,0.25,3.0,0.25,0.25,1.5,1.25,0.0,0.0,0.0,0.0,0.0,0.0,0.0,0.0,0.0,1.75,0.0,0.5,0.0,2.0,2.5,2.0,17.5
Cascavel,PG-PR-27,Mucugê,Mucugê (Cascavel) - PG-PR-27,-13.285954,-41.287619,Chapada Diamantina,RPGA do Rio Paraguaçu,0.5,0.0,0.0,0.25,0.0,1.5,0.75,0.25,0.75,0.5,3.25,0.0,0.75,1.25,3.0,0.0,2.25,1.25,0.0,0.0,0.25,0.0,0.0,0.0,0.75,0.0,0.25,0.0,2.0,0.5,1.5,21.5
Mulungu do Morro,,Mulungu do Morro,Mulungu do Morro,-11.980363,-41.619012,Chapada Diamantina,RPGA do Rio Paraguaçu,0.0,0.0,0.0,0.0,0.0,0.0,0.8,0.4,3.0,0.2,1.0,0.0,0.0,0.0,0.4,0.0,0.0,0.0,0.0,0.0,0.0,0.0,0.0,0.0,1.0,0.0,2.0,0.0,0.0,0.6,0.8,10.21
Barro Alto,,Barro Alto,Barro Alto,-11.769188,-41.909464,Chapada Diamantina,RPGA dos Rios Verde e Jacaré,0.0,0.0,0.0,0.0,0.0,0.0,0.0,3.4,3.0,0.0,0.0,0.0,0.0,0.0,0.0,0.0,0.2,0.0,0.0,0.0,0.0,0.0,0.0,0.0,0.2,0.2,0.0,0.0,0.0,1.2,0.2,8.4
Canarana,,Canarana,Canarana,-11.69541,-41.78921,Chapada Diamantina,RPGA dos Rios Verde e Jacaré,0.0,0.0,0.0,0.0,0.0,0.0,0.0,0.0,0.0,0.0,0.0,0.0,0.0,0.0,0.0,0.0,0.0,0.0,0.0,0.0,0.0,0.0,0.0,0.0,0.0,0.0,0.0,0.0,0.0,0.0,0.0,0.0
Barra dos Mendes,,Barra dos Mendes,Barra dos Mendes,-11.805077,-42.05708,Chapada Diamantina,RPGA dos Rios Verde e Jacaré,0.0,0.0,0.0,0.0,0.0,0.0,0.0,0.0,0.0,0.0,0.0,0.0,0.0,0.0,1.6,0.2,0.0,0.0,0.0,0.0,0.0,0.0,0.0,0.0,0.0,0.0,0.0,0.0,0.0,0.2,0.2,2.2
Olho D'Água do Francisco,,Olho D'Água do Francisco,Olho D'Água do Francisco,-12.307034,-42.079028,Chapada Diamantina,RPGA dos Rios Verde e Jacaré,0.0,0.0,0.0,0.0,0.0,0.0,0.8,1.8,0.0,0.2,1.2,0.0,0.0,2.2,1.8,0.0,0.0,0.0,0.0,0.0,0.0,0.0,0.0,0.0,1.6,0.0,1.8,0.6,0.8,0.2,0.8,13.8
Ibiaporã,PG-CL-01,Mundo Novo,Mundo Novo (Ibiaporã) - PG-CL-01,-12.05379,-40.83722,Chapada Diamantina,RPGA do Rio Paraguaçu,0.25,0.25,0.0,3.25,0.75,1.0,0.5,1.25,0.0,1.7,7.5,0.5,1.0,0.25,4.5,3.25,0.5,3.0,0.0,0.5,1.0,0.0,0.0,0.0,2.75,0.5,0.0,6.0,0.75,1.5,6.75,49.2
Marcionílio Souza,PG-CL-03,Marcionílio Souza,Marcionílio Souza - PG-CL-03,-13.00021,-40.537783,Chapada Diamantina,RPGA do Rio Paraguaçu,1.25,0.0,0.0,0.0,0.0,0.0,0.0,0.0,0.25,0.0,4.5,0.0,0.0,0.0,0.0,0.0,0.0,2.25,0.0,0.0,0.0,0.0,0.0,0.0,0.5,0.0,0.0,0.0,0.0,5.5,0.0,14.25
Iraquara,PG-PR-02,Iraquara,Iraquara - PG-PR-02,-12.255093,-41.61679,Chapada Diamantina,RPGA do Rio Paraguaçu,0.0,0.0,0.0,0.0,0.0,0.0,0.25,0.25,0.0,0.5,1.0,0.0,0.0,0.25,0.5,0.0,0.0,0.0,0.0,0.0,0.0,0.0,0.0,0.0,3.75,0.0,2.0,0.0,1.0,1.75,0.0,11.25
Tapiramutá,PG-PR-09,Tapiramutá,Tapiramutá - PG-PR-09,-11.838502,-40.791761,Chapada Diamantina,RPGA do Rio Paraguaçu,1.5,0.0,0.0,1.25,0.5,0.25,2.75,2.0,0.25,0.0,7.75,0.25,3.5,0.75,4.75,2.5,1.0,1.5,0.0,1.0,0.25,0.25,0.0,0.25,16.25,0.5,8.5,0.75,1.5,4.5,6.75,71.0
Ventura,PG-PR-10,Morro do Chapéu,Morro do Chapéu (Ventura) - PG-PR-10,-11.650911,-40.951765,Chapada Diamantina,RPGA do Rio Paraguaçu,0.0,0.0,0.0,0.0,0.0,0.0,0.0,0.25,0.0,0.0,0.5,0.0,0.75,0.0,0.5,0.25,0.0,0.75,0.0,0.0,0.0,0.0,0.0,0.0,1.75,0.0,3.5,0.25,1.25,1.25,1.75,12.75
Bonito,PG-PR-11,Bonito,Bonito - PG-PR-11,-11.98993,-41.25429,Chapada Diamantina,RPGA do Rio Paraguaçu,1.75,0.5,1.0,7.0,1.0,1.25,1.0,2.25,0.25,0.5,15.75,1.5,1.0,4.25,5.75,2.75,1.25,2.75,0.25,1.75,2.5,0.0,0.0,0.25,3.75,0.0,8.75,0.25,2.5,1.5,16.5,89.5
Piatã,CO-CL-04,Piatã,Piatã - CO-CL-04,-13.164166,-41.770833,Chapada Diamantina,RPGA do Rio de Contas,9.75,0.0,0.0,3.0,1.25,3.75,0.75,7.5,2.75,1.25,17.0,1.0,7.0,1.25,1.5,0.0,0.0,2.25,0.0,0.0,0.0,0.0,0.0,0.25,2.25,0.0,3.0,0.0,1.5,5.25,2.0,74.25
PC Ponte Rio Capivari,51326200,Itaberaba,Itaberaba (PC Ponte Rio Capivari) - 51326200,-12.51429,-39.93422,Chapada Diamantina,RPGA do Rio Paraguaçu,0.0,0.0,0.0,0.0,0.0,0.0,0.0,0.0,7.5,0.3,1.2,0.0,0.0,0.0,0.3,1.0,0.9,0.6,0.0,0.0,0.3,0.0,0.0,0.0,1.1,0.0,0.6,0.0,0.0,1.4,0.6,15.8
Cipó,83192,Cipó,Cipó - 83192,-11.083333,-38.516667,Nordeste,RPGA do Rio Itapicuru,9.2,0.0,0.0,15.0,2.8,0.0,1.2,1.8,10.3,1.1,7.0,1.2,23.0,0.5,1.6,0.3,1.0,3.6,1.6,0.0,2.8,1.7,0.6,3.0,1.8,5.2,4.8,0.0,2.1,7.8,2.8,113.8
Jacobina,83186,Jacobina,Jacobina - 83186,-11.172778,-40.534167,Nordeste,RPGA do Rio Itapicuru,1.2,0.0,0.0,0.0,0.0,0.0,0.0,0.0,0.0,0.0,4.8,0.0,3.1,0.2,1.9,0.9,0.0,0.4,0.0,0.0,0.0,0.0,0.0,0.3,3.0,0.6,5.3,1.4,1.3,0.0,0.5,24.91
Monte Santo,83090,Monte Santo,Monte Santo - 83090,-10.4425,-39.331111,Nordeste,RPGA do Rio Itapicuru,6.4,2.8,1.0,5.3,0.5,0.7,0.8,0.9,2.0,0.0,5.4,0.0,4.9,1.0,0.9,0.6,0.0,0.4,2.7,0.4,1.5,0.0,5.8,2.9,2.9,2.8,4.2,0.2,3.0,6.8,2.8,69.6
Serrinha,83190,Serrinha,Serrinha - 83190,-11.633333,-38.966667,Nordeste,RPGA do Recôncavo Norte,6.8,0.0,1.6,5.8,1.4,0.0,0.5,1.1,2.7,0.0,0.0,1.8,4.9,0.4,3.7,2.3,2.1,1.9,1.5,0.1,0.5,0.6,0.1,1.2,0.7,0.6,6.1,0.0,2.9,5.8,8.1,65.2
Uauá,A435,Uauá,Uauá - A435,-9.833617,-39.495631,Nordeste,RPGA do Rio Vaza-Barris,1.4,0.8,0.0,2.8,0.0,0.0,0.0,0.0,2.4,0.8,2.6,1.6,0.0,0.2,0.8,0.6,0.0,0.0,0.2,0.0,0.0,0.0,0.0,0.0,1.0,1.4,0.2,0.0,2.6,0.6,0.2,20.2
Queimadas,A436,Queimadas,Queimadas - A436,-10.984645,-39.617009,Nordeste,RPGA do Rio Itapicuru,4.2,0.0,0.6,0.8,1.0,0.0,0.0,0.0,0.8,0.0,4.4,0.8,0.2,0.2,1.0,3.4,0.6,0.6,1.4,0.0,0.2,0.0,0.0,0.4,0.0,1.6,2.2,0.0,1.0,6.8,4.4,36.6
Serrinha,A441,Serrinha,Serrinha - A441,-11.664586,-39.022946,Nordeste,RPGA do Rio Paraguaçu,7.2,0.0,1.8,7.8,1.6,0.0,0.8,1.0,5.8,0.2,5.8,0.8,4.8,0.4,4.8,3.2,2.4,3.0,2.2,0.2,0.2,1.6,0.0,1.4,0.8,1.0,6.4,0.2,3.6,5.4,9.6,84.0
Senhor do Bonfim,A428,Senhor do Bonfim,Senhor do Bonfim - A428,-10.443072,-40.148244,Nordeste,RPGA do Rio Itapicuru,2.6,0.4,0.6,4.8,1.6,0.2,0.4,2.0,1.2,0.0,5.0,1.6,0.8,2.0,2.4,1.8,0.8,0.4,1.8,0.6,0.8,0.2,0.0,0.0,2.2,1.4,8.4,0.0,1.4,9.4,6.2,61.0
Pedras Altas,50430000,Capim Grosso,Capim Grosso (Pedras Altas) - 50430000,-11.18288,-40.04725,Nordeste,RPGA do Rio Itapicuru,1.8,0.0,0.0,1.8,0.0,0.0,0.2,0.2,0.0,0.0,2.4,0.0,5.6,2.2,2.8,2.2,1.8,0.8,0.0,0.0,0.0,0.0,0.0,1.0,3.0,0.0,0.4,0.0,4.0,0.4,2.2,32.8
Ponto Novo,50380000,Ponto Novo,Ponto Novo - 50380000,-10.845,-40.1128,Nordeste,RPGA do Rio Itapicuru,1.2,0.0,0.8,1.0,0.2,0.0,0.0,1.0,0.0,0.0,3.6,0.2,3.6,0.0,2.2,4.0,0.4,1.2,0.6,0.0,0.4,0.2,0.0,0.0,2.4,0.0,2.0,0.2,4.4,3.0,2.4,35.0
Ipirá,PG-CL-02,Ipirá,Ipirá - PG-CL-02,-12.14986,-39.76454,Nordeste,RPGA do Rio Paraguaçu,2.25,0.0,0.0,1.25,0.25,0.5,3.25,1.0,2.25,0.0,15.25,0.0,16.25,0.25,3.5,0.25,0.5,0.0,0.0,0.0,0.0,0.0,0.0,0.25,7.0,0.5,9.75,3.75,1.5,5.5,2.75,77.75
Serrinha,RN-CL-02,Serrinha,Serrinha - RN-CL-02,-11.648333,-38.982777,Nordeste,RPGA do Recôncavo Norte,6.0,0.0,1.25,5.0,1.25,0.0,1.0,0.25,1.75,0.0,5.5,0.25,3.0,1.5,2.75,1.25,0.75,1.0,3.25,0.0,0.25,0.25,0.0,2.75,0.0,0.75,3.0,1.0,2.75,7.75,11.5,65.75
Valente,PG-PR-04,Valente,Valente - PG-PR-04,-11.40119,-39.458099,Nordeste,RPGA do Rio Paraguaçu,2.75,0.0,0.0,0.5,0.0,3.25,1.25,1.25,2.25,1.0,21.5,1.75,3.25,1.25,7.0,0.0,2.25,3.25,0.0,3.0,0.5,0.0,0.0,0.25,3.5,0.25,0.5,0.25,7.25,4.25,2.25,74.5
Pé de Serra,PG-PR-06,Pé de Serra,Pé de Serra - PG-PR-06,-11.833423,-39.623663,Nordeste,RPGA do Rio Paraguaçu,0.75,0.0,0.0,0.0,0.0,0.0,1.25,0.75,1.0,0.0,7.75,0.0,2.25,0.25,0.5,0.0,0.75,1.0,0.5,0.0,0.0,0.0,0.0,0.25,6.5,0.5,4.25,0.25,1.5,1.25,3.25,34.5
Centro,293010501A,Senhor do Bonfim,Senhor do Bonfim (Centro) - 293010501A,-10.464,-40.19,Nordeste,RPGA do Rio Itapicuru,2.0,0.6,5.7,2.8,1.2,0.0,0.4,1.4,3.2,0.0,4.6,0.4,1.0,0.8,4.4,5.1,0.2,0.0,1.6,1.0,2.6,0.0,0.0,0.0,1.2,1.4,8.1,1.6,1.4,9.4,9.7,71.81
Itapeipu,IT-PR-34,Jacobina,Jacobina (Itapeipu) - IT-PR-34,-11.315629,-40.356742,Nordeste,RPGA do Rio Itapicuru,1.5,0.0,0.0,0.25,0.0,0.0,0.0,0.75,0.25,0.0,7.25,0.0,0.75,0.25,2.0,1.25,0.0,0.25,0.0,0.25,1.5,0.0,0.0,3.25,4.75,1.0,5.75,1.0,4.75,0.25,1.0,38.0
Caém,IT-PR-35,Caém,Caém - IT-PR-35,-11.093399,-40.437579,Nordeste,RPGA do Rio Itapicuru,1.75,0.0,0.0,0.25,0.0,0.0,0.0,0.25,0.5,0.0,5.5,0.25,2.75,0.25,1.25,1.75,1.25,0.25,0.25,0.25,1.5,0.0,0.0,2.25,3.25,1.0,4.75,2.0,3.75,0.5,2.5,38.0
Tombador Araújo,IT-PR-36,Jacobina,Jacobina (Tombador Araújo) - IT-PR-36,-11.168677,-40.670642,Nordeste,RPGA do Rio Itapicuru,1.5,0.75,0.0,0.25,0.0,0.0,0.25,2.25,0.25,0.0,3.25,0.0,0.25,0.0,0.75,0.25,0.0,0.0,0.0,0.0,0.0,0.0,0.0,1.0,3.75,0.5,7.5,6.0,1.25,0.0,1.0,30.75
Pedra Vermelha,IT-PR-24,Monte Santo,Monte Santo (Pedra Vermelha) - IT-PR-24,-10.454497,-39.559488,Nordeste,RPGA do Rio Itapicuru,3.75,0.0,0.25,3.75,0.0,0.0,0.25,0.0,1.5,0.0,6.0,0.75,0.75,0.0,1.0,1.0,0.0,0.25,2.5,0.0,0.0,0.0,0.0,0.5,1.0,0.5,12.0,0.0,1.0,3.0,3.25,43.0
Quijingue,IT-PR-25,Quijingue,Quijingue - IT-PR-25,-10.783951,-39.20809,Nordeste,RPGA do Rio Itapicuru,8.5,0.25,0.0,3.5,0.25,0.0,0.25,0.5,1.25,0.0,6.25,1.0,1.25,0.0,1.75,0.5,0.25,0.5,0.75,0.0,0.5,0.0,0.0,1.0,1.0,0.25,11.25,0.0,1.5,6.25,2.25,50.75
Curral Falso,IT-PR-01,Ribeira do Pombal,Ribeira do Pombal (Curral Falso) - IT-PR-01,-10.697843,-38.5714,Nordeste,RPGA do Rio Itapicuru,10.75,0.25,0.25,14.5,2.75,0.0,0.25,1.5,8.75,0.25,3.0,1.5,1.0,1.25,1.0,0.75,0.0,0.0,0.75,0.0,2.75,0.0,0.0,5.0,5.75,2.25,2.5,0.0,5.25,1.25,1.5,74.75
Olindina,IT-PR-11,Olindina,Olindina - IT-PR-11,-11.343693,-38.318892,Nordeste,RPGA do Rio Itapicuru,0.25,0.0,0.0,11.75,0.25,0.75,0.0,0.25,2.75,0.0,8.5,0.0,2.25,0.0,2.0,0.5,0.0,2.25,0.0,0.0,1.75,0.75,0.0,4.25,0.0,0.5,6.25,0.0,2.0,7.0,2.75,56.75
Itapicuru,IT-PR-12,Itapicuru,Itapicuru - IT-PR-12,-11.321193,-38.225003,Nordeste,RPGA do Rio Itapicuru,2.0,1.75,0.25,4.25,0.0,1.25,0.5,3.25,4.75,0.0,13.75,0.0,2.75,0.0,1.75,0.25,0.25,3.75,0.25,0.0,1.25,0.0,1.0,4.75,1.0,1.5,6.0,0.0,1.25,5.0,0.75,63.25
Jeremoabo,A450,Jeremoabo,Jeremoabo - A450,-10.0807,-38.3459,Nordeste,RPGA do Rio Vaza-Barris,3.6,0.2,15.0,1.8,0.2,0.0,0.0,0.0,10.8,3.2,4.6,1.0,1.2,0.6,3.2,0.2,0.0,0.0,0.2,0.2,3.4,0.4,0.0,4.4,0.4,1.6,0.0,0.0,6.0,4.4,3.8,70.41
Itaberaba,291840701A,Juazeiro,Juazeiro (Itaberaba) - 291840701A,-9.44837,-40.48517,Norte,RPGA dos Rios Macururé e Curaçá,0.0,0.0,0.0,0.0,0.0,0.0,0.0,0.0,0.2,0.0,0.2,0.0,0.0,0.0,0.0,0.0,0.0,0.0,0.2,0.0,0.0,0.0,0.0,0.0,0.0,0.0,0.0,0.0,0.0,0.0,0.0,0.61
Malhada da Areia,291840702A,Juazeiro,Juazeiro (Malhada da Areia) - 291840702A,-9.44181,-40.51381,Norte,RPGA dos Rios Macururé e Curaçá,0.0,0.0,0.0,0.0,0.0,0.0,0.0,0.0,0.0,0.0,0.0,0.0,0.0,0.0,0.0,0.0,0.0,0.0,0.4,0.0,0.0,0.0,0.0,0.0,0.0,0.0,0.0,0.0,0.0,0.0,0.0,0.4
Maria Gorete,291840703A,Juazeiro,Juazeiro (Maria Gorete) - 291840703A,-9.42014,-40.49909,Norte,RPGA dos Rios Macururé e Curaçá,0.0,0.0,0.0,0.0,0.0,0.0,0.0,0.0,0.0,0.0,0.0,0.0,0.0,0.0,0.0,0.0,0.0,0.0,0.0,0.0,0.0,0.0,0.0,0.0,0.0,0.0,0.0,0.0,0.0,0.0,0.0,0.0
João Paulo II,291840704A,Juazeiro,Juazeiro (João Paulo II) - 291840704A,-9.47067,-40.49805,Norte,RPGA dos Rios Macururé e Curaçá,0.0,0.0,0.0,0.0,0.0,0.0,0.0,0.0,0.0,0.0,0.4,0.0,0.0,0.0,0.0,0.0,0.0,0.0,0.2,0.0,0.0,0.0,0.0,0.0,0.0,0.0,0.0,0.0,0.0,0.0,0.0,0.61
Lapão,291915701A,Lapão,Lapão - 291915701A,-11.38,-41.83,Norte,RPGA dos Rios Verde e Jacaré,0.0,0.0,0.0,0.0,0.0,0.0,0.0,0.0,0.0,0.0,0.0,0.0,0.0,0.0,0.0,0.0,0.0,0.0,0.0,0.0,0.0,0.0,0.0,0.0,0.0,0.0,1.2,0.0,0.0,0.0,0.4,1.6
Irecê,83182,Irecê,Irecê - 83182,-11.3,-41.866667,Norte,RPGA dos Rios Verde e Jacaré,0.0,0.0,0.0,0.0,0.0,0.0,0.0,0.0,0.0,0.0,0.0,0.0,0.0,0.0,0.0,0.0,0.0,0.0,0.0,0.0,0.0,0.0,0.0,0.0,0.0,0.0,1.4,0.0,0.0,0.0,0.0,1.4
Remanso,82979,Remanso,Remanso - 82979,-9.633333,-42.1,Norte,RPGA do Lago de Sobradinho,0.0,0.0,0.0,0.0,0.0,0.0,0.0,0.0,0.0,0.0,0.0,0.0,0.0,0.0,0.0,0.0,0.0,0.0,0.0,0.0,0.0,0.0,0.0,0.0,0.0,0.0,0.0,0.0,0.0,0.0,0.0,0.0
Delfino,A443,Umburanas,Umburanas (Delfino) - A443,-10.45492,-41.206996,Norte,RPGA do Rio Salitre,0.2,0.0,0.0,1.0,0.2,0.0,0.0,0.2,0.4,0.0,1.0,0.0,1.2,0.4,0.4,0.8,0.0,0.0,0.0,0.0,0.0,0.0,0.0,0.0,1.4,0.4,0.8,1.0,1.4,0.2,1.4,12.41
Remanso,A423,Remanso,Remanso - A423,-9.625693,-42.077214,Norte,RPGA do Lago de Sobradinho,0.0,0.0,0.0,0.0,0.0,0.0,0.0,0.0,0.0,0.0,0.0,0.0,0.0,0.0,0.0,0.0,0.0,0.0,0.0,0.0,0.0,0.0,0.0,0.0,0.0,0.0,0.4,0.0,0.0,0.0,0.0,0.4
Irecê,A424,Irecê,Irecê - A424,-11.328998,-41.864504,Norte,RPGA dos Rios Verde e Jacaré,0.0,0.0,0.0,0.0,0.0,0.0,0.0,0.0,0.0,0.0,0.0,0.0,0.0,0.0,0.0,0.0,0.0,0.0,0.0,0.0,0.0,0.0,0.0,0.0,0.0,0.0,1.4,0.0,0.0,0.2,0.0,1.6
Casa Nova,Faz. Santa Felicidade,Casa Nova,Casa Nova - Faz. Santa Felicidade,-9.333333,-40.8,Norte,RPGA do Lago de Sobradinho,0.0,0.0,0.0,0.0,0.0,0.0,0.0,0.0,0.0,0.0,0.0,0.0,0.0,0.0,0.0,0.0,0.0,0.0,0.0,0.0,0.0,0.0,0.0,0.0,0.0,0.0,0.0,0.0,0.0,0.0,0.0,0.0
Juazeiro,Fazenda Brasil Uvas,Juazeiro,Juazeiro - Fazenda Brasil Uvas,-9.316666,-40.183333,Norte,RPGA dos Rios Macururé e Curaçá,0.0,0.0,0.0,0.0,0.0,0.0,0.0,0.0,0.0,0.0,0.25,0.0,0.0,0.0,0.0,0.0,0.0,0.0,0.0,0.0,0.0,0.0,0.0,0.0,0.0,0.0,0.8,0.0,0.0,0.0,0.5,1.55
Juazeiro,Massaroca,Juazeiro,Juazeiro - Massaroca,-9.8,-40.233333,Norte,RPGA dos Rios Macururé e Curaçá,0.0,0.0,0.0,0.1,0.0,0.0,0.1,0.0,0.7,0.0,0.0,0.9,0.0,0.0,0.0,0.0,0.2,0.0,0.6,0.0,0.0,0.0,0.0,0.0,0.0,0.0,0.1,1.8,0.0,0.3,0.4,5.2
Jaguarari,Pilar,Jaguarari,Jaguarari - Pilar,-9.85,-39.933333,Norte,RPGA dos Rios Macururé e Curaçá,0.0,0.2,0.0,0.4,0.1,0.2,0.0,0.3,0.1,0.0,0.0,1.3,0.0,0.0,0.0,0.0,0.0,0.0,0.7,0.0,0.0,0.0,0.0,0.0,0.0,0.3,0.2,0.2,0.0,0.4,0.6,5.01
Juazeiro,Santa Helena,Juazeiro,Juazeiro - Santa Helena,-9.566666,-40.3,Norte,RPGA dos Rios Macururé e Curaçá,0.0,0.0,0.0,0.0,0.0,0.0,0.0,0.0,0.4,0.0,0.0,1.6,0.0,0.0,0.0,0.0,0.0,0.0,0.1,0.0,0.0,0.0,0.0,0.0,0.0,0.0,0.0,0.2,0.0,0.0,0.0,2.31
Juazeiro,Salitre,Juazeiro,Juazeiro - Salitre,-9.5,-40.633333,Norte,RPGA dos Rios Macururé e Curaçá,0.0,0.0,0.0,0.0,0.0,0.0,0.0,0.1,0.0,0.0,0.1,0.0,0.0,0.0,0.0,0.0,0.0,0.0,0.0,0.0,0.0,0.0,0.0,0.0,0.0,0.0,0.1,0.0,0.0,0.3,0.2,0.8
Ibitibá,,Ibitibá,Ibitibá,-11.551736,-41.968187,Norte,RPGA dos Rios Verde e Jacaré,0.0,0.0,0.0,0.0,0.0,0.0,0.0,0.2,0.0,0.0,0.2,0.0,0.2,0.2,0.0,0.0,0.0,0.0,0.0,0.0,0.0,0.0,0.0,0.0,0.0,0.0,0.0,0.0,0.4,0.0,0.4,1.6
Jussara,Arrecife,Jussara,Jussara - Arrecife,-11.065335,-41.974853,Norte,RPGA dos Rios Verde e Jacaré,0.0,0.0,0.0,0.0,0.4,0.0,0.0,0.0,0.0,0.0,0.0,0.0,0.0,0.0,0.0,0.0,0.0,0.0,0.0,0.0,0.0,0.0,0.0,0.0,0.0,0.2,0.0,0.0,0.0,0.2,0.2,1.0
Ibipeba,,Ibipeba,Ibipeba,-11.673962,-42.010413,Norte,RPGA dos Rios Verde e Jacaré,0.0,0.0,0.0,0.0,0.0,0.0,0.0,0.6,1.0,0.2,0.0,0.0,0.0,0.0,0.0,0.0,0.0,0.0,0.0,0.0,0.0,0.0,0.0,0.0,0.2,0.0,0.0,0.0,0.0,0.0,0.0,2.0
Central,,Central,Central,-11.135391,-42.093468,Norte,RPGA dos Rios Verde e Jacaré,0.0,0.0,0.0,0.0,0.0,0.0,0.0,0.0,0.0,0.0,0.0,0.0,0.0,0.0,0.0,0.0,0.0,0.0,0.0,0.0,0.0,0.0,0.0,0.0,0.0,0.0,1.8,0.2,0.0,0.0,0.0,2.0
Juazeiro,48020000,Juazeiro,Juazeiro - 48020000,-9.4064,-40.5036,Norte,RPGA dos Rios Macururé e Curaçá,0.0,0.0,0.0,0.0,0.0,0.0,0.0,0.0,0.0,0.0,0.0,0.2,0.0,0.0,0.0,0.0,0.0,0.0,0.0,0.0,0.0,0.0,0.0,0.0,0.0,0.0,0.0,0.0,0.0,0.0,0.0,0.2
Uibai,,Uibai,Uibai,-11.294784,-42.14208,Norte,RPGA dos Rios Verde e Jacaré,0.0,0.0,0.0,0.2,0.4,0.2,0.0,0.0,0.0,0.0,0.0,0.0,0.6,0.4,0.0,0.0,0.0,0.0,0.0,0.0,0.0,0.0,0.0,0.0,0.4,1.8,1.2,0.6,0.0,1.0,0.2,7.0
Irecê,VJ-CL-01,Irecê,Irecê - VJ-CL-01,-11.289166,-41.894166,Norte,RPGA dos Rios Verde e Jacaré,0.0,0.0,0.0,0.0,0.0,0.0,0.0,0.0,0.0,0.0,0.0,0.0,0.0,0.0,0.0,0.0,0.0,0.0,0.0,0.0,0.0,0.0,0.0,0.0,0.0,0.0,1.0,0.0,0.0,0.0,0.0,1.0
Juazeiro,Mandacaru,Juazeiro,Juazeiro - Mandacaru,-9.4,-40.433333,Norte,RPGA dos Rios Macururé e Curaçá,0.0,0.0,0.0,0.0,0.0,0.0,0.0,0.0,0.0,0.0,0.5,0.0,0.0,0.0,0.0,0.0,0.0,0.0,0.0,0.0,0.0,0.0,0.0,0.0,0.0,0.0,0.0,0.0,0.0,0.0,0.0,0.5
Mirangaba,IT-PR-29,Mirangaba,Mirangaba - IT-PR-29,-10.954784,-40.574527,Norte,RPGA do Rio Itapicuru,0.0,0.0,0.0,0.0,0.0,0.0,0.0,0.0,0.0,0.0,0.0,0.0,0.0,0.0,0.0,0.0,0.0,0.0,0.0,0.0,0.0,0.0,0.0,0.0,0.0,0.0,0.0,0.0,0.0,0.0,0.0,0.0
Olho D'Água,,Olho D'Água,Olho D'Água,-10.700331,-40.601468,Norte,RPGA do Rio Salitre,0.4,0.0,0.0,0.0,0.0,0.0,0.0,0.4,1.6,0.0,0.8,0.2,1.0,0.0,0.4,0.6,0.6,0.6,0.0,0.0,0.4,0.0,0.0,0.2,1.2,0.0,3.4,3.6,4.2,0.8,3.0,23.41
Taquarendi,,Taquarendi,Taquarendi,-10.893669,-40.687028,Norte,RPGA do Rio Salitre,0.0,0.0,0.0,0.0,0.0,0.0,0.0,0.2,0.6,0.0,0.2,0.2,0.2,0.0,0.2,0.2,0.0,0.0,0.0,0.0,0.0,0.0,0.0,0.4,3.0,1.6,2.4,1.8,1.0,0.4,0.4,12.8
Correntina,A416,Correntina,Correntina - A416,-13.332386,-44.617376,Oeste,"RPGA do Rio Corrente e Riachos do Ramalho, Serra Dourada e Brejo Velho",0.0,0.0,0.0,0.0,0.0,0.0,0.0,0.0,0.0,0.0,0.0,0.0,0.0,0.0,0.0,0.0,0.0,0.0,0.0,0.0,0.0,0.0,0.0,0.0,0.0,0.0,0.0,0.0,0.0,0.0,0.0,0.0
Barreiras,83236,Barreiras,Barreiras - 83236,-12.155556,-45.007778,Oeste,RPGA do Rio Grande,0.0,0.0,0.0,0.0,0.0,0.0,0.0,0.0,0.0,0.0,0.0,0.0,0.0,0.0,0.0,0.0,0.0,0.0,0.0,0.0,0.0,0.0,0.0,0.0,0.0,0.0,0.0,0.0,0.0,0.0,0.0,0.0
Arrojado,45770000,Correntina,Correntina (Arrojado) - 45770000,-13.4528,-44.5689,Oeste,"RPGA do Rio Corrente e Riachos do Ramalho, Serra Dourada e Brejo Velho",0.0,0.0,0.0,0.0,0.0,0.0,0.0,0.0,0.0,0.0,0.0,0.0,0.0,0.0,0.0,0.0,0.0,0.0,0.0,0.0,0.0,0.0,0.0,0.0,0.0,0.0,0.0,0.0,0.0,0.0,0.0,0.0
Correntina,45590000,Correntina,Correntina - 45590000,-13.3406,-44.6386,Oeste,"RPGA do Rio Corrente e Riachos do Ramalho, Serra Dourada e Brejo Velho",0.0,0.0,0.0,0.0,0.0,0.0,0.0,0.0,0.0,0.0,0.0,0.0,0.0,0.0,0.0,0.0,0.0,0.0,0.0,0.0,0.0,0.0,0.0,0.0,0.0,0.0,0.0,0.0,0.0,0.0,0.0,0.0
PCH Pres. Goulart-J,45600000,Correntina,Correntina (PCH Pres. Goulart-J) - 45600000,-13.3344,-44.6208,Oeste,"RPGA do Rio Corrente e Riachos do Ramalho, Serra Dourada e Brejo Velho",0.0,0.0,0.0,0.0,0.0,0.0,0.0,0.0,0.0,0.0,0.0,0.0,0.0,0.0,0.0,0.0,0.0,0.0,0.0,0.0,0.0,0.0,0.0,0.0,0.0,0.0,0.0,0.0,0.0,0.0,0.0,0.0
PCH Pres. Goulart-M1,45588000,Correntina,Correntina (PCH Pres. Goulart-M1) - 45588000,-13.3408,-44.6414,Oeste,"RPGA do Rio Corrente e Riachos do Ramalho, Serra Dourada e Brejo Velho",0.0,0.0,0.0,0.0,0.0,0.0,0.0,0.0,0.0,0.0,0.0,0.0,0.0,0.0,0.0,0.0,0.0,0.0,0.0,0.0,0.0,0.0,0.0,0.0,0.0,0.0,0.0,0.0,0.0,0.0,0.0,0.0
PCH Sítio Grande-J,46453500,São Desidério,São Desidério (PCH Sítio Grande-J) - 46453500,-12.4286,-45.1528,Oeste,RPGA do Rio Grande,0.0,0.0,0.0,0.0,0.0,0.0,0.0,0.0,0.0,0.0,0.0,0.0,0.0,0.0,0.0,0.0,0.0,0.0,0.0,0.0,0.0,0.0,0.0,0.0,0.0,0.0,0.0,0.0,0.0,0.0,0.0,0.0
Barreiras,A402,Barreiras,Barreiras - A402,-12.124715,-45.027049,Oeste,RPGA do Rio Grande,0.0,0.0,0.0,0.0,0.0,0.0,0.0,0.0,0.0,0.0,0.0,0.0,0.0,0.0,0.0,0.0,0.0,0.0,0.0,0.0,0.0,0.0,0.0,0.0,0.0,0.0,0.0,0.0,0.0,0.0,0.0,0.0
Luís Eduardo Magalhães,A404,Luís Eduardo Magalhães,Luís Eduardo Magalhães - A404,-12.152394,-45.829745,Oeste,RPGA do Rio Grande,0.0,0.0,0.0,0.0,0.0,0.0,0.0,0.0,0.0,0.0,0.0,0.0,0.0,0.0,0.0,0.0,0.0,0.0,0.0,0.0,0.0,0.0,0.0,0.0,0.0,0.0,0.0,0.0,0.0,0.0,0.0,0.0
São Desidério,R. Velha - GR-CL-01,São Desidério,São Desidério - R. Velha - GR-CL-01,-12.898055,-46.157222,Oeste,RPGA do Rio Grande,0.0,0.0,0.0,0.0,0.4,0.0,0.0,0.0,0.3,0.0,0.2,0.0,0.0,0.0,0.2,0.0,0.3,0.0,0.0,0.0,0.0,0.0,0.0,0.0,0.4,0.0,0.0,0.1,0.4,0.1,0.0,2.4
J. Zoológico,A401,Salvador,Salvador (J. Zoológico) - A401,-13.005515,-38.50576,Recôncavo,RPGA do Recôncavo Norte,0.6,0.0,3.2,24.6,4.4,4.0,3.2,0.8,2.2,17.4,43.8,0.8,7.8,13.6,10.0,3.4,7.0,3.0,2.0,14.8,1.4,0.2,0.0,8.4,0.2,10.0,10.6,6.6,5.4,21.0,11.6,242.0
Cruz das Almas,A406,Cruz das Almas,Cruz das Almas - A406,-12.675422,-39.08958,Recôncavo,RPGA do Rio Paraguaçu,4.2,2.0,0.0,6.0,3.2,3.6,4.2,5.4,3.4,0.4,11.2,1.2,11.2,3.4,10.4,4.6,14.0,2.4,0.2,0.4,0.6,1.0,0.2,6.0,3.4,7.8,17.4,3.0,1.4,15.0,8.6,155.8
Rio Ipitanga,291920704H,Lauro de Freitas,Lauro de Freitas (Rio Ipitanga) - 291920704H,-12.888539,-38.321162,Recôncavo,RPGA do Recôncavo Norte,8.0,0.2,19.8,4.4,2.0,3.6,0.0,2.4,0.0,2.0,26.2,1.4,13.8,29.2,4.4,1.2,1.6,1.8,0.8,5.8,7.2,0.0,0.0,2.6,0.2,2.2,12.0,4.4,1.0,17.4,4.4,180.0
Hidro,290570101H,Camaçari,Camaçari (Hidro) - 290570101H,-12.714036,-38.33905,Recôncavo,RPGA do Recôncavo Norte,2.6,0.4,17.6,13.4,7.0,3.4,5.2,2.0,3.0,3.8,9.0,1.8,16.8,7.4,5.2,4.8,9.8,2.0,0.4,2.2,0.2,0.0,2.8,8.0,6.8,4.8,10.0,7.6,3.4,24.8,4.4,190.61
Valença,293290307H,Valença,Valença - 293290307H,-13.3664,-39.0767,Recôncavo,RPGA do Recôncavo Sul,5.6,0.0,0.0,3.0,2.8,13.0,4.0,5.0,6.0,1.4,17.2,5.2,2.4,6.8,11.6,2.6,13.4,3.6,0.4,1.4,2.0,0.8,0.0,11.4,4.0,1.8,24.0,0.8,7.4,3.8,22.2,183.61
Feira de Santana,A413,Feira de Santana,Feira de Santana - A413,-12.1962,-38.967384,Recôncavo,RPGA do Recôncavo Norte,3.0,0.4,0.8,4.0,5.6,1.0,4.0,0.8,2.8,0.2,2.0,2.6,9.2,0.6,3.8,0.0,2.4,1.0,1.4,0.0,0.0,0.4,0.0,0.0,4.2,1.2,2.4,0.4,0.6,3.8,4.8,63.4
Periperi,292740820A,Salvador,Salvador (Periperi) - 292740820A,-12.867344,-38.458111,Recôncavo,RPGA do Recôncavo Norte,2.4,0.0,13.0,15.6,9.4,7.4,3.4,4.6,1.4,1.0,28.2,2.4,17.8,16.8,13.0,2.6,8.6,10.8,2.2,3.4,0.0,0.0,0.0,8.6,2.6,8.4,21.6,3.8,1.8,37.6,9.4,257.8
Mussurunga,292740821A,Salvador,Salvador (Mussurunga) - 292740821A,-12.907733,-38.440111,Recôncavo,RPGA do Recôncavo Norte,1.2,0.2,12.4,3.8,1.6,7.0,4.6,7.4,0.0,1.6,28.8,0.4,19.6,21.0,8.6,1.2,5.2,3.2,0.2,7.6,0.2,0.0,0.0,2.8,1.0,6.2,11.0,2.2,4.0,33.8,2.0,198.8
Fazenda Coutos,292740822A,Salvador,Salvador (Fazenda Coutos) - 292740822A,-12.849955,-38.461778,Recôncavo,RPGA do Recôncavo Norte,2.2,0.0,10.0,15.8,11.2,5.8,3.4,5.0,0.8,1.6,33.0,0.4,18.4,14.0,10.0,3.8,8.2,5.6,0.4,2.2,0.8,0.0,0.0,5.0,1.4,9.4,18.8,3.8,1.0,27.0,9.6,228.61
Itapuã,292740819A,Salvador,Salvador (Itapuã) - 292740819A,-12.947736,-38.370136,Recôncavo,RPGA do Recôncavo Norte,3.2,0.0,12.8,5.6,1.2,7.0,1.0,2.0,0.2,4.2,48.6,0.6,6.2,8.0,4.6,3.6,6.6,3.2,0.2,3.8,0.4,0.0,0.0,3.0,1.0,7.0,9.2,1.6,2.0,28.8,6.2,181.8
Alagoinhas,83249,Alagoinhas,Alagoinhas - 83249,-12.148333,-38.425556,Recôncavo,RPGA do Recôncavo Norte,5.6,0.0,5.7,6.2,0.8,1.2,5.8,4.2,1.4,1.8,7.2,0.0,8.5,0.8,3.5,0.3,1.2,1.8,0.7,0.0,1.4,0.0,0.3,6.4,1.9,4.4,14.4,1.8,4.8,22.2,13.5,127.81
Tancredo Neves,292740823A,Salvador,Salvador (Tancredo Neves) - 292740823A,-12.945347,-38.453472,Recôncavo,RPGA do Recôncavo Norte,1.2,0.0,8.8,7.8,2.2,8.4,1.0,0.8,0.4,2.8,54.4,2.0,7.2,10.4,4.4,8.8,4.0,1.0,4.2,5.0,1.0,0.0,0.0,6.2,0.4,10.6,12.0,8.9,1.8,45.4,4.2,225.3
Cruz das Almas,83222,Cruz das Almas,Cruz das Almas - 83222,-12.666667,-39.083333,Recôncavo,RPGA do Rio Paraguaçu,4.6,1.8,0.0,7.0,3.3,4.0,4.4,6.5,3.1,0.2,13.7,0.8,12.6,2.5,9.8,4.4,15.0,2.6,0.0,0.0,0.8,0.8,0.2,6.5,3.4,8.3,18.6,1.9,1.0,12.9,0.0,150.71
Amargosa,A434,Amargosa,Amargosa - A434,-13.009468,-39.616881,Recôncavo,RPGA do Recôncavo Sul,1.4,0.6,1.0,0.4,0.0,7.2,6.2,3.2,4.8,0.8,18.4,0.0,1.2,4.2,5.0,0.8,3.4,3.8,0.0,0.2,0.0,0.0,0.0,0.4,9.0,0.2,13.6,4.6,5.6,4.2,4.6,104.8
Mata de São João,ETA - Embasa,Mata de São João,Mata de São João - ETA - Embasa,-12.394946,-37.934649,Recôncavo,RPGA do Recôncavo Norte,0.5,0.0,0.0,0.0,0.0,0.0,0.0,0.0,0.0,0.0,0.0,0.0,0.0,0.0,0.0,0.0,0.0,0.0,0.0,0.0,0.0,0.0,0.0,0.0,0.0,0.0,0.0,0.0,0.0,0.0,0.0,0.5
Candeias,EMBASA,Candeias,Candeias - EMBASA,-12.663561,-38.533,Recôncavo,RPGA do Recôncavo Norte,6.0,0.1,8.6,3.0,2.9,2.5,15.0,1.0,5.0,5.0,9.3,10.0,9.0,3.5,23.9,6.4,13.5,3.0,7.4,0.0,7.5,0.0,0.0,6.1,8.1,0.8,10.0,3.7,18.5,6.0,3.1,198.9
Dias D´Ávila,EMBASA,Dias D´Ávila,Dias D´Ávila - EMBASA,-12.620505,-38.315217,Recôncavo,RPGA do Recôncavo Norte,3.3,0.0,4.9,9.4,3.3,0.4,3.2,2.8,4.0,4.5,3.9,1.4,9.7,6.5,10.7,3.9,9.2,5.2,3.4,2.6,0.9,2.7,0.0,3.8,7.1,3.8,8.3,6.7,3.9,10.4,7.0,146.9
São Sebastião do Passé-EMBASA,,São Sebastião do Passé-EMBASA,São Sebastião do Passé-EMBASA,-12.517449,-38.492165,Recôncavo,RPGA do Recôncavo Norte,8.0,0.0,5.4,8.7,3.2,2.4,0.4,0.7,4.6,0.0,10.2,0.0,10.1,4.4,0.0,15.2,3.1,8.3,10.1,0.0,3.9,0.0,0.0,5.6,4.6,6.2,5.2,1.6,1.4,16.3,10.7,150.3
Joanes II,322,Simões Filho,Simões Filho (Joanes II) - 322,-12.674147,-38.376254,Recôncavo,RPGA do Recôncavo Norte,12.8,0.0,7.0,19.6,2.1,3.1,9.1,0.6,3.5,4.5,12.0,0.0,17.4,6.2,6.0,5.7,5.3,1.2,2.2,1.4,0.3,0.0,0.0,0.0,6.5,2.5,12.0,7.0,1.4,20.6,5.0,175.01
Santa Helena,323,Camaçari,Camaçari (Santa Helena) - 323,-12.56202,-38.1606,Recôncavo,RPGA do Recôncavo Norte,9.9,0.0,1.3,3.0,2.8,3.7,11.6,2.5,5.1,1.6,11.2,1.0,18.2,1.4,22.6,0.8,4.2,2.5,6.1,8.0,1.5,1.6,0.0,12.5,1.9,1.0,17.7,6.2,2.2,9.9,4.1,176.1
Ondina,83229,Salvador,Salvador (Ondina) - 83229,-13.005278,-38.505833,Recôncavo,RPGA do Recôncavo Norte,0.5,0.0,3.0,24.2,4.2,3.5,2.6,0.7,2.0,17.5,42.6,0.5,7.3,12.7,9.8,3.8,6.1,3.0,1.9,14.2,1.0,0.0,0.0,8.5,0.2,8.8,9.3,6.1,4.4,19.5,10.5,228.41
Itatim,PG-PR-14,Itatim,Itatim - PG-PR-14,-12.720391,-39.700059,Recôncavo,RPGA do Rio Paraguaçu,0.25,0.0,0.0,0.0,0.0,0.25,0.0,0.25,1.0,3.25,4.5,0.0,0.0,0.5,0.75,0.75,0.25,2.75,0.0,0.0,0.0,0.0,0.0,0.25,1.25,0.0,0.75,0.0,0.5,0.75,0.5,18.5
Centro,292740802A,Salvador,Salvador (Centro) - 292740802A,-12.97821,-38.515945,Recôncavo,RPGA do Recôncavo Norte,0.8,0.0,3.4,21.1,5.5,9.5,9.5,1.0,0.6,8.7,41.9,0.8,5.9,8.3,3.6,1.2,1.4,2.4,4.3,14.4,1.0,0.0,0.0,8.3,0.0,8.5,9.6,5.3,2.8,29.1,9.2,218.11
São tomé de Paripe,292740806A,Salvador,Salvador (São tomé de Paripe) - 292740806A,-12.795508,-38.489389,Recôncavo,RPGA do Recôncavo Norte,9.2,3.4,10.9,13.2,9.4,3.0,1.6,3.0,1.2,5.0,44.7,0.0,13.4,12.0,6.9,4.0,2.0,1.8,1.6,4.4,4.2,0.0,0.0,2.8,0.0,5.9,10.3,4.0,3.6,16.6,3.8,201.91
Federação,292740803A,Salvador,Salvador (Federação) - 292740803A,-13.000791,-38.511056,Recôncavo,RPGA do Recôncavo Norte,2.0,0.0,1.6,23.4,2.4,3.0,2.8,0.4,1.4,12.4,42.0,0.4,5.7,9.3,7.1,2.0,4.7,2.6,2.2,10.8,1.2,0.0,0.0,6.5,0.0,5.9,8.5,5.5,4.1,20.3,9.1,197.3
Cabula,292740810A,Salvador,Salvador (Cabula) - 292740810A,-12.961347,-38.460778,Recôncavo,RPGA do Recôncavo Norte,1.8,0.0,8.7,5.1,2.4,7.3,4.5,0.4,0.6,4.8,44.1,4.8,14.4,14.6,1.0,4.9,2.2,6.0,5.3,11.0,3.2,2.4,0.0,2.6,1.2,9.5,8.3,1.6,0.6,52.9,2.0,228.2
Nova Esperança,292740818A,Salvador,Salvador (Nova Esperança) - 292740818A,-12.861,-38.368,Recôncavo,RPGA do Recôncavo Norte,2.8,0.0,13.4,12.4,4.6,5.5,1.2,2.0,0.2,1.6,34.6,0.6,13.2,16.7,4.3,0.6,4.3,5.5,0.4,4.5,3.0,0.0,1.4,3.0,2.0,1.4,14.0,1.2,3.8,12.6,3.8,174.61
Caminho das Árvores,292740815A,Salvador,Salvador (Caminho das Árvores) - 292740815A,-12.97718,-38.453834,Recôncavo,RPGA do Recôncavo Norte,0.6,0.0,7.1,4.7,2.2,5.5,3.8,0.4,0.4,5.9,36.1,4.8,10.5,13.2,2.2,2.6,4.5,6.3,3.7,8.0,4.3,1.0,0.6,2.2,0.4,6.9,8.4,0.4,0.0,38.1,1.0,185.8
Alto do Peru,292740812A,Salvador,Salvador (Alto do Peru) - 292740812A,-12.939122,-38.486334,Recôncavo,RPGA do Recôncavo Norte,5.2,0.2,2.4,2.8,1.2,0.4,6.4,0.2,0.2,2.2,19.7,3.0,6.2,8.3,2.2,6.1,1.0,1.8,3.2,4.9,2.0,0.2,0.4,0.2,0.2,0.6,0.8,1.0,2.8,4.0,15.2,105.01
CAB,292740811A,Salvador,Salvador (CAB) - 292740811A,-12.943354,-38.421264,Recôncavo,RPGA do Recôncavo Norte,1.2,0.0,11.2,3.8,4.1,5.3,0.6,0.0,0.4,2.6,53.2,1.0,6.1,7.9,7.5,3.3,4.7,3.0,0.0,0.4,1.0,0.0,0.8,8.3,1.0,12.0,9.1,2.6,5.3,31.9,1.4,189.71
Cosme de Farias,292740816A,Salvador,Salvador (Cosme de Farias) - 292740816A,-12.979402,-38.4855,Recôncavo,RPGA do Recôncavo Norte,5.1,0.0,4.6,5.9,0.4,12.8,2.6,1.6,1.4,5.9,35.7,1.8,6.3,8.9,4.7,1.2,5.7,6.0,10.0,6.3,0.0,0.0,0.0,4.9,0.0,5.9,5.5,1.2,2.2,33.5,6.5,186.6
São Caetano,292740814A,Salvador,Salvador (São Caetano) - 292740814A,-12.939678,-38.474667,Recôncavo,RPGA do Recôncavo Norte,1.0,0.0,12.1,8.3,2.2,10.7,3.4,0.6,2.4,2.8,42.5,2.0,15.2,13.6,3.2,8.7,3.0,3.0,2.4,6.9,1.6,1.0,0.2,1.8,0.2,11.0,14.4,3.9,0.6,46.2,2.0,226.9
Pirajá,292740801A,Salvador,Salvador (Pirajá) - 292740801A,-12.8994,-38.458833,Recôncavo,RPGA do Recôncavo Norte,0.2,0.0,14.2,8.1,3.2,11.0,3.0,2.0,0.0,3.8,22.6,1.6,7.1,19.7,12.8,2.2,10.3,5.5,1.6,5.7,1.8,0.0,0.0,8.1,1.6,12.2,11.4,2.2,2.0,29.2,12.6,215.7
Rio Sena,292740805A,Salvador,Salvador (Rio Sena) - 292740805A,-12.891344,-38.470778,Recôncavo,RPGA do Recôncavo Norte,0.6,0.2,16.4,9.9,3.0,11.4,4.0,1.4,1.0,3.2,21.3,1.4,8.5,19.3,14.0,2.2,9.1,8.7,1.8,1.2,1.8,0.0,0.0,6.1,2.8,10.5,14.2,1.6,3.6,30.9,18.5,228.6
Valéria,292740817A,Salvador,Salvador (Valéria) - 292740817A,-12.8644,-38.438276,Recôncavo,RPGA do Recôncavo Norte,2.2,0.0,15.0,13.4,9.7,4.7,5.9,7.5,1.0,0.4,28.2,0.2,19.9,21.9,10.4,3.8,8.5,2.6,0.4,1.0,2.8,0.0,1.0,3.8,1.2,8.5,22.6,8.9,1.2,29.1,6.9,242.71
Centro,290650101A,Candeias,Candeias (Centro) - 290650101A,-12.670229,-38.544112,Recôncavo,RPGA do Recôncavo Norte,6.5,0.2,15.4,15.4,4.4,1.8,3.2,3.7,1.6,1.6,20.1,0.0,12.8,3.2,10.6,2.8,5.1,1.2,0.4,6.9,2.0,0.0,0.0,4.2,1.6,2.4,10.9,2.0,3.6,20.7,14.2,178.5
Sarandi,290650104A,Candeias,Candeias (Sarandi) - 290650104A,-12.671341,-38.531056,Recôncavo,RPGA do Recôncavo Norte,10.1,0.0,18.3,10.5,10.8,0.6,4.9,3.6,1.0,2.0,21.7,0.0,11.2,3.2,8.9,3.6,4.4,2.8,1.8,12.3,1.6,0.0,0.0,1.4,1.8,3.2,12.2,4.3,3.4,21.9,9.1,190.61
Areia Branca,291920706A,Lauro de Freitas,Lauro de Freitas (Areia Branca) - 291920706A,-12.841,-38.337,Recôncavo,RPGA do Recôncavo Norte,4.2,0.0,14.0,5.9,4.1,2.0,2.6,4.9,0.0,5.8,46.1,0.8,13.8,7.1,2.2,4.0,2.6,2.0,1.6,1.2,2.2,0.0,0.0,3.9,1.0,2.0,17.5,1.8,3.9,15.2,6.7,179.1
Itinga,291920703A,Lauro de Freitas,Lauro de Freitas (Itinga) - 291920703A,-12.892,-38.336,Recôncavo,RPGA do Recôncavo Norte,3.8,0.0,10.9,3.0,2.6,3.2,0.4,3.4,0.4,1.2,20.3,0.2,13.2,25.7,4.4,1.2,6.5,5.5,0.0,10.2,2.4,0.0,0.0,3.6,0.8,1.6,13.2,1.4,0.8,16.1,4.0,160.0
Portão,291920701A,Lauro de Freitas,Lauro de Freitas (Portão) - 291920701A,-12.87,-38.305,Recôncavo,RPGA do Recôncavo Norte,3.6,0.0,22.1,5.1,1.2,2.0,1.4,2.8,0.2,4.6,27.7,0.0,13.8,14.6,1.2,1.8,1.2,9.1,0.0,2.6,5.5,0.0,0.0,2.2,0.2,1.8,18.7,2.2,7.5,11.8,4.7,169.6
Rua 02 de Julho,291920705A,Lauro de Freitas,Lauro de Freitas (Rua 02 de Julho) - 291920705A,-12.839,-38.35,Recôncavo,RPGA do Recôncavo Norte,6.1,0.0,11.9,3.7,3.2,2.8,1.2,3.8,0.2,7.1,41.1,0.0,12.4,6.9,1.2,3.4,2.8,3.9,0.8,3.4,4.4,1.0,0.0,4.3,1.2,1.2,15.6,2.2,5.1,13.2,5.9,170.0
Muritiba,PG-PR-12,Muritiba,Muritiba - PG-PR-12,-12.617895,-39.005591,Recôncavo,RPGA do Rio Paraguaçu,1.5,0.25,0.0,20.5,1.75,7.5,8.75,1.75,3.25,1.0,19.75,0.5,12.25,6.75,10.0,5.0,4.75,3.0,0.5,1.25,0.5,0.0,1.25,6.5,3.25,3.75,3.75,2.75,4.25,5.75,6.25,148.0
Dois de Julho,291120401A,Gandú,Gandú (Dois de Julho) - 291120401A,-13.741357,-39.48303,Recôncavo,RPGA do Recôncavo Sul,5.4,3.9,0.0,0.0,0.4,0.8,1.0,2.2,1.8,16.0,17.4,0.4,2.4,4.0,3.2,4.0,12.3,0.2,6.1,0.4,1.2,0.0,0.0,2.0,11.1,2.4,3.2,2.2,10.5,4.6,3.5,122.61
Centro,292060101A,Maragogipe,Maragogipe (Centro) - 292060101A,-12.78,-38.917,Recôncavo,RPGA do Rio Paraguaçu,5.9,3.1,0.2,23.4,5.9,2.4,4.0,2.6,7.5,1.2,13.8,0.0,6.9,6.0,10.7,6.6,4.9,2.8,1.6,1.0,2.0,1.8,0.2,9.3,3.8,9.5,17.6,3.8,3.0,26.5,16.4,204.4
Centro,292250801A,Nazaré,Nazaré (Centro) - 292250801A,-13.032,-39.015,Recôncavo,RPGA do Recôncavo Sul,0.6,0.6,0.0,4.0,8.7,9.3,4.6,9.5,8.3,5.4,34.0,3.2,2.6,4.8,16.7,4.1,6.1,10.7,0.0,0.2,2.6,0.2,0.0,12.4,8.1,4.6,38.1,9.1,10.1,9.9,16.6,245.1
PC Fazenda Jurema,51346050,Rafael Jambeiro,Rafael Jambeiro (PC Fazenda Jurema) - 51346050,-12.4881,-39.6981,Recôncavo,RPGA do Rio Paraguaçu,0.6,0.0,0.0,0.3,0.0,2.5,0.6,1.1,0.6,0.0,2.6,0.0,5.1,0.0,4.7,0.8,1.6,0.8,0.0,0.0,0.3,0.0,0.0,1.1,2.2,1.1,6.4,3.7,2.3,5.5,6.3,50.2
PC Argoim,51351000,Rafael Jambeiro,Rafael Jambeiro (PC Argoim) - 51351000,-12.5867,-39.5217,Recôncavo,RPGA do Rio Paraguaçu,0.0,0.3,0.0,0.6,0.0,1.1,0.5,1.0,0.6,0.5,5.0,0.6,7.5,0.6,4.7,0.6,0.3,0.3,0.3,0.6,0.3,0.0,0.0,0.6,2.2,0.8,6.4,3.7,3.7,4.2,4.1,51.11
PC Rio Paratigi,51370000,Santo Estevão,Santo Estevão (PC Rio Paratigi) - 51370000,-12.51503,-39.38272,Recôncavo,RPGA do Rio Paraguaçu,0.3,0.8,0.3,0.3,1.7,0.5,3.2,3.1,5.2,1.7,5.5,0.6,6.2,1.1,4.2,2.5,2.4,0.6,2.6,0.0,0.0,0.0,0.0,1.9,6.1,1.1,9.5,1.2,0.3,1.2,4.5,68.61
Feira de Santana,PC Rio Branco,Feira de Santana,Feira de Santana - PC Rio Branco,-12.2331,-39.0461,Recôncavo,RPGA do Rio Paraguaçu,0.3,0.8,0.3,6.6,3.5,1.1,1.1,2.5,2.4,1.8,12.6,2.8,3.0,2.5,6.5,0.3,2.1,1.6,0.6,0.3,0.8,1.2,0.3,3.0,1.5,3.2,9.3,2.5,0.8,5.3,6.8,87.4
Abaeté,RN-PR-01,Salvador,Salvador (Abaeté) - RN-PR-01,-12.945407,-38.361404,Recôncavo,RPGA do Recôncavo Norte,1.5,0.0,13.9,6.5,3.8,3.7,2.0,5.0,5.0,3.8,45.5,1.4,6.7,5.9,5.3,1.5,3.4,4.0,1.7,1.0,0.0,0.0,0.0,1.9,5.0,2.6,7.6,4.5,2.8,2.0,2.0,150.0
Espinheira,,Espinheira,Espinheira,-14.283478,-41.75792,Sudoeste,RPGA do Rio de Contas,2.0,0.0,0.0,0.0,0.0,0.0,0.0,0.0,0.0,2.75,5.75,0.25,1.5,0.0,1.25,0.0,0.0,0.0,0.0,0.0,0.0,0.0,0.0,0.0,0.0,0.0,0.0,0.25,7.75,0.25,0.0,21.75
Itiruçu,A407,Itiruçu,Itiruçu - A407,-13.52629,-40.12055,Sudoeste,RPGA do Recôncavo Sul,2.8,0.0,0.0,3.4,3.2,3.0,4.6,25.6,0.2,4.6,0.0,0.2,0.6,0.0,0.8,13.8,0.8,0.0,0.2,3.0,0.0,0.2,0.0,0.0,0.0,0.0,8.0,0.4,3.0,1.6,0.8,80.81
Hidro,291640103H,Itapetinga,Itapetinga (Hidro) - 291640103H,-15.243383,-40.234307,Sudoeste,RPGA do Rio Pardo,1.4,0.0,1.2,0.0,2.0,5.6,2.0,0.6,0.4,11.0,13.0,0.4,0.2,0.2,0.4,0.2,0.2,0.2,0.2,4.8,4.4,0.0,0.0,0.0,0.6,0.6,0.2,0.2,0.2,0.0,0.2,50.41
Vitória da Conquista,A414,Vitória da Conquista,Vitória da Conquista - A414,-14.886428,-40.80133,Sudoeste,RPGA do Rio Pardo,3.4,0.0,1.0,1.0,2.0,7.4,4.8,4.4,3.0,7.4,1.2,2.8,3.4,1.6,2.2,6.8,3.0,7.0,0.4,0.8,0.0,0.2,0.2,0.2,1.2,0.4,1.4,7.2,4.6,2.8,2.6,84.4
Ituaçu,83292,Ituaçu,Ituaçu - 83292,-13.812778,-41.3,Sudoeste,RPGA do Rio de Contas,9.2,2.2,0.0,2.1,0.0,2.8,0.0,0.0,0.0,3.2,1.9,0.0,2.3,0.0,1.1,0.0,0.0,0.0,0.0,0.0,0.0,0.0,0.0,0.0,0.0,0.0,0.0,0.0,10.8,0.0,0.4,36.0
Vitória da Conquista,83344,Vitória da Conquista,Vitória da Conquista - 83344,-14.883333,-40.8,Sudoeste,RPGA do Rio Pardo,3.9,0.0,1.0,0.8,2.3,7.1,4.8,4.0,2.7,7.4,1.0,2.7,3.4,1.3,2.3,7.2,3.2,6.7,0.9,1.8,0.0,0.2,0.0,0.3,1.2,0.5,1.6,7.6,4.9,2.8,3.2,86.8
Brumado,A433,Brumado,Brumado - A433,-14.181886,-41.672281,Sudoeste,RPGA do Rio de Contas,5.8,0.0,0.0,0.0,0.0,1.0,0.4,0.0,0.0,7.0,9.2,1.8,3.6,0.2,1.2,0.0,0.0,0.2,0.0,0.0,0.0,0.0,0.0,0.0,0.0,0.0,0.0,0.6,4.8,0.2,0.0,36.0
Itapetinga,A446,Itapetinga,Itapetinga - A446,-15.24462,-40.22955,Sudoeste,RPGA do Rio Pardo,1.6,0.0,1.0,0.2,1.8,6.4,1.0,3.2,0.8,20.2,1.0,3.0,4.6,1.2,4.0,1.2,2.6,6.0,0.6,0.2,0.0,0.2,0.0,0.0,10.8,0.2,1.0,6.8,12.6,0.8,1.6,94.61
Anagé,CO-CL-01,Anagé,Anagé - CO-CL-01,-14.618055,-41.149722,Sudoeste,RPGA do Rio de Contas,0.25,0.0,0.0,0.0,0.0,0.0,0.0,0.0,0.0,0.0,4.5,0.0,0.0,0.0,0.0,0.0,0.0,0.0,0.0,0.0,0.0,0.0,0.0,0.0,0.0,0.0,0.0,0.75,0.25,0.0,0.0,5.75
Planaltino,PG-PR-03,Planaltino,Planaltino - PG-PR-03,-13.259292,-40.373976,Sudoeste,RPGA do Recôncavo Sul,2.5,0.0,0.0,0.0,0.0,0.0,0.25,0.25,0.75,0.25,6.5,0.25,0.75,1.0,0.0,0.25,0.75,1.0,0.0,0.0,0.0,0.0,0.0,0.0,2.25,0.75,1.25,0.0,1.25,2.5,0.0,22.5
Centro,293330701A,Vitória da Conquista,Vitória da Conquista (Centro) - 293330701A,-14.852,-40.839,Sudoeste,RPGA do Rio Pardo,3.4,0.0,0.2,0.0,1.4,6.0,3.6,3.0,1.0,5.8,1.0,1.6,2.4,0.6,1.0,3.0,0.2,1.4,0.0,0.2,0.0,0.0,0.0,0.0,0.6,0.2,0.6,8.3,2.8,0.8,1.2,50.31
Clerolândia,291640101A,Itapetinga,Itapetinga (Clerolândia) - 291640101A,-15.243,-40.221,Sudoeste,RPGA do Rio Pardo,1.2,0.0,0.8,0.0,0.4,3.8,1.0,1.8,0.6,12.1,0.2,2.0,2.4,1.2,2.6,1.0,1.2,4.0,0.4,0.4,0.0,0.0,0.0,0.0,9.1,0.0,0.4,4.9,9.7,0.4,0.8,62.4
Recreio,293330702A,Vitória da Conquista,Vitória da Conquista (Recreio) - 293330702A,-14.861,-40.841,Sudoeste,RPGA do Rio Pardo,4.3,0.0,0.0,0.4,0.8,4.4,3.6,2.2,1.6,4.8,1.0,2.2,1.8,0.8,1.2,3.8,0.4,4.8,0.2,0.0,0.0,0.0,0.0,0.0,0.2,0.2,1.2,6.0,2.8,1.4,1.4,51.5
Patagônia,293330704A,Vitória da Conquista,Vitória da Conquista (Patagônia) - 293330704A,-14.87,-40.863,Sudoeste,RPGA do Rio Pardo,5.8,0.0,0.0,0.6,1.0,4.4,2.0,1.8,2.4,4.4,1.4,2.0,1.8,1.2,0.6,6.3,1.4,5.3,0.0,0.0,0.0,0.0,0.0,0.0,0.6,0.2,0.2,4.8,4.4,1.8,1.6,56.0
Barcelar,293330705A,Vitória da Conquista,Vitória da Conquista (Barcelar) - 293330705A,-14.838,-40.856,Sudoeste,RPGA do Rio Pardo,4.8,0.0,0.2,0.2,1.6,7.7,4.2,4.0,2.2,6.6,1.0,2.2,3.2,0.8,2.0,4.0,1.2,2.0,0.2,0.6,0.0,0.0,0.0,0.0,0.8,0.6,1.0,13.1,3.4,1.2,1.0,69.81
Lomantão,293330703A,Vitória da Conquista,Vitória da Conquista (Lomantão) - 293330703A,-14.87,-40.827,Sudoeste,RPGA do Rio Pardo,3.8,0.0,0.0,0.0,1.0,4.0,3.4,2.0,1.4,4.6,0.8,1.8,1.6,0.8,1.0,5.3,0.6,4.4,0.2,0.0,0.0,0.0,0.0,0.2,0.2,0.2,0.8,2.6,2.2,1.6,1.4,45.91
Jaguaquara,RS-CL-01,Jaguaquara,Jaguaquara - RS-CL-01,-13.573055,-39.940833,Sudoeste,RPGA do Recôncavo Sul,2.75,0.0,0.0,0.75,1.75,4.75,4.5,1.0,6.5,3.5,12.25,1.25,3.75,3.25,3.25,5.0,7.0,1.0,0.25,1.75,0.0,0.0,0.0,3.75,6.75,5.0,9.25,1.25,8.5,3.25,6.75,108.75
Jequié,CO-CL-03,Jequié,Jequié - CO-CL-03,-13.873055,-40.071944,Sudoeste,RPGA do Rio de Contas,0.0,0.0,0.0,0.0,0.5,4.75,1.25,0.25,2.25,0.5,14.5,1.5,0.75,0.75,1.5,0.5,4.25,0.5,0.25,0.0,0.0,0.0,0.0,0.0,5.25,0.75,0.0,1.75,9.0,1.25,2.0,54.0
Caravelas,A405,Caravelas,Caravelas - A405,-17.739413,-39.258617,Sul,"RPGA dos Rios Peruípe, Itanhém e Jucuruçu",0.0,5.0,23.0,4.8,0.6,0.0,6.4,1.6,2.4,0.0,4.6,2.0,4.4,4.4,1.2,17.8,1.4,0.0,0.4,2.0,0.2,0.0,0.4,2.0,1.2,0.2,8.2,22.4,3.2,4.2,3.0,127.01
PCH Colino II M,55355600,Vereda,Vereda (PCH Colino II M) - 55355600,-17.07126,-40.15474,Sul,"RPGA dos Rios Peruípe, Itanhém e Jucuruçu",0.0,0.3,17.9,2.7,7.3,4.8,15.0,13.0,9.9,21.9,2.1,9.6,6.2,2.9,7.5,7.0,5.5,1.9,0.2,6.9,0.0,0.3,4.6,1.6,12.4,4.0,6.6,29.7,13.4,4.9,7.6,227.71
Itamaraju,A455,Itamaraju,Itamaraju - A455,-17.17103,-39.58819,Sul,"RPGA dos Rios Peruípe, Itanhém e Jucuruçu",1.6,0.0,26.2,0.2,4.4,8.0,12.6,3.4,4.0,16.2,2.2,20.2,10.6,5.8,3.2,5.4,5.2,0.8,0.6,12.4,0.6,0.2,2.4,6.2,9.8,2.6,0.8,18.2,19.6,1.4,2.2,207.0
Rio Cachoeira,291480202H,Itabuna,Itabuna (Rio Cachoeira) - 291480202H,-14.800574,-39.278891,Sul,RPGA do Leste,3.2,0.0,0.0,0.6,2.4,7.4,3.0,2.2,0.8,51.2,1.4,10.2,5.0,10.2,7.0,2.6,20.2,0.2,1.0,2.2,3.0,0.2,0.2,7.6,11.4,1.4,1.2,2.6,20.0,0.6,10.4,189.4
Santa Cruz Cabrália,292770505H,Santa Cruz Cabrália,Santa Cruz Cabrália - 292770505H,-16.2835,-39.0237,Sul,"RPGA dos Rios dos Frades, Buranhém e Santo Antônio",2.4,0.0,12.4,28.0,5.2,6.0,10.3,13.4,6.2,6.6,0.0,3.6,14.8,12.2,0.0,1.2,5.4,1.2,6.2,0.0,0.0,0.6,0.4,0.6,4.4,0.0,2.8,18.8,8.8,1.2,4.6,177.3
Itajuípe,,Itajuípe,Itajuípe,-14.6744,-39.3769,Sul,RPGA do Leste,0.0,0.0,0.0,0.6,4.2,9.2,3.0,1.0,7.6,76.6,3.0,7.8,6.2,8.4,8.4,1.8,9.6,4.6,0.6,0.8,0.8,1.0,0.0,10.0,7.4,0.6,3.2,6.8,11.8,2.8,11.8,209.61
Canavieiras,83398,Canavieiras,Canavieiras - 83398,-15.666667,-38.95,Sul,RPGA do Rio Pardo,1.2,0.0,3.8,2.8,4.0,5.1,13.6,9.6,0.0,45.7,0.0,10.6,1.0,29.6,5.8,3.9,20.9,0.0,24.6,3.7,5.9,1.9,0.0,0.0,0.0,0.0,9.8,24.6,15.5,0.0,2.6,246.21
Caravelas,83498,Caravelas,Caravelas - 83498,-17.739167,-39.258333,Sul,"RPGA dos Rios Peruípe, Itanhém e Jucuruçu",0.0,4.6,20.1,4.7,0.4,0.0,6.0,1.4,2.0,0.0,4.1,2.0,4.0,3.8,0.9,17.2,0.8,0.0,0.2,1.6,0.0,0.0,0.0,1.8,1.0,0.2,7.6,21.0,2.8,3.2,2.0,113.4
Guaratinga,83446,Guaratinga,Guaratinga - 83446,-16.58,-39.78,Sul,"RPGA dos Rios dos Frades, Buranhém e Santo Antônio",0.4,0.2,4.7,0.0,2.6,2.1,2.4,5.0,1.8,11.0,0.6,3.0,10.2,2.2,8.4,0.4,7.8,5.7,0.4,2.4,0.0,0.0,0.0,0.0,6.0,1.8,0.0,7.0,3.3,5.8,2.7,97.9
Porto Seguro,A427,Porto Seguro,Porto Seguro - A427,-16.388977,-39.182389,Sul,"RPGA dos Rios dos Frades, Buranhém e Santo Antônio",2.2,0.2,3.6,1.8,6.2,20.0,14.6,13.2,8.0,26.4,0.8,4.0,8.4,7.2,5.8,1.6,3.8,0.8,7.6,1.2,0.0,0.0,0.4,3.2,1.6,0.0,7.0,32.8,6.0,6.6,8.6,203.6
Belmonte,A447,Belmonte,Belmonte - A447,-16.08487,-39.21726,Sul,"RPGA dos Rios dos Frades, Buranhém e Santo Antônio",0.0,0.0,0.0,0.0,0.0,0.0,0.0,0.0,0.0,0.0,0.0,0.0,0.0,0.0,0.0,0.0,0.0,0.0,1.8,0.0,6.6,0.6,0.4,2.8,2.6,0.8,7.0,18.8,9.8,0.6,3.8,55.6
CPLAC,LE-CL-01,Ilhéus,Ilhéus (CPLAC) - LE-CL-01,-14.80184,-39.181444,Sul,RPGA do Leste,6.0,0.0,0.0,0.0,6.25,12.5,2.5,1.5,10.25,82.25,0.75,10.25,6.25,5.5,8.75,3.5,20.75,2.75,1.75,3.0,0.25,1.75,0.0,11.75,3.75,0.75,1.0,7.75,14.0,3.0,6.0,234.5
Centro,290560201A,Camacan,Camacan (Centro) - 290560201A,-15.422225,-39.494984,Sul,RPGA do Rio Pardo,2.0,0.0,0.8,1.6,6.4,8.5,4.2,10.9,8.7,55.3,4.9,12.8,21.1,14.0,6.3,1.2,9.9,10.6,8.5,4.6,0.4,2.4,0.0,3.2,12.8,1.2,3.0,9.7,14.6,2.6,3.2,245.4
Teixeira de Freitas,PJ-CL-01,Teixeira de Freitas,Teixeira de Freitas - PJ-CL-01,-17.575555,-39.732777,Sul,"RPGA dos Rios Peruípe, Itanhém e Jucuruçu",0.0,0.0,14.25,0.25,2.75,0.25,6.75,6.5,2.0,0.5,0.75,1.25,2.75,1.25,0.5,2.0,5.5,0.25,4.8,2.1,0.0,0.0,5.0,5.25,12.75,0.75,1.0,16.5,4.75,0.5,7.75,108.65
Itabuna,Fazenda Barra,Itabuna,Itabuna - Fazenda Barra,-14.8997,-39.3686,Sul,RPGA do Leste,0.0,0.0,0.0,0.0,0.4,11.8,0.4,1.2,2.4,31.0,1.2,15.2,4.2,7.0,7.0,3.0,9.6,1.6,8.0,2.2,0.2,0.0,0.2,5.4,6.4,1.0,4.8,7.4,11.4,2.6,6.2,151.8
Centro,290340901A,Belmonte,Belmonte (Centro) - 290340901A,-15.859179,-38.878025,Sul,RPGA do Rio Jequitinhonha,0.8,0.0,15.8,1.6,2.8,9.5,15.9,10.5,4.7,27.4,0.0,4.7,7.2,6.2,4.4,0.6,5.7,0.2,21.1,0.2,4.3,0.2,0.0,1.8,0.2,0.0,4.3,17.8,7.0,2.0,2.8,179.71
São João do Panelinha,290560202A,Camacan,Camacan (São João do Panelinha) - 290560202A,-15.375278,-39.489984,Sul,RPGA do Rio Pardo,2.6,0.0,1.2,1.4,4.4,8.3,3.8,12.4,8.5,69.7,4.0,11.4,13.2,7.6,11.3,8.1,10.9,7.1,5.6,4.4,2.6,2.0,0.2,1.2,32.1,1.6,7.3,20.1,19.0,3.0,5.9,290.9
Centro,290560203A,Camacan,Camacan (Centro) - 290560203A,-15.416389,-39.493873,Sul,RPGA do Rio Pardo,1.2,0.4,0.6,1.6,6.7,9.3,5.6,9.5,8.1,51.9,1.4,16.7,21.1,6.2,6.3,0.8,10.3,8.1,8.5,3.2,0.4,4.0,0.0,1.8,18.0,0.2,3.2,20.1,15.2,0.6,4.6,245.6
Malhado,291360602A,Ilhéus,Ilhéus (Malhado) - 291360602A,-14.789158,-39.048858,Sul,RPGA do Leste,0.8,0.2,0.0,0.0,14.0,6.9,8.5,7.7,10.9,28.2,0.0,8.7,21.1,4.6,8.9,6.9,13.8,1.6,1.8,0.2,0.0,0.0,0.0,12.2,3.0,4.5,0.6,6.7,10.7,4.5,4.2,191.2
São Caetano,291480202A,Itabuna,Itabuna (São Caetano) - 291480202A,-14.80638,-39.27803,Sul,RPGA do Leste,3.0,0.0,0.0,0.0,2.2,9.7,2.0,1.6,1.2,47.7,2.0,12.6,5.0,8.3,7.3,3.6,21.3,0.2,1.6,1.6,0.4,0.2,0.2,7.5,6.9,1.4,1.8,2.2,19.1,0.6,9.1,180.3
Nova Ferradas,291480203A,Itabuna,Itabuna (Nova Ferradas) - 291480203A,-14.857213,-39.346922,Sul,RPGA do Leste,6.1,0.2,0.0,0.4,1.4,15.6,0.8,2.4,0.4,40.7,1.8,14.4,3.4,7.1,8.9,2.2,13.2,2.6,5.9,3.4,0.0,0.0,0.0,10.8,6.9,1.2,2.8,5.3,16.0,0.4,10.3,184.61
Planalto I,292110401A,Medeiros Neto,Medeiros Neto (Planalto I) - 292110401A,-17.365,-40.223,Sul,"RPGA dos Rios Peruípe, Itanhém e Jucuruçu",0.2,0.0,1.6,0.0,2.6,0.2,13.6,4.2,0.6,3.6,0.0,8.1,5.9,2.8,1.6,0.2,1.4,0.4,0.0,0.6,0.2,0.0,1.6,2.6,5.3,3.8,1.4,10.9,4.1,0.8,1.6,79.9
Areião,292530301A,Porto Seguro,Porto Seguro (Areião) - 292530301A,-16.441,-39.076,Sul,"RPGA dos Rios dos Frades, Buranhém e Santo Antônio",1.8,0.0,14.0,2.0,3.4,19.3,5.5,5.5,12.0,19.3,3.7,3.4,2.0,8.3,2.6,7.3,3.8,0.0,9.5,2.6,0.0,0.0,1.2,3.9,4.9,0.0,5.9,26.2,5.7,1.2,4.9,179.9
Paraguai,292530302A,Porto Seguro,Porto Seguro (Paraguai) - 292530302A,-16.41,-39.08,Sul,"RPGA dos Rios dos Frades, Buranhém e Santo Antônio",1.8,0.0,13.2,2.8,6.9,21.1,10.6,10.3,8.7,18.1,0.0,2.0,3.0,7.9,1.4,3.4,2.8,2.4,4.1,0.4,0.0,0.0,0.2,2.6,2.4,0.0,5.5,41.0,6.1,3.7,4.7,187.1
Trancoso,292530303A,Porto Seguro,Porto Seguro (Trancoso) - 292530303A,-16.595,-39.109,Sul,"RPGA dos Rios dos Frades, Buranhém e Santo Antônio",1.6,0.2,12.4,6.9,1.6,7.2,17.7,13.7,5.5,7.5,3.2,9.9,5.0,10.1,6.1,9.7,2.4,0.0,2.6,0.8,0.2,0.0,0.0,5.6,1.8,1.0,3.4,27.4,4.0,6.0,8.5,182.01
Estádio Municipal,291530401A,Itagimirim,Itagimirim (Estádio Municipal) - 291530401A,-16.089181,-39.615546,Sul,RPGA do Rio Jequitinhonha,0.2,0.2,0.8,0.0,1.4,8.3,7.9,3.0,2.4,18.6,0.6,9.7,9.9,3.0,2.4,2.2,2.8,0.4,1.6,0.2,1.0,0.0,0.2,0.2,8.7,0.2,1.4,19.7,14.9,2.0,3.2,127.11
Jusante,54945000,Itapebi,Itapebi (Jusante) - 54945000,-15.949206,-39.5225,Sul,RPGA do Rio Jequitinhonha,0.3,2.3,52.8,0.0,4.6,14.1,9.8,9.9,4.6,32.8,0.3,22.2,20.4,7.8,5.6,7.6,16.3,2.4,4.9,1.6,0.0,2.8,0.3,0.3,4.4,0.8,3.2,26.5,15.2,2.4,6.7,282.9
Macaúbas,A454,Macaúbas,Macaúbas - A454,-13.0389,-42.6172,São Francisco,RPGA dos Rios Paramirim e Santo Onofre,0.0,0.0,0.0,0.0,0.0,0.0,0.0,0.0,0.0,0.0,0.2,0.0,0.0,0.0,0.0,0.0,0.0,0.0,0.0,0.0,0.0,0.0,0.0,0.0,0.0,0.0,0.0,0.0,0.0,0.0,0.0,0.2
Bom Jesus da Lapa,A418,Bom Jesus da Lapa,Bom Jesus da Lapa - A418,-13.251094,-43.405365,São Francisco,RPGA do Rio Carnaíba de Dentro,0.0,0.0,0.0,0.0,0.0,0.0,0.0,0.0,0.0,0.0,0.0,0.0,0.0,0.0,0.0,0.0,0.0,0.0,0.0,0.0,0.0,0.0,0.0,0.0,0.0,0.0,0.0,0.0,0.0,0.0,0.0,0.0
Barra,83179,Barra,Barra - 83179,-11.083333,-43.166667,São Francisco,RPGA do Rio Grande,0.0,0.0,0.0,0.0,0.0,0.0,0.0,0.0,0.0,0.0,0.0,0.0,0.0,0.0,0.0,0.0,0.0,0.0,0.0,0.0,0.0,0.0,0.0,0.0,0.0,0.0,0.0,0.0,0.0,0.0,0.0,0.0
Bom Jesus da Lapa,83288,Bom Jesus da Lapa,Bom Jesus da Lapa - 83288,-13.251389,-43.405278,São Francisco,RPGA do Rio Carnaíba de Dentro,0.0,0.0,0.0,0.0,0.0,0.0,0.0,0.0,0.0,0.0,0.0,0.0,0.0,0.0,0.0,0.0,0.0,0.0,0.0,0.0,0.0,0.0,0.0,0.0,0.0,0.0,0.0,0.0,0.0,0.0,0.0,0.0
Caetité,83339,Caetité,Caetité - 83339,-14.066667,-42.483333,São Francisco,RPGA do Rio de Contas,0.0,0.0,0.0,0.0,0.0,5.4,2.0,0.0,0.0,6.6,13.8,0.0,5.6,0.0,2.8,0.0,0.0,0.2,0.0,0.0,0.0,0.0,0.0,0.0,0.0,0.0,0.0,2.8,11.8,0.6,0.2,51.81
Carinhanha,83408,Carinhanha,Carinhanha - 83408,-14.283333,-43.766667,São Francisco,"RPGA do Rio Corrente e Riachos do Ramalho, Serra Dourada e Brejo Velho",0.0,0.0,0.0,0.0,0.0,0.0,0.0,0.0,0.0,4.5,0.0,0.0,0.0,0.0,0.0,0.0,0.0,0.0,0.0,0.0,0.0,0.0,0.0,0.0,0.0,0.0,0.0,0.0,0.0,0.0,0.0,4.5
Santa Rita de Cássia,83076,Santa Rita de Cássia,Santa Rita de Cássia - 83076,-11.016667,-44.516667,São Francisco,RPGA do Rio Grande,0.0,0.0,0.0,0.0,0.0,0.0,0.0,0.0,0.0,0.0,0.0,0.0,0.0,0.0,0.0,0.0,0.0,0.0,0.0,0.0,0.0,0.0,0.0,0.0,0.0,0.0,0.0,0.0,0.0,0.0,0.0,0.0
Buritirama,A432,Buritirama,Buritirama - A432,-10.722925,-43.651203,São Francisco,RPGA do Rio Grande,0.0,0.0,0.0,0.0,0.0,0.0,0.0,0.0,0.0,0.0,0.0,0.0,0.0,0.0,0.0,0.0,0.0,0.0,0.0,0.0,0.0,0.0,0.0,0.0,0.0,0.0,0.0,0.0,0.0,0.0,0.0,0.0
Barra,A429,Barra,Barra - A429,-11.084858,-43.138998,São Francisco,RPGA do Rio Grande,0.0,0.0,0.0,0.0,0.0,0.0,0.0,0.0,0.0,0.0,0.0,0.0,0.0,0.0,0.0,0.0,0.0,0.0,0.0,0.0,0.0,0.0,0.0,0.0,0.0,0.0,0.0,0.0,0.0,0.0,0.0,0.0
Ibotirama,A439,Ibotirama,Ibotirama - A439,-12.19306,-43.21342,São Francisco,RPGA dos Rios Paramirim e Santo Onofre,0.0,0.0,0.0,0.0,0.0,0.0,0.0,0.0,0.0,0.0,0.0,0.0,0.0,0.0,0.0,0.0,0.0,0.0,0.0,0.0,0.0,0.0,0.0,0.0,0.0,0.0,0.0,0.0,0.0,0.0,0.0,0.0
Gentio do Ouro,,Gentio do Ouro,Gentio do Ouro,-11.42951,-42.513484,São Francisco,RPGA dos Rios Verde e Jacaré,0.2,0.0,0.0,0.2,0.4,0.0,0.0,0.2,0.8,0.2,0.2,0.0,0.0,0.4,0.0,0.4,0.0,0.0,0.0,0.0,0.0,0.0,0.0,0.0,0.2,0.0,0.8,0.0,0.6,1.2,0.2,6.0
Faz. Macambira,46675000,Cotegipe,Cotegipe (Faz. Macambira) - 46675000,-11.6106,-44.1567,São Francisco,RPGA do Rio Grande,0.0,0.0,0.0,0.0,0.0,0.0,0.0,0.0,0.0,0.0,0.0,0.0,0.0,0.0,0.0,0.0,0.0,0.0,0.0,0.0,0.0,0.0,0.0,0.0,0.0,0.0,0.0,0.0,0.0,0.0,0.0,0.0
Fazenda Caraíbas,,Fazenda Caraíbas,Fazenda Caraíbas,-12.571486,-42.074028,São Francisco,RPGA dos Rios Paramirim e Santo Onofre,0.0,0.0,0.0,0.0,0.0,0.0,0.0,0.0,0.0,0.2,0.2,0.0,0.0,0.6,1.4,0.4,0.0,0.0,0.2,0.0,0.0,0.0,0.0,0.0,0.2,0.0,0.4,0.2,0.8,0.0,0.0,4.61
Santa Maria da Vitória,45910001,Santa Maria da Vitória,Santa Maria da Vitória - 45910001,-13.4006,-44.1989,São Francisco,"RPGA do Rio Corrente e Riachos do Ramalho, Serra Dourada e Brejo Velho",0.0,0.0,0.0,0.0,0.0,0.0,0.0,0.0,0.0,0.0,0.0,0.0,0.0,0.0,0.0,0.0,0.0,0.0,0.0,0.0,0.0,0.0,0.0,0.0,0.0,0.0,0.0,0.0,0.0,0.0,0.0,0.0
