nome_estacao,codigo,municipio,estacao,latitude,longitude,regiao,rpga,01_09_17,02_09_17,03_09_17,04_09_17,05_09_17,06_09_17,07_09_17,08_09_17,09_09_17,10_09_17,11_09_17,12_09_17,13_09_17,14_09_17,15_09_17,16_09_17,17_09_17,18_09_17,19_09_17,20_09_17,21_09_17,22_09_17,23_09_17,24_09_17,25_09_17,26_09_17,27_09_17,28_09_17,29_09_17,30_09_17,total
Itaberaba,A408,Itaberaba,Itaberaba - A408,-12.524062,-40.299714,Chapada Diamantina,RPGA do Rio Paraguaçu,0.0,0.0,1.6,2.6,0.0,0.0,0.0,0.0,0.4,1.6,0.2,0.0,0.2,1.2,5.8,0.2,1.0,2.2,3.6,3.0,0.6,0.6,0.0,1.2,1.4,0.2,0.0,0.6,0.0,0.0,28.21
Itaberaba,83244,Itaberaba,Itaberaba - 83244,-12.516667,-40.283333,Chapada Diamantina,RPGA do Rio Paraguaçu,0.0,0.0,1.5,2.2,0.0,0.0,0.0,0.0,0.0,1.5,0.0,0.0,0.0,0.9,5.2,0.0,0.8,1.9,3.5,2.5,0.5,0.4,0.0,1.2,1.4,0.0,0.0,0.4,0.0,0.0,23.9
Lençóis,83242,Lençóis,Lençóis - 83242,-12.5575,-41.388889,Chapada Diamantina,RPGA do Rio Paraguaçu,0.0,0.0,11.8,0.0,0.0,0.0,0.1,0.0,0.0,0.0,0.2,0.0,0.0,0.9,2.9,0.5,2.8,0.0,0.9,11.1,0.5,0.9,1.0,0.0,8.0,2.3,0.2,0.0,0.0,0.0,44.1
Morro do Chapéu,83184,Morro do Chapéu,Morro do Chapéu - 83184,-11.216667,-41.216667,Chapada Diamantina,RPGA do Rio Salitre,0.0,0.0,4.2,1.0,0.0,0.4,0.6,1.1,1.8,1.4,0.0,0.0,0.4,0.6,0.3,3.5,4.6,3.0,0.8,1.0,0.4,1.2,0.0,2.2,4.4,0.8,0.0,0.0,0.0,0.0,33.7
Piatã,A430,Piatã,Piatã - A430,-13.155681,-41.774125,Chapada Diamantina,RPGA do Rio de Contas,0.0,0.0,0.6,0.0,0.0,0.0,0.0,0.0,0.0,0.0,0.0,0.0,0.2,0.0,0.8,0.0,0.0,0.2,0.0,0.4,0.0,0.2,0.0,0.2,0.2,0.0,0.0,0.0,0.0,0.0,2.81
Lençóis,A425,Lençóis,Lençóis - A425,-12.557854,-41.388808,Chapada Diamantina,RPGA do Rio Paraguaçu,0.0,0.0,12.6,0.0,0.0,0.0,0.0,0.0,0.0,0.0,0.4,0.0,0.0,1.0,3.4,0.6,2.4,0.0,1.0,11.0,0.6,1.0,1.0,0.0,8.2,2.6,0.0,0.0,0.0,0.0,45.81
Itaetê,,Itaetê,Itaetê,-12.991944,-40.960833,Chapada Diamantina,RPGA do Rio Paraguaçu,0.0,0.0,9.8,0.0,0.0,0.0,0.0,0.0,0.2,0.0,0.0,0.0,1.2,0.0,0.8,0.0,1.8,0.0,0.0,0.2,2.0,0.4,0.0,0.0,1.4,0.0,0.0,0.0,0.0,0.0,17.8
Boa Vista Tupim,PG-PR-17,Boa Vista Tupim,Boa Vista Tupim - PG-PR-17,-12.65622,-40.589813,Chapada Diamantina,RPGA do Rio Paraguaçu,0.0,0.0,1.0,0.25,0.0,0.0,0.0,0.25,0.25,0.0,0.25,0.0,0.0,0.25,0.5,0.0,0.0,0.0,0.0,0.25,0.5,0.25,0.0,0.25,0.0,0.75,0.0,0.0,0.0,0.0,4.75
Wagner,PG-PR-22,Wagner,Wagner - PG-PR-22,-12.289538,-41.161774,Chapada Diamantina,RPGA do Rio Paraguaçu,0.0,0.0,0.75,0.0,0.0,0.0,0.0,1.75,0.0,0.0,0.0,0.0,0.0,0.0,0.0,0.0,0.0,0.5,0.0,0.25,0.5,0.0,0.0,0.0,0.25,0.0,0.0,0.0,0.0,0.0,4.0
Guiné,PG-PR-24,Mucugê,Mucugê (Guiné) - PG-PR-24,-12.771772,-41.540679,Chapada Diamantina,RPGA do Rio Paraguaçu,0.0,0.0,4.5,0.25,0.25,0.0,0.0,0.0,0.0,0.0,0.0,0.0,4.25,0.25,1.5,0.0,2.0,1.0,0.25,1.5,0.25,0.25,1.0,0.0,1.0,1.75,0.0,0.0,0.0,0.0,20.0
Cascavel,PG-PR-27,Mucugê,Mucugê (Cascavel) - PG-PR-27,-13.285954,-41.287619,Chapada Diamantina,RPGA do Rio Paraguaçu,0.0,0.0,5.25,0.75,0.0,0.0,0.0,0.0,0.0,0.0,0.0,0.0,5.25,0.75,3.75,0.75,0.5,1.5,0.25,2.75,3.75,0.5,1.25,0.0,0.5,0.25,0.0,0.0,0.0,0.0,27.75
Ibiaporã,PG-CL-01,Mundo Novo,Mundo Novo (Ibiaporã) - PG-CL-01,-12.05379,-40.83722,Chapada Diamantina,RPGA do Rio Paraguaçu,0.0,0.25,9.0,4.5,0.0,0.0,0.0,3.25,1.25,1.5,0.5,0.0,6.0,0.0,3.75,2.5,6.25,4.5,4.25,8.25,0.5,1.5,0.0,4.0,0.0,1.75,1.0,0.5,0.0,0.25,65.25
Marcionílio Souza,PG-CL-03,Marcionílio Souza,Marcionílio Souza - PG-CL-03,-13.00021,-40.537783,Chapada Diamantina,RPGA do Rio Paraguaçu,0.0,0.0,1.0,0.0,0.0,0.0,0.0,0.0,0.0,0.0,0.0,0.5,0.5,0.0,0.25,0.0,0.0,0.0,0.0,1.75,0.25,1.75,0.0,0.25,0.25,0.0,0.0,0.0,0.0,0.0,6.5
Tapiramutá,PG-PR-09,Tapiramutá,Tapiramutá - PG-PR-09,-11.838502,-40.791761,Chapada Diamantina,RPGA do Rio Paraguaçu,0.0,0.0,11.0,5.25,0.0,0.0,0.0,5.0,2.25,1.0,0.0,0.0,2.25,0.0,1.5,4.25,3.5,11.0,3.5,6.5,0.25,0.25,0.0,8.25,6.0,2.25,0.0,1.75,0.0,0.0,75.75
Ventura,PG-PR-10,Morro do Chapéu,Morro do Chapéu (Ventura) - PG-PR-10,-11.650911,-40.951765,Chapada Diamantina,RPGA do Rio Paraguaçu,0.0,0.0,2.5,1.75,0.0,0.0,0.0,0.0,0.0,1.5,0.0,0.0,1.25,0.5,0.25,1.25,0.75,2.0,0.0,1.0,0.5,0.0,0.0,0.0,1.0,0.0,0.0,0.0,0.0,0.0,14.25
Bonito,PG-PR-11,Bonito,Bonito - PG-PR-11,-11.98993,-41.25429,Chapada Diamantina,RPGA do Rio Paraguaçu,0.0,0.0,22.75,7.0,0.0,0.0,0.0,5.25,3.5,2.25,0.75,0.0,9.25,0.5,2.75,2.25,10.75,8.75,7.75,10.0,1.75,0.0,0.0,4.75,8.75,1.75,0.75,0.0,0.0,0.0,111.25
Piatã,CO-CL-04,Piatã,Piatã - CO-CL-04,-13.164166,-41.770833,Chapada Diamantina,RPGA do Rio de Contas,0.0,0.0,14.0,0.0,0.0,0.0,0.1,1.0,0.4,1.6,0.3,0.1,0.9,0.4,1.0,0.7,0.3,0.4,0.9,0.0,0.25,4.25,0.0,1.75,3.0,0.75,0.0,0.0,0.0,0.0,32.1
PC Ponte Rio Capivari,51326200,Itaberaba,Itaberaba (PC Ponte Rio Capivari) - 51326200,-12.51429,-39.93422,Chapada Diamantina,RPGA do Rio Paraguaçu,0.0,0.0,2.6,0.3,0.0,0.0,0.0,0.6,0.0,1.4,0.0,0.0,1.3,0.0,2.4,1.6,0.6,0.3,0.0,0.9,2.2,0.3,0.0,0.0,0.8,0.0,0.0,0.0,0.0,1.6,16.91
Itaetê,291500701C,Itaetê,Itaetê - 291500701C,-13.028561,-40.964186,Chapada Diamantina,RPGA do Rio Paraguaçu,0.0,0.0,11.0,0.0,0.0,0.0,0.0,0.0,0.0,0.0,0.4,0.0,2.4,0.4,2.4,0.8,3.0,0.2,0.0,4.0,6.2,1.0,0.0,0.2,4.2,0.0,0.0,0.0,0.0,0.0,36.2
Curaçá,A448,Curaçá,Curaçá - A448,-9.0013,-39.9124,Nordeste,RPGA dos Rios Macururé e Curaçá,0.0,0.0,0.0,5.2,17.4,0.8,0.0,0.0,0.0,0.2,0.0,0.6,0.0,0.0,0.0,3.0,0.0,0.0,0.0,0.2,0.0,0.2,0.8,0.0,0.0,0.0,0.0,0.0,0.0,0.0,28.4
Cipó,83192,Cipó,Cipó - 83192,-11.083333,-38.516667,Nordeste,RPGA do Rio Itapicuru,0.0,0.0,0.2,17.4,7.3,12.7,10.4,0.0,0.0,3.2,6.8,9.8,2.8,2.8,2.5,3.5,6.8,9.0,2.4,1.6,7.6,8.3,0.0,0.0,5.4,11.7,2.6,0.0,0.2,0.0,135.0
Jacobina,83186,Jacobina,Jacobina - 83186,-11.172778,-40.534167,Nordeste,RPGA do Rio Itapicuru,0.0,1.6,9.4,8.3,0.0,3.0,3.4,0.0,1.9,0.0,0.0,0.5,0.0,0.0,1.5,1.4,19.5,23.7,4.1,4.6,0.1,1.5,0.0,0.0,0.1,0.3,0.0,0.0,0.0,0.0,84.9
Monte Santo,83090,Monte Santo,Monte Santo - 83090,-10.4425,-39.331111,Nordeste,RPGA do Rio Itapicuru,0.0,0.5,0.0,11.5,8.9,12.7,9.9,0.0,0.0,0.1,0.4,12.0,1.0,2.3,1.3,2.9,5.8,3.5,2.3,1.5,1.3,12.9,0.4,0.0,2.2,1.8,0.9,1.8,0.5,0.0,98.4
Serrinha,83190,Serrinha,Serrinha - 83190,-11.633333,-38.966667,Nordeste,RPGA do Recôncavo Norte,0.0,3.9,2.2,5.9,2.8,11.5,6.1,0.0,0.0,1.6,0.2,0.2,0.0,0.0,6.5,1.9,10.2,5.6,4.2,4.9,0.0,1.0,0.0,0.0,4.7,5.0,1.3,0.3,0.0,0.0,80.0
Uauá,A435,Uauá,Uauá - A435,-9.833617,-39.495631,Nordeste,RPGA do Rio Vaza-Barris,0.0,0.0,0.0,1.4,4.2,8.8,3.4,1.0,0.0,0.0,1.6,11.2,0.6,0.8,2.0,0.8,0.6,0.0,0.2,0.8,0.4,2.0,0.8,0.0,0.2,2.4,0.2,0.0,0.0,0.0,43.4
Jacobina,A440,Jacobina,Jacobina - A440,-11.205136,-40.464979,Nordeste,RPGA do Rio Itapicuru,0.0,1.0,11.6,9.0,0.4,2.0,1.2,0.4,5.0,0.0,0.0,0.2,0.0,0.0,0.8,0.4,11.0,15.6,3.4,7.0,0.4,0.2,0.0,0.2,2.8,1.4,0.0,0.0,0.0,0.0,74.01
Serrinha,A441,Serrinha,Serrinha - A441,-11.664586,-39.022946,Nordeste,RPGA do Rio Paraguaçu,0.0,4.0,1.6,6.6,3.6,14.0,6.0,0.0,0.0,0.4,0.6,0.8,0.0,0.2,6.8,2.4,10.0,5.6,3.2,5.0,0.2,0.6,0.0,0.2,4.6,4.2,1.0,0.2,0.2,0.0,82.0
Senhor do Bonfim,A428,Senhor do Bonfim,Senhor do Bonfim - A428,-10.443072,-40.148244,Nordeste,RPGA do Rio Itapicuru,0.0,3.2,0.2,20.8,4.6,9.4,11.4,1.2,2.8,0.4,1.6,2.2,6.0,1.6,0.2,0.4,4.2,10.6,2.8,0.4,0.0,0.8,0.2,0.0,3.0,1.2,0.0,0.0,0.0,0.0,89.21
Pedras Altas,50430000,Capim Grosso,Capim Grosso (Pedras Altas) - 50430000,-11.18288,-40.04725,Nordeste,RPGA do Rio Itapicuru,0.0,0.4,0.8,6.6,0.2,0.8,0.8,0.0,0.0,0.4,0.0,1.4,0.0,0.0,0.8,0.4,2.2,9.0,3.0,1.0,0.6,0.0,0.0,0.0,0.0,0.0,0.0,0.2,0.0,0.0,28.61
Ponto Novo,50380000,Ponto Novo,Ponto Novo - 50380000,-10.845,-40.1128,Nordeste,RPGA do Rio Itapicuru,0.0,3.4,0.2,4.4,1.0,7.6,5.0,0.4,1.6,1.0,0.0,2.4,0.0,0.8,0.2,1.2,3.2,26.0,2.0,1.2,0.0,0.0,0.0,0.0,1.0,0.2,0.0,0.0,0.0,0.0,62.81
Ipirá,PG-CL-02,Ipirá,Ipirá - PG-CL-02,-12.14986,-39.76454,Nordeste,RPGA do Rio Paraguaçu,0.0,0.0,16.75,10.5,0.0,0.0,0.0,0.0,0.25,2.0,0.0,0.0,0.0,0.0,0.5,2.0,1.25,7.75,3.75,2.0,0.0,0.0,0.0,0.5,0.0,0.5,0.0,0.0,0.0,0.0,47.75
Serrinha,RN-CL-02,Serrinha,Serrinha - RN-CL-02,-11.648333,-38.982777,Nordeste,RPGA do Recôncavo Norte,0.0,0.3,2.7,0.9,1.5,2.2,1.3,0.8,0.3,0.3,0.6,0.7,0.9,1.6,1.0,0.9,1.1,0.6,1.0,0.3,0.3,0.4,0.0,0.0,7.0,3.5,0.0,0.1,0.2,0.2,30.71
Centro,293010501A,Senhor do Bonfim,Senhor do Bonfim (Centro) - 293010501A,-10.464,-40.19,Nordeste,RPGA do Rio Itapicuru,0.0,1.2,0.0,19.3,3.6,6.4,7.8,2.2,0.6,0.0,2.0,1.2,4.7,0.8,0.0,0.2,3.8,13.0,1.4,0.8,0.0,1.6,0.4,0.2,3.0,2.2,0.0,0.0,0.2,0.0,76.61
Riacho da Onça,IT-PR-15,Queimadas,Queimadas (Riacho da Onça) - IT-PR-15,-11.24424,-39.790055,Nordeste,RPGA do Rio Itapicuru,0.0,4.25,3.25,12.25,0.5,4.0,2.75,0.0,0.0,0.0,0.0,2.0,0.0,0.0,1.0,0.0,4.5,14.25,5.0,0.5,0.0,0.5,0.0,0.0,2.5,0.0,1.0,0.0,0.0,0.0,58.25
Pedra Vermelha,IT-PR-24,Monte Santo,Monte Santo (Pedra Vermelha) - IT-PR-24,-10.454497,-39.559488,Nordeste,RPGA do Rio Itapicuru,0.0,3.0,0.0,19.75,9.25,12.5,8.5,1.0,0.0,0.5,4.0,1.5,1.25,1.25,1.5,1.0,2.5,4.75,1.0,0.0,7.5,4.25,0.5,0.0,1.0,0.0,0.5,0.0,0.0,0.0,87.0
Curral Falso,IT-PR-01,Ribeira do Pombal,Ribeira do Pombal (Curral Falso) - IT-PR-01,-10.697843,-38.5714,Nordeste,RPGA do Rio Itapicuru,0.0,0.0,0.5,19.0,14.0,21.0,25.75,1.0,2.0,1.75,5.5,19.5,0.75,1.5,2.0,5.0,11.75,3.25,4.0,0.25,2.5,2.25,0.0,0.0,1.75,3.5,3.0,0.5,0.0,0.0,152.0
Aribicé,IT-PR-02,Euclides da Cunha,Euclides da Cunha (Aribicé) - IT-PR-02,-10.557835,-38.793352,Nordeste,RPGA do Rio Itapicuru,0.0,0.0,0.5,24.25,16.75,17.75,19.75,0.5,0.0,1.25,4.0,15.0,3.0,2.0,1.5,2.25,8.25,3.25,4.0,1.0,1.25,5.75,0.0,0.0,2.0,2.75,0.75,0.75,0.25,0.0,138.5
Ribeira do Pombal,IT-PR-04,Ribeira do Pombal,Ribeira do Pombal - IT-PR-04,-10.823399,-38.545844,Nordeste,RPGA do Rio Itapicuru,0.0,0.25,0.75,35.75,16.5,21.75,34.75,3.5,0.25,0.0,3.5,6.0,2.25,1.5,0.25,2.0,17.0,2.25,8.0,0.5,2.25,2.0,0.0,0.0,3.25,2.5,1.25,0.0,0.0,0.0,168.0
BR 116 E. Cunha / Tucano,IT-PR-05,Quijingue,Quijingue (BR 116 E. Cunha / Tucano) - IT-PR-05,-10.7105,-38.9227,Nordeste,RPGA do Rio Itapicuru,0.0,0.25,0.5,14.75,3.5,4.25,8.0,0.25,0.0,0.0,3.5,8.75,0.25,0.0,0.25,0.25,3.5,3.0,3.75,1.25,1.0,4.25,0.0,0.75,2.5,1.0,0.75,0.25,0.0,0.0,66.5
Crisópolis,IT-PR-08,Crisópolis,Crisópolis - IT-PR-08,-11.510923,-38.120832,Nordeste,RPGA do Rio Itapicuru,0.0,1.0,1.75,17.0,6.75,24.0,13.5,0.0,0.0,2.5,1.25,14.0,0.25,2.25,2.5,3.25,11.5,14.0,4.75,1.25,2.75,1.5,0.0,2.0,3.25,3.75,1.25,0.0,0.25,0.0,136.25
Olindina,IT-PR-11,Olindina,Olindina - IT-PR-11,-11.343693,-38.318892,Nordeste,RPGA do Rio Itapicuru,0.0,0.5,0.0,13.0,2.75,14.0,10.5,0.0,0.0,0.75,3.5,14.0,1.25,1.0,1.25,1.75,7.5,10.5,4.0,2.75,1.25,1.25,0.0,0.75,0.5,2.25,0.0,0.0,0.0,0.0,95.0
Itapicuru,IT-PR-12,Itapicuru,Itapicuru - IT-PR-12,-11.321193,-38.225003,Nordeste,RPGA do Rio Itapicuru,0.0,1.75,0.5,16.0,12.5,17.75,27.75,0.25,0.0,7.75,0.75,12.75,0.25,1.25,0.75,1.75,12.5,11.25,4.25,1.0,2.5,6.5,0.0,1.25,4.5,3.75,0.0,0.0,0.0,0.0,149.25
Jeremoabo,A450,Jeremoabo,Jeremoabo - A450,-10.0807,-38.3459,Nordeste,RPGA do Rio Vaza-Barris,0.0,0.0,0.0,22.0,18.6,8.4,11.8,2.0,0.2,6.2,2.0,1.0,7.6,8.8,1.8,4.0,0.2,0.6,5.4,0.8,2.0,10.6,1.4,0.4,1.6,1.8,1.0,0.2,0.0,0.0,120.4
Itaberaba,291840701A,Juazeiro,Juazeiro (Itaberaba) - 291840701A,-9.44837,-40.48517,Norte,RPGA dos Rios Macururé e Curaçá,0.0,0.0,0.0,3.0,0.2,0.2,0.0,0.0,0.0,0.0,0.0,2.4,0.0,0.0,0.0,0.0,0.0,0.0,0.0,0.0,0.0,0.0,0.0,0.0,0.0,0.0,0.0,0.0,0.0,0.0,5.81
Malhada da Areia,291840702A,Juazeiro,Juazeiro (Malhada da Areia) - 291840702A,-9.44181,-40.51381,Norte,RPGA dos Rios Macururé e Curaçá,0.0,0.0,0.0,3.6,0.0,0.0,0.0,0.0,0.0,0.0,0.0,1.2,0.0,0.0,0.0,0.0,0.0,0.0,0.0,0.0,0.0,0.0,0.0,0.0,0.0,0.0,0.0,0.0,0.0,0.0,4.8
Maria Gorete,291840703A,Juazeiro,Juazeiro (Maria Gorete) - 291840703A,-9.42014,-40.49909,Norte,RPGA dos Rios Macururé e Curaçá,0.0,0.0,0.0,2.4,0.2,0.0,0.0,0.0,0.0,0.0,0.0,2.4,0.0,0.0,0.0,0.0,0.0,0.0,0.0,0.0,0.0,0.0,0.0,0.0,0.0,0.0,0.0,0.0,0.0,0.0,5.0
João Paulo II,291840704A,Juazeiro,Juazeiro (João Paulo II) - 291840704A,-9.47067,-40.49805,Norte,RPGA dos Rios Macururé e Curaçá,0.0,0.0,0.0,1.4,0.2,0.0,0.0,0.0,0.0,0.0,0.0,1.0,0.0,0.0,0.0,0.0,0.0,0.0,0.0,0.0,0.0,0.0,0.0,0.0,0.0,0.0,0.0,0.0,0.0,0.0,2.6
Lapão,291915701A,Lapão,Lapão - 291915701A,-11.38,-41.83,Norte,RPGA dos Rios Verde e Jacaré,0.0,0.0,0.6,0.0,0.0,0.0,0.0,0.0,0.0,0.0,0.0,0.0,0.0,0.0,0.0,0.0,0.0,0.0,0.0,0.0,0.0,0.0,0.0,0.0,0.0,0.0,0.0,0.0,0.0,0.0,0.6
Irecê,83182,Irecê,Irecê - 83182,-11.3,-41.866667,Norte,RPGA dos Rios Verde e Jacaré,0.0,0.0,0.4,0.0,0.0,0.0,0.0,0.0,0.0,0.0,0.0,0.0,0.0,0.0,0.0,0.0,0.0,0.0,0.0,0.0,0.0,0.0,0.0,0.0,0.0,0.0,0.0,0.0,0.0,0.0,0.4
Remanso,82979,Remanso,Remanso - 82979,-9.633333,-42.1,Norte,RPGA do Lago de Sobradinho,0.0,0.0,0.0,0.0,0.0,0.0,0.0,0.0,0.0,0.0,0.0,0.0,0.0,0.0,0.0,0.0,0.0,0.0,0.0,0.0,0.0,0.0,0.0,0.0,0.0,0.0,0.0,0.0,0.0,0.0,0.0
Delfino,A443,Umburanas,Umburanas (Delfino) - A443,-10.45492,-41.206996,Norte,RPGA do Rio Salitre,0.0,0.0,0.0,2.0,0.2,0.4,0.0,0.0,0.0,0.2,0.0,0.0,0.0,0.0,0.0,0.8,0.0,2.2,1.0,2.6,0.0,0.0,0.0,0.0,0.6,0.0,0.0,0.0,0.0,0.0,10.0
Remanso,A423,Remanso,Remanso - A423,-9.625693,-42.077214,Norte,RPGA do Lago de Sobradinho,0.0,0.0,0.0,0.0,0.0,0.0,0.0,0.0,0.0,0.0,0.0,0.0,0.0,0.0,0.0,0.0,0.0,0.0,0.0,0.0,0.0,0.0,0.0,0.0,0.0,0.0,0.0,0.0,0.0,0.0,0.0
Irecê,A424,Irecê,Irecê - A424,-11.328998,-41.864504,Norte,RPGA dos Rios Verde e Jacaré,0.0,0.0,0.4,0.0,0.0,0.0,0.0,0.0,0.0,0.0,0.0,0.0,0.0,0.0,0.0,0.0,0.0,0.0,0.0,0.0,0.0,0.0,0.0,0.0,0.0,0.0,0.0,0.0,0.0,0.0,0.4
Juazeiro,Fazenda Brasil Uvas,Juazeiro,Juazeiro - Fazenda Brasil Uvas,-9.316666,-40.183333,Norte,RPGA dos Rios Macururé e Curaçá,0.0,0.0,0.0,0.0,5.3,0.76,0.0,0.5,0.0,0.0,0.0,0.25,4.3,0.0,0.0,0.5,0.0,0.0,0.0,0.0,0.0,0.0,0.0,0.0,0.0,0.0,0.0,0.0,0.0,0.0,11.61
Juazeiro,Salitre,Juazeiro,Juazeiro - Salitre,-9.5,-40.633333,Norte,RPGA dos Rios Macururé e Curaçá,0.0,0.0,2.4,0.3,0.0,0.0,0.0,0.0,0.0,0.0,0.0,0.1,0.0,0.0,0.0,0.0,0.0,0.0,0.0,0.0,0.0,0.0,0.0,0.0,0.0,0.0,0.0,0.0,0.0,0.0,2.8
Juazeiro,48020000,Juazeiro,Juazeiro - 48020000,-9.4064,-40.5036,Norte,RPGA dos Rios Macururé e Curaçá,0.0,0.0,0.0,2.4,0.0,0.0,0.0,0.0,0.0,0.0,0.0,2.8,0.0,0.0,0.0,0.0,0.0,0.0,0.0,0.0,0.0,0.0,0.0,0.0,0.0,0.0,0.0,0.0,0.0,0.0,5.2
Irecê,VJ-CL-01,Irecê,Irecê - VJ-CL-01,-11.289166,-41.894166,Norte,RPGA dos Rios Verde e Jacaré,0.0,0.0,0.0,0.25,0.0,0.0,0.0,0.0,0.0,0.0,0.0,0.0,0.0,0.0,0.0,0.0,0.0,0.0,0.0,0.0,0.25,0.0,0.0,0.0,0.0,0.0,0.0,0.0,0.0,0.0,0.5
Juazeiro,Mandacaru,Juazeiro,Juazeiro - Mandacaru,-9.4,-40.433333,Norte,RPGA dos Rios Macururé e Curaçá,0.0,0.0,1.02,0.76,0.0,0.25,0.0,0.0,0.0,0.0,0.0,0.5,0.0,0.0,0.0,0.0,0.0,0.0,0.0,0.0,0.0,0.0,0.0,0.0,0.0,0.0,0.0,0.0,0.0,0.0,2.54
Fazenda Dona Izeta,GR-PR-15,Barreiras,Barreiras (Fazenda Dona Izeta) - GR-PR-15,-12.073399,-45.490807,Oeste,RPGA do Rio Grande,0.0,0.0,0.0,0.0,0.0,0.0,0.0,0.0,0.0,0.0,0.0,0.0,0.0,0.0,0.0,0.0,0.0,0.0,0.0,0.0,0.0,0.0,0.0,0.0,0.0,0.0,0.0,0.0,0.0,0.0,0.0
Fazenda Pró Café,GR-PR-19,Barreiras,Barreiras (Fazenda Pró Café) - GR-PR-19,-12.160625,-45.330802,Oeste,RPGA do Rio Grande,0.0,0.0,0.0,0.0,0.0,0.0,0.0,0.0,0.0,0.0,0.0,0.0,0.0,0.0,0.0,0.0,0.0,0.0,0.0,0.0,0.0,0.0,0.0,0.0,0.0,0.0,0.0,0.0,0.0,0.0,0.0
Formosa do Rio Preto,A452,Formosa do Rio Preto,Formosa do Rio Preto - A452,-11.052163,-45.200769,Oeste,RPGA do Rio Grande,0.0,0.0,0.0,0.0,0.0,0.0,0.0,0.0,0.0,0.0,0.0,0.0,0.0,0.0,0.0,0.0,0.0,0.0,0.0,0.0,0.0,0.0,0.0,0.0,0.0,0.0,0.0,0.0,0.0,0.0,0.0
Correntina,A416,Correntina,Correntina - A416,-13.332386,-44.617376,Oeste,"RPGA do Rio Corrente e Riachos do Ramalho, Serra Dourada e Brejo Velho",0.0,0.0,0.0,0.0,0.0,0.0,0.0,0.0,0.0,0.0,0.0,0.0,0.0,0.0,0.0,0.0,0.0,0.0,0.0,0.0,0.0,0.0,0.0,0.0,0.0,0.0,0.0,0.0,0.0,0.0,0.0
Barreiras,83236,Barreiras,Barreiras - 83236,-12.155556,-45.007778,Oeste,RPGA do Rio Grande,0.0,0.0,0.0,0.0,0.0,0.0,0.0,0.0,0.0,0.0,0.0,0.0,0.0,0.0,0.0,0.0,0.0,0.0,0.0,0.0,0.0,0.0,0.0,0.0,0.0,0.0,0.0,0.0,0.0,0.0,0.0
Correntina,83286,Correntina,Correntina - 83286,-13.332222,-44.617222,Oeste,"RPGA do Rio Corrente e Riachos do Ramalho, Serra Dourada e Brejo Velho",0.0,0.0,0.0,0.0,0.0,0.0,0.0,0.0,0.0,0.0,0.0,0.0,0.0,0.0,0.0,0.0,0.0,0.0,0.0,0.0,0.0,0.0,0.0,0.0,0.0,0.0,0.0,0.0,0.0,0.0,0.0
Form. Rio Preto,46550000,Barreiras,Barreiras (Form. Rio Preto) - 46550000,-11.154444,-45.009166,Oeste,RPGA do Rio Grande,0.0,0.0,0.0,0.0,0.0,0.0,0.0,0.0,0.0,0.0,0.0,0.0,0.0,0.0,0.0,0.0,0.0,0.0,0.0,0.0,0.0,0.0,0.0,0.0,0.0,0.0,0.0,0.0,0.0,0.0,0.0
Arrojado,45770000,Correntina,Correntina (Arrojado) - 45770000,-13.4528,-44.5689,Oeste,"RPGA do Rio Corrente e Riachos do Ramalho, Serra Dourada e Brejo Velho",0.0,0.0,0.0,0.0,0.0,0.0,0.0,0.0,0.0,0.0,0.0,0.0,0.0,0.0,0.0,0.0,0.0,0.0,0.0,0.0,0.0,0.0,0.0,0.0,0.0,0.0,0.0,0.0,0.0,0.0,0.0
Correntina,45590000,Correntina,Correntina - 45590000,-13.3406,-44.6386,Oeste,"RPGA do Rio Corrente e Riachos do Ramalho, Serra Dourada e Brejo Velho",0.0,0.0,0.0,0.0,0.0,0.0,0.0,0.0,0.0,0.0,0.0,0.0,0.0,0.0,0.0,0.0,0.0,0.0,0.0,0.0,0.0,0.0,0.0,0.0,0.0,0.0,0.0,0.0,0.0,0.0,0.0
Mocambo,45740001,Correntina,Correntina (Mocambo) - 45740001,-13.28572,-44.56284,Oeste,"RPGA do Rio Corrente e Riachos do Ramalho, Serra Dourada e Brejo Velho",0.0,0.0,0.0,0.0,0.0,0.0,0.0,0.0,0.0,0.0,0.0,0.0,0.0,0.0,0.0,0.0,0.0,0.0,0.0,0.0,0.0,0.0,0.0,0.0,0.0,0.0,0.0,0.0,0.0,0.0,0.0
PCH Pres. Goulart-J,45600000,Correntina,Correntina (PCH Pres. Goulart-J) - 45600000,-13.3344,-44.6208,Oeste,"RPGA do Rio Corrente e Riachos do Ramalho, Serra Dourada e Brejo Velho",0.0,0.0,0.0,0.0,0.0,0.0,0.0,0.0,0.0,0.0,0.0,0.0,0.0,0.0,0.0,0.0,0.0,0.0,0.0,0.0,0.0,3.3,0.0,0.0,0.0,0.0,0.0,0.0,0.0,0.0,3.3
PCH Pres. Goulart-M1,45588000,Correntina,Correntina (PCH Pres. Goulart-M1) - 45588000,-13.3408,-44.6414,Oeste,"RPGA do Rio Corrente e Riachos do Ramalho, Serra Dourada e Brejo Velho",0.0,0.0,0.0,0.0,0.0,0.0,0.0,0.0,0.0,0.0,0.0,0.0,0.0,0.0,0.0,0.5,0.0,0.0,0.0,0.0,0.0,4.3,0.0,0.0,0.0,0.0,0.0,0.0,0.0,0.0,4.8
Barreiras,A402,Barreiras,Barreiras - A402,-12.124715,-45.027049,Oeste,RPGA do Rio Grande,0.0,0.0,0.0,0.0,0.0,0.0,0.0,0.0,0.0,0.0,0.0,0.0,0.0,0.0,0.0,0.0,0.0,0.0,0.0,0.0,0.0,0.0,0.0,0.0,0.0,0.0,0.0,0.0,0.0,0.0,0.0
Luís Eduardo Magalhães,A404,Luís Eduardo Magalhães,Luís Eduardo Magalhães - A404,-12.152394,-45.829745,Oeste,RPGA do Rio Grande,0.0,0.0,0.0,0.0,0.0,0.0,0.0,0.0,0.0,0.0,0.0,0.0,0.0,0.0,0.4,0.0,0.0,0.0,0.0,0.0,0.0,0.0,0.0,0.0,0.0,0.0,0.0,0.0,0.0,0.0,0.4
São Desidério,R. Velha - GR-CL-01,São Desidério,São Desidério - R. Velha - GR-CL-01,-12.898055,-46.157222,Oeste,RPGA do Rio Grande,0.0,0.0,0.0,0.0,0.0,0.0,0.0,0.0,0.0,0.0,0.0,0.0,0.0,0.0,0.0,0.0,0.0,0.0,0.0,0.0,0.0,0.0,0.0,0.0,0.0,0.0,0.0,0.0,0.0,0.0,0.0
Barra do Tapuio,GR-PR-02,Formosa do Rio Preto,Formosa do Rio Preto (Barra do Tapuio) - GR-PR-02,-11.09476,-45.950259,Oeste,RPGA do Rio Grande,0.0,0.0,0.0,0.0,0.0,0.0,0.0,0.0,0.0,0.0,0.0,0.0,0.0,0.0,0.0,0.0,0.0,0.0,0.0,0.0,0.0,0.0,0.0,0.0,0.0,0.0,0.0,0.0,0.0,0.0,0.0
J. Zoológico,A401,Salvador,Salvador (J. Zoológico) - A401,-13.005515,-38.50576,Recôncavo,RPGA do Recôncavo Norte,0.0,0.4,35.2,29.6,2.0,1.6,1.8,3.2,7.0,0.6,1.2,0.2,0.4,4.0,1.6,5.2,7.6,2.4,4.0,1.4,2.8,0.0,8.6,8.2,3.8,1.6,1.0,0.2,0.0,0.0,135.6
Cruz das Almas,A406,Cruz das Almas,Cruz das Almas - A406,-12.675422,-39.08958,Recôncavo,RPGA do Rio Paraguaçu,2.0,0.0,35.0,39.0,0.6,1.6,0.2,2.8,4.2,7.6,0.2,0.2,2.8,8.0,1.8,19.2,4.0,2.0,6.0,2.4,4.0,0.0,0.8,4.8,3.6,2.8,0.2,0.0,0.2,0.2,156.2
Rio Ipitanga,291920704H,Lauro de Freitas,Lauro de Freitas (Rio Ipitanga) - 291920704H,-12.888539,-38.321162,Recôncavo,RPGA do Recôncavo Norte,0.0,0.0,19.4,20.2,0.8,5.8,5.2,2.6,0.6,2.4,0.0,0.0,0.8,0.0,5.2,9.0,2.4,4.6,4.0,0.2,1.2,0.0,0.0,4.6,2.2,0.4,0.6,0.4,0.0,0.0,92.61
Hidro,290570101H,Camaçari,Camaçari (Hidro) - 290570101H,-12.714036,-38.33905,Recôncavo,RPGA do Recôncavo Norte,0.0,2.4,36.4,28.8,5.6,2.0,0.8,2.8,4.2,1.8,0.2,2.0,3.6,7.8,4.6,4.4,7.4,4.4,12.0,5.0,0.6,0.8,4.8,1.8,2.6,2.0,2.2,2.0,0.0,0.0,153.0
Valença,293290307H,Valença,Valença - 293290307H,-13.3664,-39.0767,Recôncavo,RPGA do Recôncavo Sul,0.6,0.2,21.4,6.4,0.0,0.0,0.0,7.2,3.0,5.6,5.2,0.6,8.6,18.8,1.4,14.4,6.8,19.8,15.8,7.0,10.4,0.4,10.4,8.4,1.8,1.8,3.8,0.0,0.0,0.2,180.01
Feira de Santana,A413,Feira de Santana,Feira de Santana - A413,-12.1962,-38.967384,Recôncavo,RPGA do Recôncavo Norte,0.0,3.2,17.8,8.2,0.8,2.0,1.4,0.0,0.0,0.4,0.0,0.0,0.0,1.0,1.2,0.8,8.8,16.8,3.2,2.8,1.4,0.0,0.0,0.0,1.6,2.6,1.0,0.4,0.0,0.0,75.4
Periperi,292740820A,Salvador,Salvador (Periperi) - 292740820A,-12.867344,-38.458111,Recôncavo,RPGA do Recôncavo Norte,0.8,0.8,48.6,19.6,3.8,12.6,3.4,8.0,2.4,1.2,0.6,0.0,0.8,2.2,5.0,5.4,8.6,4.4,6.6,0.2,3.4,0.0,2.2,2.2,2.0,4.6,0.4,0.2,0.2,0.0,150.2
Mussurunga,292740821A,Salvador,Salvador (Mussurunga) - 292740821A,-12.907733,-38.440111,Recôncavo,RPGA do Recôncavo Norte,0.0,0.0,21.0,10.8,1.8,4.8,5.0,9.2,2.6,1.8,0.2,0.2,0.8,1.6,3.0,4.2,3.6,2.2,5.2,1.6,2.4,0.0,0.2,1.0,1.0,1.0,0.0,0.0,0.2,0.4,85.81
Fazenda Coutos,292740822A,Salvador,Salvador (Fazenda Coutos) - 292740822A,-12.849955,-38.461778,Recôncavo,RPGA do Recôncavo Norte,0.4,0.6,33.2,17.6,3.8,6.2,1.8,8.6,4.0,1.2,1.2,0.0,2.4,3.4,4.6,8.8,7.0,3.8,7.0,0.8,1.0,0.0,2.2,2.4,2.4,2.8,0.4,0.0,0.0,0.0,127.61
Itapuã,292740819A,Salvador,Salvador (Itapuã) - 292740819A,-12.947736,-38.370136,Recôncavo,RPGA do Recôncavo Norte,0.0,0.0,36.2,5.2,1.8,8.2,3.2,9.4,0.0,0.8,0.4,0.0,0.2,1.4,1.0,3.0,5.8,4.0,6.0,0.0,2.6,0.2,0.4,5.8,0.0,0.6,0.0,0.4,0.2,0.0,96.81
Alagoinhas,83249,Alagoinhas,Alagoinhas - 83249,-12.148333,-38.425556,Recôncavo,RPGA do Recôncavo Norte,0.4,4.0,1.7,7.5,3.9,9.2,0.0,0.0,0.0,2.6,0.0,3.0,0.3,1.7,5.8,5.1,10.0,7.1,7.8,6.2,2.4,0.1,0.0,2.7,5.7,16.4,2.2,0.0,0.0,1.2,107.0
Tancredo Neves,292740823A,Salvador,Salvador (Tancredo Neves) - 292740823A,-12.945347,-38.453472,Recôncavo,RPGA do Recôncavo Norte,0.0,0.0,44.0,11.8,0.6,4.0,1.4,2.4,3.6,1.8,1.4,0.0,0.0,1.0,2.6,6.0,7.2,1.6,4.6,2.4,1.6,0.2,3.6,0.6,3.8,5.2,5.6,0.2,0.0,0.0,117.2
Polivalente,292860401A,Santo Amaro,Santo Amaro (Polivalente) - 292860401A,-12.552863,-38.712504,Recôncavo,RPGA do Recôncavo Norte,0.0,0.6,14.6,9.4,1.6,6.8,1.8,2.6,0.0,1.2,0.0,0.0,0.0,2.2,0.0,3.2,1.6,6.8,3.6,2.8,0.0,0.0,0.0,2.4,2.2,2.8,0.0,0.0,0.0,0.0,66.2
Cruz das Almas,83222,Cruz das Almas,Cruz das Almas - 83222,-12.666667,-39.083333,Recôncavo,RPGA do Rio Paraguaçu,2.2,0.0,40.4,37.7,0.4,1.0,0.0,2.6,4.0,3.3,0.0,0.1,2.8,8.8,1.7,21.0,3.6,3.2,6.4,1.9,5.5,0.0,0.6,4.8,3.5,2.4,0.0,0.0,0.0,0.0,157.9
Feira de Santana,83221,Feira de Santana,Feira de Santana - 83221,-12.196111,-38.967222,Recôncavo,RPGA do Recôncavo Norte,0.0,2.4,17.6,8.8,1.2,2.4,2.8,0.0,0.0,0.0,0.0,0.0,0.0,1.1,2.1,0.0,2.1,16.2,2.2,2.9,1.6,0.0,0.0,0.0,2.6,3.1,1.2,0.0,0.0,0.0,70.3
Amargosa,A434,Amargosa,Amargosa - A434,-13.009468,-39.616881,Recôncavo,RPGA do Recôncavo Sul,0.6,0.2,9.6,9.0,0.6,0.0,0.0,0.2,0.0,6.8,0.6,0.8,3.2,5.6,12.6,2.4,5.8,9.6,8.4,7.2,5.0,0.6,6.8,3.4,2.2,0.0,0.2,0.4,0.2,0.2,102.21
Mata de São João,ETA - Embasa,Mata de São João,Mata de São João - ETA - Embasa,-12.394946,-37.934649,Recôncavo,RPGA do Recôncavo Norte,0.0,4.7,1.5,4.0,1.6,0.0,0.0,0.0,0.0,0.0,0.0,0.0,1.3,2.1,43.1,7.1,0.0,16.5,16.5,0.9,1.3,0.0,0.0,0.0,0.3,0.0,3.5,0.0,0.0,0.0,104.4
Joanes II,322,Simões Filho,Simões Filho (Joanes II) - 322,-12.674147,-38.376254,Recôncavo,RPGA do Recôncavo Norte,0.0,1.8,27.4,26.6,5.0,0.0,0.7,2.3,1.8,1.6,0.0,0.0,3.0,0.6,3.2,3.3,0.8,1.5,8.4,3.3,0.0,0.0,1.3,1.6,3.2,6.1,0.7,1.1,0.0,0.0,105.3
Santa Helena,323,Camaçari,Camaçari (Santa Helena) - 323,-12.56202,-38.1606,Recôncavo,RPGA do Recôncavo Norte,0.0,6.5,9.2,17.5,5.9,5.0,0.7,3.0,3.6,1.0,2.4,0.1,4.5,8.4,2.9,5.1,6.4,2.8,12.1,1.9,0.9,1.8,10.4,2.5,1.1,0.3,3.8,1.6,0.0,0.0,121.4
Ondina,83229,Salvador,Salvador (Ondina) - 83229,-13.005278,-38.505833,Recôncavo,RPGA do Recôncavo Norte,0.0,0.5,33.9,27.2,1.8,1.1,1.6,2.5,6.8,0.4,1.2,0.0,0.3,3.9,1.6,5.0,7.0,2.2,3.6,0.9,2.6,0.0,8.3,8.0,3.4,1.3,1.0,0.0,0.0,0.0,126.1
Centro,292740802A,Salvador,Salvador (Centro) - 292740802A,-12.97821,-38.515945,Recôncavo,RPGA do Recôncavo Norte,0.0,1.4,41.5,28.9,3.4,3.8,5.1,4.7,0.8,0.4,0.6,0.4,0.0,3.6,0.6,3.2,8.1,0.6,4.1,0.8,1.2,0.0,5.5,4.6,3.6,0.8,2.2,0.0,0.0,0.0,129.9
São tomé de Paripe,292740806A,Salvador,Salvador (São tomé de Paripe) - 292740806A,-12.795508,-38.489389,Recôncavo,RPGA do Recôncavo Norte,0.0,0.6,18.8,13.3,2.0,2.2,1.4,7.3,0.6,2.0,0.0,0.0,2.0,3.4,2.0,4.2,2.0,3.4,3.2,5.7,1.2,0.4,3.1,3.6,2.2,2.2,0.8,0.4,0.0,0.0,88.01
Federação,292740803A,Salvador,Salvador (Federação) - 292740803A,-13.000791,-38.511056,Recôncavo,RPGA do Recôncavo Norte,0.0,0.6,28.0,31.1,2.0,0.6,1.6,2.4,6.4,0.4,0.8,0.0,0.2,1.8,0.6,4.2,6.3,2.8,3.6,1.4,3.2,0.0,4.7,3.2,3.2,0.8,1.8,0.0,0.0,0.0,111.71
Cabula,292740810A,Salvador,Salvador (Cabula) - 292740810A,-12.961347,-38.460778,Recôncavo,RPGA do Recôncavo Norte,0.0,0.0,37.8,9.5,1.2,2.2,2.8,3.5,3.8,1.4,0.8,0.0,0.0,2.8,1.2,5.1,5.7,0.2,7.1,1.4,8.3,0.0,2.8,2.0,2.0,2.0,0.6,0.0,0.0,0.0,104.2
Nova Esperança,292740818A,Salvador,Salvador (Nova Esperança) - 292740818A,-12.861,-38.368,Recôncavo,RPGA do Recôncavo Norte,0.0,0.2,27.8,17.9,2.0,5.3,3.4,11.2,0.0,3.3,0.0,0.0,3.4,0.6,4.2,8.5,3.6,5.5,6.1,2.6,1.4,0.0,8.7,2.6,0.8,0.6,1.8,0.2,0.0,0.0,121.7
Caminho das Árvores,292740815A,Salvador,Salvador (Caminho das Árvores) - 292740815A,-12.97718,-38.453834,Recôncavo,RPGA do Recôncavo Norte,0.0,0.0,36.2,11.1,1.8,1.8,3.0,5.3,2.8,0.6,0.0,0.0,0.0,4.1,1.0,4.9,5.5,1.4,7.5,0.6,4.6,0.0,7.1,1.8,1.8,1.6,1.2,0.0,0.0,0.0,105.7
Águas Claras,292740808A,Salvador,Salvador (Águas Claras) - 292740808A,-12.8944,-38.441889,Recôncavo,RPGA do Recôncavo Norte,0.0,0.0,28.9,21.1,1.0,7.2,2.4,7.2,3.0,2.2,0.0,0.0,0.8,1.6,1.0,6.9,3.2,4.6,5.8,0.8,2.4,0.4,0.4,4.3,0.8,6.1,0.8,0.4,0.2,0.0,113.5
Alto do Peru,292740812A,Salvador,Salvador (Alto do Peru) - 292740812A,-12.939122,-38.486334,Recôncavo,RPGA do Recôncavo Norte,0.0,0.0,10.9,14.2,2.2,0.4,0.4,0.4,0.6,0.4,0.2,0.2,0.6,0.4,1.4,4.5,5.9,1.6,8.1,1.8,9.1,0.0,1.8,3.4,2.2,4.7,1.6,0.2,0.2,0.0,77.4
CAB,292740811A,Salvador,Salvador (CAB) - 292740811A,-12.943354,-38.421264,Recôncavo,RPGA do Recôncavo Norte,0.0,0.0,51.5,6.9,0.8,6.5,3.4,4.1,2.8,2.2,0.4,0.0,0.2,4.3,2.6,3.3,5.7,2.0,3.8,1.2,0.0,0.0,0.6,1.8,0.0,2.8,2.4,0.0,0.0,0.0,109.3
Cosme de Farias,292740816A,Salvador,Salvador (Cosme de Farias) - 292740816A,-12.979402,-38.4855,Recôncavo,RPGA do Recôncavo Norte,0.0,0.0,49.8,20.3,3.0,3.5,4.5,3.2,2.2,0.0,0.6,0.6,0.2,5.7,0.0,5.3,7.7,0.4,7.1,0.0,2.8,0.0,3.9,4.9,4.7,2.9,0.6,0.4,0.0,0.0,134.3
São Caetano,292740814A,Salvador,Salvador (São Caetano) - 292740814A,-12.939678,-38.474667,Recôncavo,RPGA do Recôncavo Norte,0.0,0.0,43.1,12.2,1.8,4.8,1.6,2.6,4.1,2.2,1.6,0.0,0.0,0.6,1.8,5.7,5.7,0.8,7.1,2.0,3.2,0.0,1.6,2.8,0.6,6.1,2.2,0.0,0.2,0.0,114.4
Pirajá,292740801A,Salvador,Salvador (Pirajá) - 292740801A,-12.8994,-38.458833,Recôncavo,RPGA do Recôncavo Norte,0.0,0.0,54.5,16.8,1.2,6.9,2.0,3.7,1.4,2.2,0.6,0.0,1.0,3.0,1.4,6.3,5.9,5.7,5.2,0.8,3.9,0.0,0.2,6.3,0.2,1.6,2.8,0.6,0.0,0.0,134.21
Rio Sena,292740805A,Salvador,Salvador (Rio Sena) - 292740805A,-12.891344,-38.470778,Recôncavo,RPGA do Recôncavo Norte,0.0,0.0,52.1,21.1,1.8,10.3,1.4,3.4,2.0,2.2,0.2,0.0,0.8,1.8,1.6,7.3,5.7,7.7,4.4,0.2,4.9,0.2,1.0,8.1,0.0,2.0,2.0,0.8,0.0,0.0,143.0
Valéria,292740817A,Salvador,Salvador (Valéria) - 292740817A,-12.8644,-38.438276,Recôncavo,RPGA do Recôncavo Norte,0.8,1.0,31.5,18.1,2.8,5.9,2.2,7.9,5.3,0.8,0.8,0.0,0.8,3.0,6.7,5.7,6.7,4.7,9.3,1.0,1.4,0.0,2.0,10.0,3.6,3.8,0.6,1.4,0.0,0.0,137.8
Santa Terezinha,290650105A,Candeias,Candeias (Santa Terezinha) - 290650105A,-12.647172,-38.539112,Recôncavo,RPGA do Recôncavo Norte,0.0,0.2,19.9,9.3,3.2,6.7,2.4,3.0,0.2,2.4,0.0,0.6,0.2,1.0,0.2,2.8,2.4,0.2,6.5,2.2,0.2,0.0,3.4,0.4,1.8,0.0,0.6,0.0,0.0,0.0,69.81
Centro,290650101A,Candeias,Candeias (Centro) - 290650101A,-12.670229,-38.544112,Recôncavo,RPGA do Recôncavo Norte,0.0,0.6,21.2,12.1,2.4,7.7,3.7,5.5,0.6,1.8,6.0,0.2,4.7,1.0,1.6,4.4,2.6,2.0,6.0,4.0,0.4,0.0,2.6,1.4,0.8,4.2,0.2,0.0,0.0,0.0,97.7
Sarandi,290650104A,Candeias,Candeias (Sarandi) - 290650104A,-12.671341,-38.531056,Recôncavo,RPGA do Recôncavo Norte,0.0,0.0,21.1,13.2,3.0,8.1,3.2,0.2,1.8,0.0,0.0,1.0,4.1,1.2,1.6,3.4,2.6,2.0,4.8,3.2,0.8,0.0,1.8,1.8,0.8,1.0,0.2,0.0,0.0,0.0,80.9
Areia Branca,291920706A,Lauro de Freitas,Lauro de Freitas (Areia Branca) - 291920706A,-12.841,-38.337,Recôncavo,RPGA do Recôncavo Norte,0.0,0.0,26.4,30.5,1.2,5.2,4.8,3.4,3.0,1.8,0.0,0.8,3.8,1.6,2.0,9.7,10.7,2.4,10.3,1.6,3.0,0.0,0.8,0.2,4.1,0.0,4.9,2.4,0.2,0.0,134.8
Itinga,291920703A,Lauro de Freitas,Lauro de Freitas (Itinga) - 291920703A,-12.892,-38.336,Recôncavo,RPGA do Recôncavo Norte,0.0,0.0,23.5,17.5,0.8,5.2,4.0,8.1,0.4,0.8,0.2,0.0,0.4,0.4,1.8,6.5,4.3,3.6,6.5,0.0,1.4,0.0,1.0,1.8,2.8,4.5,1.0,0.2,0.2,0.0,96.9
Rua 02 de Julho,291920705A,Lauro de Freitas,Lauro de Freitas (Rua 02 de Julho) - 291920705A,-12.839,-38.35,Recôncavo,RPGA do Recôncavo Norte,0.0,0.0,22.8,25.8,1.8,4.6,6.3,3.9,4.1,1.8,0.0,1.0,4.3,4.9,2.6,12.4,11.8,2.0,8.3,1.4,4.0,0.0,3.0,1.4,2.8,0.0,6.3,2.0,0.0,0.0,139.3
Dois de Julho,291120401A,Gandú,Gandú (Dois de Julho) - 291120401A,-13.741357,-39.48303,Recôncavo,RPGA do Recôncavo Sul,0.8,0.0,9.1,1.8,1.0,0.0,0.8,1.2,3.0,4.4,1.6,0.4,6.6,14.7,7.0,0.2,8.5,0.4,6.6,5.8,4.8,2.2,6.2,7.8,4.0,5.0,0.4,1.0,0.2,0.0,105.51
Centro,292060101A,Maragogipe,Maragogipe (Centro) - 292060101A,-12.78,-38.917,Recôncavo,RPGA do Rio Paraguaçu,3.0,0.0,48.6,48.7,3.7,4.2,2.0,7.7,2.2,3.4,0.2,0.4,4.9,4.1,4.2,10.5,7.7,2.4,5.6,3.6,8.1,0.0,0.6,7.0,2.4,3.0,0.8,0.2,0.0,0.0,189.2
Centro,292250801A,Nazaré,Nazaré (Centro) - 292250801A,-13.032,-39.015,Recôncavo,RPGA do Recôncavo Sul,5.3,3.8,64.4,23.3,0.2,1.6,1.0,1.4,15.4,3.8,2.0,3.2,2.0,5.3,7.5,10.7,8.1,8.3,6.2,9.5,2.0,2.4,6.5,6.3,9.5,7.5,0.4,2.0,0.2,0.0,219.8
Rua São Roque,293290301A,Valença,Valença (Rua São Roque) - 293290301A,-13.363,-39.078,Recôncavo,RPGA do Recôncavo Sul,0.8,0.2,21.2,6.5,0.2,0.0,6.1,7.7,2.6,5.1,6.1,0.8,8.5,19.1,2.4,11.7,8.3,24.2,15.0,7.2,9.5,0.6,7.5,8.9,1.2,2.0,3.5,0.0,0.0,0.4,187.3
PC Fazenda Jurema,51346050,Rafael Jambeiro,Rafael Jambeiro (PC Fazenda Jurema) - 51346050,-12.4881,-39.6981,Recôncavo,RPGA do Rio Paraguaçu,0.3,1.1,11.6,5.2,0.3,0.0,0.0,0.3,0.3,2.5,0.0,0.0,1.1,2.2,1.2,1.6,0.3,6.0,0.3,2.9,2.4,0.3,0.0,0.0,4.2,0.0,0.0,0.0,0.0,0.0,44.1
PC Argoim,51351000,Rafael Jambeiro,Rafael Jambeiro (PC Argoim) - 51351000,-12.5867,-39.5217,Recôncavo,RPGA do Rio Paraguaçu,0.0,0.6,9.3,3.0,0.0,0.0,0.0,0.6,0.0,1.6,0.0,0.0,1.3,2.1,5.9,2.7,2.0,8.0,0.9,3.1,3.0,0.0,0.0,0.3,4.7,0.6,0.0,0.0,0.0,0.0,49.7
PC Rio Paratigi,51370000,Santo Estevão,Santo Estevão (PC Rio Paratigi) - 51370000,-12.51503,-39.38272,Recôncavo,RPGA do Rio Paraguaçu,1.6,1.2,8.9,10.1,1.1,0.0,0.3,0.5,0.3,1.4,0.3,1.1,0.9,1.3,1.9,6.3,1.4,8.3,1.2,1.4,1.4,0.3,0.3,0.8,3.0,1.1,0.3,0.0,0.0,0.0,56.7
Feira de Santana,PC Rio Branco,Feira de Santana,Feira de Santana - PC Rio Branco,-12.2331,-39.0461,Recôncavo,RPGA do Rio Paraguaçu,0.0,0.0,13.9,5.1,0.9,2.2,1.2,2.3,0.0,0.3,0.0,0.0,0.3,0.0,2.8,0.3,1.1,16.3,0.9,0.3,0.3,0.0,0.3,0.3,4.4,1.1,0.6,0.8,0.0,0.0,55.7
Abaeté,RN-PR-01,Salvador,Salvador (Abaeté) - RN-PR-01,-12.945407,-38.361404,Recôncavo,RPGA do Recôncavo Norte,0.0,0.0,29.8,6.5,3.3,5.5,4.1,7.2,0.5,0.0,0.3,0.0,0.2,1.0,1.3,1.5,4.7,4.6,5.8,0.0,0.0,0.0,1.2,2.5,0.2,4.5,0.0,0.0,0.2,0.0,84.9
Espinheira,,Espinheira,Espinheira,-14.283478,-41.75792,Sudoeste,RPGA do Rio de Contas,0.0,0.0,0.5,0.0,0.0,0.0,0.0,0.0,0.0,0.0,0.0,0.0,0.25,2.75,0.0,0.0,0.0,0.0,0.0,0.0,0.25,0.25,0.0,0.0,0.0,0.0,0.0,0.0,0.0,0.0,4.0
Vitória da Conquista,A414,Vitória da Conquista,Vitória da Conquista - A414,-14.886428,-40.80133,Sudoeste,RPGA do Rio Pardo,0.0,1.2,5.2,0.8,0.0,0.0,0.0,0.0,0.0,1.2,0.4,0.4,5.4,2.4,2.0,0.2,1.0,0.6,0.0,0.0,5.2,0.0,0.6,1.8,4.0,0.0,0.8,0.0,0.2,0.0,33.41
Ituaçu,83292,Ituaçu,Ituaçu - 83292,-13.812778,-41.3,Sudoeste,RPGA do Rio de Contas,0.0,0.0,3.6,0.0,0.0,0.0,0.0,0.0,0.0,0.0,0.0,0.0,1.7,0.0,0.0,0.0,0.0,1.8,0.0,0.0,2.4,0.0,1.1,0.0,0.0,0.0,0.0,0.0,0.0,0.0,10.6
Vitória da Conquista,83344,Vitória da Conquista,Vitória da Conquista - 83344,-14.883333,-40.8,Sudoeste,RPGA do Rio Pardo,0.0,2.2,5.3,0.9,0.0,0.0,0.0,0.0,0.0,1.2,0.4,0.2,5.8,2.6,1.8,0.2,1.3,0.6,0.1,0.0,6.5,0.0,0.8,1.8,3.9,0.0,0.7,0.0,0.0,0.0,36.31
Brumado,A433,Brumado,Brumado - A433,-14.181886,-41.672281,Sudoeste,RPGA do Rio de Contas,0.0,0.0,1.4,0.0,0.0,0.0,0.0,2.2,0.0,0.0,0.0,0.0,1.2,1.0,0.2,0.0,0.0,0.0,0.0,0.0,3.4,0.0,0.0,0.0,0.0,0.0,0.0,0.0,0.0,0.0,9.4
Ipiaú,A445,Ipiaú,Ipiaú - A445,-14.171304,-39.692502,Sudoeste,RPGA do Rio de Contas,2.0,1.0,5.0,1.0,0.8,0.0,0.0,0.8,0.0,3.2,3.2,2.0,1.8,4.2,2.8,3.4,2.0,0.8,3.4,7.2,9.4,2.4,4.2,5.2,4.6,3.4,6.0,1.4,0.0,0.0,81.2
Anagé,CO-CL-01,Anagé,Anagé - CO-CL-01,-14.618055,-41.149722,Sudoeste,RPGA do Rio de Contas,0.0,0.0,0.0,0.0,0.0,0.0,0.0,0.0,0.0,0.0,0.0,0.0,0.0,0.0,0.0,0.0,0.0,0.0,0.0,0.0,0.0,0.0,0.0,0.0,0.0,0.0,0.0,0.0,0.0,0.0,0.0
Centro,293330701A,Vitória da Conquista,Vitória da Conquista (Centro) - 293330701A,-14.852,-40.839,Sudoeste,RPGA do Rio Pardo,0.0,0.4,3.4,0.0,0.0,0.0,0.0,0.0,0.0,0.0,0.0,0.0,3.0,1.4,0.0,0.0,0.2,0.0,0.0,0.0,3.6,0.0,1.2,0.4,3.6,0.0,1.4,0.0,0.0,0.0,18.6
Clerolândia,291640101A,Itapetinga,Itapetinga (Clerolândia) - 291640101A,-15.243,-40.221,Sudoeste,RPGA do Rio Pardo,0.0,1.8,0.4,0.0,0.0,0.0,0.0,0.0,0.0,3.6,3.0,0.0,14.4,5.8,0.4,0.2,1.0,0.0,2.8,0.2,1.0,0.0,0.2,5.5,3.6,0.8,4.0,0.2,0.2,0.0,49.11
Recreio,293330702A,Vitória da Conquista,Vitória da Conquista (Recreio) - 293330702A,-14.861,-40.841,Sudoeste,RPGA do Rio Pardo,0.0,0.4,2.0,0.2,0.0,0.0,0.0,0.0,0.6,0.0,0.0,0.0,3.2,1.8,0.8,0.0,0.2,0.2,0.0,0.0,4.4,0.4,0.6,0.4,1.2,0.0,1.2,0.2,0.0,0.0,17.8
Patagônia,293330704A,Vitória da Conquista,Vitória da Conquista (Patagônia) - 293330704A,-14.87,-40.863,Sudoeste,RPGA do Rio Pardo,0.0,2.6,4.0,0.0,0.0,0.0,0.0,0.0,0.0,0.0,0.0,0.0,3.6,1.4,0.2,0.0,0.6,0.0,0.0,0.0,2.0,0.2,0.0,1.2,1.0,0.0,0.2,0.0,0.0,0.0,17.0
Barcelar,293330705A,Vitória da Conquista,Vitória da Conquista (Barcelar) - 293330705A,-14.838,-40.856,Sudoeste,RPGA do Rio Pardo,0.0,0.6,3.8,0.0,0.0,0.0,0.0,0.0,0.0,0.0,0.0,0.2,5.6,2.0,0.2,0.0,0.6,0.2,0.0,0.0,5.0,0.2,2.0,0.6,3.0,0.0,0.8,0.2,0.0,0.0,25.0
Lomantão,293330703A,Vitória da Conquista,Vitória da Conquista (Lomantão) - 293330703A,-14.87,-40.827,Sudoeste,RPGA do Rio Pardo,0.0,0.4,2.2,0.2,0.0,0.0,0.0,0.0,0.0,0.0,0.0,0.0,3.2,1.4,0.4,0.2,0.4,0.0,0.0,0.0,3.8,0.0,0.2,0.4,0.6,0.0,1.4,0.0,0.0,0.0,14.8
Jaguaquara,RS-CL-01,Jaguaquara,Jaguaquara - RS-CL-01,-13.573055,-39.940833,Sudoeste,RPGA do Recôncavo Sul,0.25,1.0,11.75,5.25,0.0,0.0,0.0,3.0,0.25,8.0,1.75,1.0,5.0,3.75,12.5,7.0,6.75,3.75,4.75,6.75,13.5,0.5,7.25,4.75,7.5,0.0,0.5,0.25,0.0,0.0,116.75
Jequié,CO-CL-03,Jequié,Jequié - CO-CL-03,-13.873055,-40.071944,Sudoeste,RPGA do Rio de Contas,0.0,0.0,3.5,1.5,0.5,0.0,0.0,0.0,0.0,1.5,0.0,0.0,0.75,2.5,3.75,1.25,0.25,0.0,0.0,1.75,0.5,0.5,4.5,1.5,6.75,0.25,0.0,0.0,0.0,0.0,31.25
Vitória da Conquista,PA-CL-01,Vitória da Conquista,Vitória da Conquista - PA-CL-01,-14.886111,-40.800833,Sudoeste,RPGA do Rio Pardo,0.0,0.75,4.75,0.75,0.0,0.0,0.0,0.0,0.0,0.5,0.25,0.0,5.25,2.0,1.75,0.0,0.5,0.25,0.0,0.0,4.75,0.25,0.25,1.25,3.5,0.0,0.25,0.0,0.0,0.0,27.0
Nova Canaã,292270601C,Nova Canaã,Nova Canaã - 292270601C,-14.662641,-40.274647,Sudoeste,RPGA do Rio de Contas,0.0,5.4,20.2,4.6,1.4,0.0,0.0,0.0,0.0,4.4,0.8,2.0,19.6,8.8,6.8,0.2,8.2,0.0,3.2,1.2,15.6,1.6,4.8,4.0,3.4,0.0,6.2,0.0,0.0,0.0,122.4
Caravelas,A405,Caravelas,Caravelas - A405,-17.739413,-39.258617,Sul,"RPGA dos Rios Peruípe, Itanhém e Jucuruçu",0.2,3.0,1.6,2.6,4.2,0.2,0.0,1.4,5.6,3.0,0.4,2.2,2.0,1.8,0.0,7.8,4.8,1.8,8.2,0.4,0.6,2.0,2.0,0.0,4.2,10.8,8.8,7.8,0.0,0.0,87.4
PCH Colino II M,55355600,Vereda,Vereda (PCH Colino II M) - 55355600,-17.07126,-40.15474,Sul,"RPGA dos Rios Peruípe, Itanhém e Jucuruçu",0.0,15.3,3.8,3.9,13.5,1.4,0.0,0.0,4.6,5.2,5.1,2.0,4.7,5.2,0.9,0.9,14.0,4.2,4.5,5.3,10.0,1.1,0.5,0.0,0.0,2.2,3.3,1.4,0.0,0.0,113.01
Ilhéus,A410,Ilhéus,Ilhéus - A410,-14.658803,-39.181438,Sul,RPGA do Leste,0.6,4.2,17.4,9.2,2.6,0.0,0.0,0.2,1.8,2.0,8.8,1.6,10.6,12.4,4.0,4.4,5.4,3.6,3.6,5.2,11.2,2.4,9.6,14.2,4.0,7.4,12.2,5.8,0.4,0.2,165.0
Itamaraju,A455,Itamaraju,Itamaraju - A455,-17.17103,-39.58819,Sul,"RPGA dos Rios Peruípe, Itanhém e Jucuruçu",0.0,2.8,3.0,5.6,11.4,2.4,0.0,0.0,0.8,1.0,3.0,0.6,2.2,3.4,0.0,2.6,4.6,3.2,5.0,1.8,2.2,0.0,0.0,0.0,3.0,8.2,10.4,8.2,0.4,0.0,85.81
Rio Cachoeira,291480202H,Itabuna,Itabuna (Rio Cachoeira) - 291480202H,-14.800574,-39.278891,Sul,RPGA do Leste,0.0,0.0,17.8,1.8,0.4,0.2,0.0,0.6,0.2,2.0,3.6,1.8,13.8,4.4,0.2,1.0,2.8,4.6,4.0,0.8,3.0,0.6,7.0,0.8,0.2,0.2,11.0,1.0,0.2,0.0,84.0
Itajuípe,,Itajuípe,Itajuípe,-14.6744,-39.3769,Sul,RPGA do Leste,0.0,0.8,22.8,5.2,0.8,0.2,0.6,2.2,0.4,2.6,10.0,4.6,13.6,12.4,5.2,4.8,5.8,0.6,3.2,1.4,6.8,1.8,2.8,6.0,1.0,2.8,22.4,5.6,0.0,0.0,146.4
Canavieiras,83398,Canavieiras,Canavieiras - 83398,-15.666667,-38.95,Sul,RPGA do Rio Pardo,0.0,7.2,25.0,1.0,4.1,0.0,0.0,1.3,3.8,5.3,0.0,3.4,6.4,4.4,0.0,0.9,1.1,0.0,0.0,2.1,1.4,0.0,2.9,0.0,0.0,7.1,13.3,0.9,0.0,0.0,91.6
Caravelas,83498,Caravelas,Caravelas - 83498,-17.739167,-39.258333,Sul,"RPGA dos Rios Peruípe, Itanhém e Jucuruçu",0.0,2.8,1.3,2.1,3.9,0.0,0.0,1.0,4.2,2.7,0.2,1.9,1.4,1.2,0.0,7.1,4.4,1.5,7.3,0.4,0.4,1.3,1.8,0.0,3.9,10.0,8.0,6.8,0.0,0.0,75.6
Guaratinga,83446,Guaratinga,Guaratinga - 83446,-16.58,-39.78,Sul,"RPGA dos Rios dos Frades, Buranhém e Santo Antônio",0.0,1.2,0.9,4.4,4.8,0.0,0.0,0.0,7.0,1.8,1.2,0.6,4.8,9.2,0.6,0.8,1.3,4.6,3.2,1.8,7.2,1.8,3.7,0.0,0.0,4.4,1.6,4.2,0.0,0.0,71.11
Maraú,A438,Maraú,Maraú - A438,-13.90694,-38.97222,Sul,RPGA do Recôncavo Sul,0.6,1.6,13.8,2.6,0.6,0.0,0.0,4.0,4.6,3.2,10.2,1.4,3.4,9.4,5.6,1.8,5.6,7.8,6.2,11.2,10.4,2.4,7.0,15.2,1.2,9.8,5.4,1.0,1.4,0.0,147.4
Porto Seguro,A427,Porto Seguro,Porto Seguro - A427,-16.388977,-39.182389,Sul,"RPGA dos Rios dos Frades, Buranhém e Santo Antônio",0.2,28.0,24.6,1.8,6.6,0.2,0.6,0.2,5.8,3.2,3.2,6.6,8.4,9.4,0.8,1.2,5.2,2.0,6.8,1.8,3.8,0.4,5.0,0.6,5.6,7.8,8.0,8.8,2.0,0.0,158.61
Belmonte,A447,Belmonte,Belmonte - A447,-16.08487,-39.21726,Sul,"RPGA dos Rios dos Frades, Buranhém e Santo Antônio",0.6,38.4,2.2,7.2,3.2,0.8,0.6,0.2,3.8,5.2,3.0,4.0,6.6,8.2,0.0,2.2,2.0,1.4,4.6,1.0,4.0,0.2,5.0,4.6,1.4,11.2,13.4,3.6,0.0,0.2,138.8
CPLAC,LE-CL-01,Ilhéus,Ilhéus (CPLAC) - LE-CL-01,-14.80184,-39.181444,Sul,RPGA do Leste,0.0,2.75,23.25,7.5,5.0,0.0,0.0,1.5,0.0,5.5,5.75,2.25,9.25,21.5,0.5,5.5,3.75,0.0,3.5,0.75,6.5,1.25,12.0,2.75,0.5,7.25,14.5,3.75,0.0,0.0,146.75
Centro,290560201A,Camacan,Camacan (Centro) - 290560201A,-15.422225,-39.494984,Sul,RPGA do Rio Pardo,0.0,7.1,14.8,3.2,1.6,2.0,0.2,1.2,0.4,13.7,6.0,2.4,11.6,10.4,2.0,1.4,0.8,1.4,7.2,0.8,12.9,7.0,3.2,12.3,2.0,3.2,15.4,2.6,0.0,0.0,146.8
Teixeira de Freitas,PJ-CL-01,Teixeira de Freitas,Teixeira de Freitas - PJ-CL-01,-17.575555,-39.732777,Sul,"RPGA dos Rios Peruípe, Itanhém e Jucuruçu",0.0,1.5,2.0,5.5,8.5,0.5,0.0,0.25,1.25,1.0,0.5,1.5,1.75,6.75,0.0,3.0,4.5,3.5,0.5,3.25,10.0,0.0,1.25,0.0,1.25,7.25,1.75,0.5,0.0,0.0,67.75
Itabuna,Fazenda Barra,Itabuna,Itabuna - Fazenda Barra,-14.8997,-39.3686,Sul,RPGA do Leste,0.0,0.4,14.2,0.8,0.8,0.0,0.0,1.4,0.0,3.4,5.4,0.0,6.8,5.0,0.8,0.6,1.0,0.0,1.6,1.2,3.0,0.0,4.4,1.6,0.6,0.2,12.6,2.6,0.0,0.0,68.4
Centro,290340901A,Belmonte,Belmonte (Centro) - 290340901A,-15.859179,-38.878025,Sul,RPGA do Rio Jequitinhonha,0.0,2.8,7.1,0.2,7.3,0.0,1.4,6.9,0.2,5.5,0.0,3.2,14.4,2.2,0.2,2.2,1.2,0.4,0.2,1.6,4.0,0.2,0.4,1.2,0.2,5.0,5.0,3.4,0.0,0.0,76.41
São João do Panelinha,290560202A,Camacan,Camacan (São João do Panelinha) - 290560202A,-15.375278,-39.489984,Sul,RPGA do Rio Pardo,0.0,11.9,20.9,0.6,1.8,0.2,0.0,4.7,2.4,11.3,7.9,2.2,23.3,10.9,1.8,2.4,7.3,4.8,7.1,2.0,18.7,0.0,3.6,4.1,0.8,6.0,16.6,2.2,0.0,0.0,175.5
Centro,290560203A,Camacan,Camacan (Centro) - 290560203A,-15.416389,-39.493873,Sul,RPGA do Rio Pardo,0.0,9.1,11.9,1.4,3.2,0.8,0.4,0.4,1.0,12.7,4.0,2.2,9.3,7.8,1.0,1.2,2.0,1.0,6.1,0.6,14.9,3.7,5.9,11.4,2.4,4.0,16.0,2.0,0.0,0.0,136.4
Malhado,291360602A,Ilhéus,Ilhéus (Malhado) - 291360602A,-14.789158,-39.048858,Sul,RPGA do Leste,0.6,4.8,19.9,8.7,1.2,1.6,0.0,2.6,4.2,0.8,4.2,3.3,5.0,3.6,0.4,4.9,1.2,3.5,0.8,5.2,10.1,1.2,6.1,4.6,0.4,11.1,3.4,2.2,0.0,0.0,115.61
São Caetano,291480202A,Itabuna,Itabuna (São Caetano) - 291480202A,-14.80638,-39.27803,Sul,RPGA do Leste,0.0,0.2,16.2,1.8,0.8,0.0,0.2,1.4,0.0,3.2,2.0,2.4,16.3,6.3,0.6,1.0,2.2,2.0,3.8,0.8,3.4,0.8,6.9,0.6,0.6,0.4,10.3,2.0,0.2,0.0,86.4
Nova Ferradas,291480203A,Itabuna,Itabuna (Nova Ferradas) - 291480203A,-14.857213,-39.346922,Sul,RPGA do Leste,0.0,2.4,17.3,0.2,1.4,0.0,0.0,1.0,0.4,3.6,3.2,0.2,10.9,3.0,1.2,0.2,2.8,0.0,0.8,0.0,2.2,0.0,4.2,2.8,0.0,0.2,10.4,4.0,0.2,0.0,72.61
Planalto I,292110401A,Medeiros Neto,Medeiros Neto (Planalto I) - 292110401A,-17.365,-40.223,Sul,"RPGA dos Rios Peruípe, Itanhém e Jucuruçu",0.0,0.2,2.2,1.0,5.8,1.4,0.0,0.0,0.0,0.8,1.4,0.8,1.2,7.5,0.2,2.0,3.0,1.8,1.0,0.8,0.4,0.0,0.0,0.0,0.0,2.8,1.6,1.4,0.0,0.0,37.3
Areião,292530301A,Porto Seguro,Porto Seguro (Areião) - 292530301A,-16.441,-39.076,Sul,"RPGA dos Rios dos Frades, Buranhém e Santo Antônio",2.0,12.0,6.0,0.0,3.2,0.0,0.0,4.0,8.7,2.2,4.4,7.9,7.9,2.8,0.2,0.2,1.4,2.8,7.7,5.3,4.3,0.0,0.0,0.0,3.9,9.3,10.5,6.5,0.2,0.0,113.4
Paraguai,292530302A,Porto Seguro,Porto Seguro (Paraguai) - 292530302A,-16.41,-39.08,Sul,"RPGA dos Rios dos Frades, Buranhém e Santo Antônio",0.0,18.9,5.9,1.0,4.8,0.2,0.0,3.6,4.5,2.0,1.6,5.9,2.4,6.0,2.0,1.0,5.2,5.2,7.5,2.2,7.1,0.0,1.4,0.0,5.9,9.7,6.7,6.5,0.0,0.0,117.21
BR367km4,292770501A,Santa Cruz Cabrália,Santa Cruz Cabrália (BR367km4) - 292770501A,-16.321,-39.023,Sul,"RPGA dos Rios dos Frades, Buranhém e Santo Antônio",1.4,19.7,3.6,2.5,6.5,0.0,1.6,2.8,16.6,3.8,1.4,9.0,2.8,1.4,0.0,0.4,4.3,2.2,5.1,4.3,3.0,0.0,5.3,0.0,3.8,9.8,2.0,3.2,0.0,0.0,116.5
Estádio Municipal,291530401A,Itagimirim,Itagimirim (Estádio Municipal) - 291530401A,-16.089181,-39.615546,Sul,RPGA do Rio Jequitinhonha,1.2,10.5,3.2,0.8,6.6,2.0,0.0,0.0,4.7,4.2,4.2,3.4,3.8,5.4,0.4,0.6,0.6,2.6,0.8,7.5,0.2,0.8,5.1,3.2,0.0,12.8,7.1,1.4,0.0,0.0,93.1
Jusante,54945000,Itapebi,Itapebi (Jusante) - 54945000,-15.949206,-39.5225,Sul,RPGA do Rio Jequitinhonha,2.3,16.0,4.4,1.9,5.8,2.6,0.0,0.0,7.8,13.0,3.8,0.8,16.1,20.1,1.8,2.8,2.9,1.1,3.4,6.2,7.6,0.3,2.8,12.6,5.1,14.9,17.3,3.1,0.0,0.0,176.5
Macaúbas,A454,Macaúbas,Macaúbas - A454,-13.0389,-42.6172,São Francisco,RPGA dos Rios Paramirim e Santo Onofre,0.0,0.0,0.0,0.0,0.0,0.0,0.0,0.0,0.0,0.0,0.0,0.0,0.0,0.0,0.0,0.0,0.0,0.0,0.0,0.0,0.0,0.0,0.0,0.0,0.0,0.0,0.0,0.0,0.0,0.0,0.0
Santa Rita de Cássia,A415,Santa Rita de Cássia,Santa Rita de Cássia - A415,-11.002768,-44.524965,São Francisco,RPGA do Rio Grande,0.0,0.0,0.0,0.0,0.0,0.0,0.0,0.0,0.0,0.0,0.0,0.0,0.0,0.0,0.0,0.0,0.0,0.0,0.0,0.0,0.0,0.0,0.0,0.0,0.0,0.0,0.0,0.0,0.0,0.0,0.0
Barra,83179,Barra,Barra - 83179,-11.083333,-43.166667,São Francisco,RPGA do Rio Grande,0.0,0.0,0.0,0.0,0.0,0.0,0.0,0.0,0.0,0.0,0.0,0.0,0.0,0.0,0.0,0.0,0.0,0.0,0.0,0.0,0.0,0.0,0.0,0.0,0.0,0.0,0.0,0.0,0.0,0.0,0.0
Bom Jesus da Lapa,83288,Bom Jesus da Lapa,Bom Jesus da Lapa - 83288,-13.251389,-43.405278,São Francisco,RPGA do Rio Carnaíba de Dentro,0.0,0.0,0.0,0.0,0.0,0.0,0.0,0.0,0.0,0.0,0.0,0.0,0.0,0.0,0.0,0.0,0.0,0.0,0.0,0.0,0.0,0.0,0.0,0.0,0.0,0.0,0.0,0.0,0.0,0.0,0.0
Caetité,83339,Caetité,Caetité - 83339,-14.066667,-42.483333,São Francisco,RPGA do Rio de Contas,0.0,0.0,4.6,0.0,0.0,0.0,0.0,0.0,0.0,0.0,0.0,0.0,2.4,0.0,0.0,0.0,0.0,0.0,0.0,0.0,2.0,0.0,0.0,0.0,0.0,0.0,0.0,0.0,0.0,0.0,9.0
Carinhanha,83408,Carinhanha,Carinhanha - 83408,-14.283333,-43.766667,São Francisco,"RPGA do Rio Corrente e Riachos do Ramalho, Serra Dourada e Brejo Velho",0.0,0.0,0.0,0.0,0.0,0.0,0.0,0.0,0.0,0.0,0.0,0.0,0.0,0.0,0.0,0.0,0.0,0.0,0.0,0.0,0.0,0.0,0.0,0.0,0.0,0.0,0.0,0.0,0.0,0.0,0.0
Santa Rita de Cássia,83076,Santa Rita de Cássia,Santa Rita de Cássia - 83076,-11.016667,-44.516667,São Francisco,RPGA do Rio Grande,0.0,0.0,0.0,0.0,0.0,0.0,0.0,0.0,0.0,0.0,0.0,0.0,0.0,0.0,0.0,0.0,0.0,0.0,0.0,0.0,0.0,0.0,0.0,0.0,0.0,0.0,0.0,0.0,0.0,0.0,0.0
Guanambí,A426,Guanambí,Guanambí - A426,-14.208123,-42.749647,São Francisco,RPGA do Rio Carnaíba de Dentro,0.0,0.0,0.0,0.0,0.0,0.0,0.0,0.0,0.0,0.0,0.0,0.0,0.0,0.0,0.0,0.0,0.0,0.0,0.0,0.0,0.0,0.0,0.0,0.0,0.0,0.0,0.0,0.0,0.0,0.0,0.0
Barra,A429,Barra,Barra - A429,-11.084858,-43.138998,São Francisco,RPGA do Rio Grande,0.0,0.0,0.0,0.0,0.0,0.0,0.0,0.0,0.0,0.0,0.0,0.0,0.0,0.0,0.0,0.0,0.0,0.0,0.0,0.0,0.0,0.0,0.0,0.0,0.0,0.0,0.0,0.0,0.0,0.0,0.0
Ibotirama,A439,Ibotirama,Ibotirama - A439,-12.19306,-43.21342,São Francisco,RPGA dos Rios Paramirim e Santo Onofre,0.0,0.0,0.0,0.0,0.0,0.0,0.0,0.0,0.0,0.0,0.0,0.0,0.0,0.0,0.0,0.0,0.0,0.0,0.0,0.0,0.0,0.0,0.0,0.0,0.0,0.0,0.0,0.0,0.0,0.0,0.0
Faz. Macambira,46675000,Cotegipe,Cotegipe (Faz. Macambira) - 46675000,-11.6106,-44.1567,São Francisco,RPGA do Rio Grande,0.0,0.0,0.0,0.0,0.0,0.0,0.0,0.0,0.0,0.0,0.0,0.0,0.0,0.0,0.0,0.0,0.0,0.0,0.0,0.0,0.0,0.0,0.0,0.0,0.0,0.0,0.0,0.0,0.0,0.0,0.0
Santa Maria da Vitória,45910001,Santa Maria da Vitória,Santa Maria da Vitória - 45910001,-13.4006,-44.1989,São Francisco,"RPGA do Rio Corrente e Riachos do Ramalho, Serra Dourada e Brejo Velho",0.0,0.0,0.0,0.0,0.0,0.0,0.0,0.0,0.0,0.0,0.0,0.0,0.0,0.0,0.0,0.0,0.0,0.0,0.0,0.0,0.0,0.0,0.0,0.0,0.0,0.0,0.0,0.0,0.0,0.0,0.0
