nome_estacao,codigo,municipio,estacao,latitude,longitude,regiao,rpga,01_12_19,02_12_19,03_12_19,04_12_19,05_12_19,06_12_19,07_12_19,08_12_19,09_12_19,10_12_19,11_12_19,12_12_19,13_12_19,14_12_19,15_12_19,16_12_19,17_12_19,18_12_19,19_12_19,20_12_19,21_12_19,22_12_19,23_12_19,24_12_19,25_12_19,26_12_19,27_12_19,28_12_19,29_12_19,30_12_19,31_12_19,total
Itaberaba,A408,Itaberaba,Itaberaba - A408,-12.524000000000001,-40.3,Chapada Diamantina,RPGA do Rio Paraguaçu,0.0,0.0,0.0,0.0,0.0,0.0,0.0,0.0,0.0,0.0,0.0,0.0,0.0,0.0,5.0,1.0,3.0,0.0,0.0,0.0,0.0,0.0,0.0,0.0,0.0,0.0,0.0,0.4,0.0,4.6,2.0,16.0
Macajuba,A412,Macajuba,Macajuba - A412,-12.132,-40.354,Chapada Diamantina,RPGA do Rio Paraguaçu,0.0,0.0,0.0,0.0,0.0,0.0,0.0,0.0,0.0,0.0,0.0,0.0,0.0,0.0,0.8,3.4,0.2,0.0,0.0,0.0,0.0,0.0,0.0,0.0,0.0,0.0,0.0,5.8,0.0,2.2,8.0,20.4
Lençóis,83242,Lençóis,Lençóis - 83242,-12.557,-41.388999999999996,Chapada Diamantina,RPGA do Rio Paraguaçu,0.0,0.0,0.0,0.0,0.0,0.0,0.0,0.0,0.0,0.0,0.0,0.0,0.0,0.0,9.1,9.9,0.6,0.0,0.0,0.0,0.0,0.0,0.0,0.0,0.0,3.6,0.0,0.2,0.0,0.1,19.0,42.5
Morro do Chapéu,83184,Morro do Chapéu,Morro do Chapéu - 83184,-11.217,-41.217,Chapada Diamantina,RPGA do Rio Salitre,0.0,0.0,0.0,0.0,0.0,0.0,0.0,0.0,4.4,0.0,0.0,0.0,0.0,0.0,0.3,1.4,0.2,0.0,0.0,0.0,0.0,0.0,0.0,0.0,0.0,0.0,0.2,0.0,0.0,2.4,35.1,44.0
Piatã,A430,Piatã,Piatã - A430,-13.155999999999999,-41.773999999999994,Chapada Diamantina,RPGA do Rio de Contas,0.0,0.0,0.0,0.0,0.0,0.0,0.0,0.0,0.0,0.0,0.0,0.0,0.0,0.0,8.6,11.6,0.8,0.0,0.0,0.0,0.0,0.0,0.0,0.0,0.0,0.0,0.0,0.6,0.0,0.0,17.4,39.0
Livramento de Nossa Senhora,291950401U,Livramento de Nossa Senhora,Livramento de Nossa Senhora - 291950401U,-13.683,-41.841,Chapada Diamantina,RPGA do Rio de Contas,0.0,0.8,0.0,1.8,0.0,0.0,0.0,8.4,10.6,0.0,0.0,0.0,0.0,0.0,3.0,1.4,0.0,0.0,0.0,0.0,0.0,0.0,0.0,0.0,0.0,0.0,0.0,0.0,0.0,0.0,0.0,26.0
Iaçu,51280000,Iaçu,Iaçu - 51280000,-12.762,-40.214,Chapada Diamantina,RPGA do Rio Paraguaçu,0.0,0.0,0.0,0.0,0.0,0.0,0.0,0.0,1.0,0.0,0.0,0.0,1.0,0.0,3.0,4.6,0.0,0.0,0.0,0.0,0.0,0.0,0.0,0.0,0.0,0.0,0.0,0.0,0.0,1.2,0.4,11.2
Lençóis,A425,Lençóis,Lençóis - A425,-12.558,-41.388999999999996,Chapada Diamantina,RPGA do Rio Paraguaçu,0.0,0.0,0.0,0.0,0.0,0.0,0.0,0.0,0.0,0.0,0.0,0.0,0.0,0.0,9.6,10.6,0.8,0.0,0.0,0.0,0.0,0.0,0.0,0.0,0.0,3.8,0.0,0.2,0.0,0.0,20.4,45.4
Itaetê,,Itaetê,Itaetê,-12.992,-40.961000000000006,Chapada Diamantina,RPGA do Rio Paraguaçu,0.0,0.0,0.0,0.0,0.0,0.0,0.0,0.0,0.0,0.0,0.0,0.0,0.0,0.0,0.6,0.0,0.0,0.0,0.0,0.0,0.0,0.0,0.0,0.0,0.0,0.0,0.0,0.0,0.0,0.2,0.0,0.8
Lagoa Bonita,PG-PR-15,Iacú,Iacú (Lagoa Bonita) - PG-PR-15,-12.932,-40.226,Chapada Diamantina,RPGA do Rio Paraguaçu,0.0,0.0,0.0,0.0,0.0,0.0,0.0,0.0,0.0,0.0,0.0,0.0,0.0,0.0,1.8,0.2,0.0,0.0,0.0,0.0,0.0,0.0,0.0,0.0,0.2,0.0,0.0,0.4,0.0,0.4,5.6,8.6
João Amaro,PG-PR-16,Iaçu,Iaçu (João Amaro) - PG-PR-16,-12.8,-40.363,Chapada Diamantina,RPGA do Rio Paraguaçu,0.0,0.0,0.0,0.0,0.0,0.0,0.0,0.0,0.0,0.0,0.0,0.0,0.0,0.0,1.8,1.8,0.0,0.0,0.0,0.0,0.0,0.0,0.0,0.0,0.0,0.4,0.0,0.0,0.0,4.8,1.2,10.0
Guiné,PG-PR-24,Mucugê,Mucugê (Guiné) - PG-PR-24,-12.772,-41.541000000000004,Chapada Diamantina,RPGA do Rio Paraguaçu,0.0,0.0,0.0,0.0,0.0,0.0,0.0,0.0,0.2,0.0,0.0,0.0,0.0,0.0,7.2,11.4,1.2,0.0,0.0,0.0,0.0,0.0,0.0,0.0,0.0,0.0,0.0,0.4,0.0,3.2,17.2,40.8
Machado Portela,PG-PR-26,Marcionílio Souza,Marcionílio Souza (Machado Portela) - PG-PR-26,-13.154000000000002,-40.768,Chapada Diamantina,RPGA do Rio Paraguaçu,0.0,0.0,0.0,0.0,0.0,0.0,0.0,0.0,0.0,0.0,0.0,0.0,0.0,0.0,9.8,2.6,0.0,0.0,0.0,0.0,0.0,0.0,0.0,0.0,0.0,0.0,0.0,0.0,0.0,7.8,0.2,20.4
Fazenda Cachoeira,PM-FD-01,Érico Cardoso,Érico Cardoso (Fazenda Cachoeira) - PM-FD-01,-13.425,-42.162,Chapada Diamantina,RPGA dos Rios Paramirim e Santo Onofre,0.0,0.0,0.0,36.2,0.0,0.0,0.0,0.0,6.8,0.0,0.0,0.0,0.0,0.0,0.0,0.0,0.0,0.0,1.4,0.0,0.0,0.0,0.0,0.0,0.2,0.0,0.0,0.0,0.0,0.0,0.0,44.6
Rio do Pires,PM-CL-04,Rio do Pires,Rio do Pires - PM-CL-04,-13.117,-42.284,Chapada Diamantina,RPGA dos Rios Paramirim e Santo Onofre,0.0,0.0,0.0,0.4,0.0,0.0,0.0,0.0,10.8,0.0,0.0,0.0,0.0,0.0,0.0,0.0,0.0,0.0,6.4,0.0,0.0,0.0,0.0,0.0,0.0,0.0,0.0,0.0,0.0,0.2,1.0,18.8
Iaçu,PG-CL-05,Iaçu,Iaçu - PG-CL-05,-12.911,-40.032,Chapada Diamantina,RPGA do Rio Paraguaçu,0.0,0.0,0.0,0.0,0.0,0.0,0.0,0.0,0.0,0.0,0.0,0.0,0.0,0.0,1.8,0.4,0.2,0.4,0.0,0.0,0.0,0.0,0.0,0.0,0.4,0.0,0.0,0.0,0.0,0.6,4.2,8.0
Mucugê,PG-PR-28,Mucugê,Mucugê - PG-PR-28,-13.077,-41.438,Chapada Diamantina,RPGA do Rio Paraguaçu,0.0,0.0,0.0,0.0,0.0,0.0,0.0,0.0,0.0,0.0,0.0,0.0,0.0,0.0,0.0,0.0,0.0,0.0,0.0,0.0,0.0,0.0,0.0,0.0,0.0,0.0,0.0,0.0,0.0,0.0,0.0,0.0
Seabra,PG-PR-01,Seabra,Seabra - PG-PR-01,-12.427999999999999,-41.77,Chapada Diamantina,RPGA do Rio Paraguaçu,0.0,0.0,0.0,0.0,0.0,0.0,0.0,0.0,0.0,0.0,0.0,0.0,0.0,0.0,6.0,7.6,0.0,0.0,0.0,0.0,0.0,0.0,0.0,0.0,0.0,0.2,0.0,0.4,0.0,0.6,9.6,24.4
Baixa Grande,PG-PR-08,Baixa Grande,Baixa Grande - PG-PR-08,-11.909,-40.184,Chapada Diamantina,RPGA do Rio Paraguaçu,0.0,0.0,0.0,0.0,0.0,0.0,0.0,0.0,0.0,0.0,0.0,0.0,0.0,0.0,3.8,1.6,0.0,0.0,0.0,0.0,0.0,0.0,0.0,0.0,0.0,0.0,2.2,4.2,0.0,3.6,43.8,59.2
Ventura,PG-PR-10,Morro do Chapéu,Morro do Chapéu (Ventura) - PG-PR-10,-11.651,-40.952,Chapada Diamantina,RPGA do Rio Paraguaçu,0.0,0.0,0.0,0.0,0.0,0.0,0.0,0.0,0.0,0.0,0.0,0.0,0.0,0.0,0.4,0.0,0.0,0.0,0.0,0.0,0.0,0.0,0.0,0.0,0.0,0.0,1.8,0.0,0.0,44.8,3.2,50.2
Piatã,CO-CL-04,Piatã,Piatã - CO-CL-04,-13.164000000000001,-41.771,Chapada Diamantina,RPGA do Rio de Contas,0.0,0.0,0.0,0.0,0.0,0.0,0.0,0.0,0.0,0.0,0.0,0.0,0.0,0.0,9.25,7.75,0.5,0.0,0.0,0.0,0.0,0.0,0.0,0.0,0.0,0.0,0.0,0.75,0.0,1.5,5.25,25.0
PC Ponte Rio Capivari,51326200,Itaberaba,Itaberaba (PC Ponte Rio Capivari) - 51326200,-12.514000000000001,-39.934,Chapada Diamantina,RPGA do Rio Paraguaçu,0.0,0.0,0.0,0.0,0.0,0.0,0.0,0.0,0.0,0.0,0.0,0.0,0.0,0.0,0.8,1.4,0.0,0.0,0.0,0.0,1.6,0.0,0.0,0.0,0.0,0.0,0.0,0.0,0.0,0.6,0.8,5.2
Utinga,293280401C,Utinga,Utinga - 293280401C,-12.075999999999999,-41.102,Chapada Diamantina,RPGA do Rio Paraguaçu,0.0,0.0,0.0,0.0,0.0,0.0,0.0,0.0,0.0,0.0,0.0,0.0,0.0,0.0,0.0,0.0,0.0,0.0,0.0,0.0,0.0,0.0,0.0,0.0,0.0,0.0,0.0,0.4,0.2,13.8,28.0,42.4
Barro Alto,290323501C,Barro Alto,Barro Alto - 290323501C,-11.812000000000001,-41.901,Chapada Diamantina,RPGA dos Rios Verde e Jacaré,0.0,0.0,0.0,0.0,0.0,0.0,0.0,0.0,0.0,0.0,0.0,0.0,0.0,0.0,0.0,0.0,0.0,0.0,0.0,0.0,0.0,0.0,0.0,0.0,0.0,0.0,0.0,0.0,0.0,3.8,5.8,9.6
Rodelas,292710101C,Rodelas,Rodelas - 292710101C,-8.852,-38.765,Nordeste,RPGA dos Rios Macururé e Curaçá,0.0,0.0,0.0,0.0,0.0,0.0,0.0,0.0,0.0,0.0,0.0,0.0,0.0,0.0,0.0,0.2,0.0,0.0,0.0,0.0,0.0,0.0,0.0,0.0,0.0,0.0,0.0,0.0,0.0,0.0,0.0,0.2
Cipó,83192,Cipó,Cipó - 83192,-11.083,-38.516999999999996,Nordeste,RPGA do Rio Itapicuru,0.0,0.0,0.0,0.0,0.0,0.0,0.0,0.0,0.0,0.0,0.0,0.0,0.0,1.0,0.0,0.0,0.0,1.6,0.0,0.0,0.0,0.0,0.0,0.0,0.0,0.0,0.0,0.0,0.0,0.0,1.7,4.3
Jacobina,83186,Jacobina,Jacobina - 83186,-11.173,-40.534,Nordeste,RPGA do Rio Itapicuru,0.0,0.0,0.0,0.0,0.0,0.0,0.0,0.0,0.0,0.0,0.0,0.0,0.0,0.0,0.0,0.0,0.0,0.0,0.0,0.0,0.0,0.0,0.0,0.0,0.0,0.0,0.0,0.0,0.0,4.5,7.9,12.4
Ladeira Vermelha,291750801A,Jacobina,Jacobina (Ladeira Vermelha) - 291750801A,-11.162,-40.554,Nordeste,RPGA do Rio Itapicuru,0.0,0.0,0.0,0.0,0.0,0.0,0.0,0.0,0.0,0.0,0.0,0.0,0.0,0.0,0.0,0.0,0.0,0.0,0.0,0.0,0.0,0.0,0.0,0.0,0.0,0.0,0.0,0.0,0.0,15.2,13.2,28.4
Monte Santo,83090,Monte Santo,Monte Santo - 83090,-10.443,-39.330999999999996,Nordeste,RPGA do Rio Itapicuru,0.0,0.0,0.0,0.0,0.0,0.0,0.0,0.0,0.0,0.0,0.0,0.0,0.0,0.0,3.5,0.0,0.0,0.0,0.0,0.0,0.0,0.0,0.0,0.0,0.0,0.0,0.0,0.0,0.0,0.0,14.3,17.8
Feliz Tomaz,291750802A,Jacobina,Jacobina (Feliz Tomaz) - 291750802A,-11.174000000000001,-40.518,Nordeste,RPGA do Rio Itapicuru,0.0,0.0,0.0,0.0,0.0,0.0,0.0,0.0,0.0,0.0,0.0,0.0,0.0,0.0,0.8,0.0,0.0,0.0,0.0,0.0,0.0,0.0,0.0,0.0,0.0,0.0,0.0,0.4,0.0,3.6,13.0,17.8
Serrinha,83190,Serrinha,Serrinha - 83190,-11.633,-38.967,Nordeste,RPGA do Recôncavo Norte,0.0,0.0,0.0,0.0,0.0,0.0,0.0,0.0,0.0,0.0,0.0,0.0,0.0,0.7,0.9,1.4,0.0,0.0,0.0,0.0,0.0,0.0,0.0,0.0,0.0,0.0,0.0,0.0,0.0,1.3,13.5,17.8
Conde,A431,Conde,Conde - A431,-12.036,-37.683,Nordeste,RPGA do Rio Itapicuru,0.0,0.0,0.0,0.0,0.0,0.0,0.0,0.0,0.0,0.0,0.0,0.0,0.0,6.2,2.4,7.4,0.0,0.0,0.0,0.0,2.2,0.0,0.0,7.0,0.6,0.0,0.0,1.2,3.6,1.6,94.6,126.8
Uauá,A435,Uauá,Uauá - A435,-9.834,-39.496,Nordeste,RPGA do Rio Vaza-Barris,0.0,0.0,0.0,0.0,0.0,0.0,0.0,0.0,0.0,0.0,0.0,0.0,0.0,0.0,0.6,0.4,0.0,0.0,0.0,0.0,0.0,0.0,0.0,0.0,0.0,0.0,0.0,0.0,0.0,0.0,4.6,5.6
Euclides da Cunha,A442,Euclides da Cunha,Euclides da Cunha - A442,-10.537,-38.997,Nordeste,RPGA do Rio Itapicuru,0.0,0.0,0.0,0.0,0.0,0.0,0.0,0.0,0.0,0.0,0.0,0.0,0.0,0.0,0.4,0.0,0.0,0.0,0.0,0.0,0.0,0.0,0.0,0.0,0.0,0.0,0.0,0.0,0.0,0.2,2.4,3.0
Queimadas,A436,Queimadas,Queimadas - A436,-10.985,-39.617,Nordeste,RPGA do Rio Itapicuru,0.0,0.0,0.0,0.0,0.0,0.0,0.0,0.0,0.0,0.0,0.0,0.0,0.0,0.0,0.0,0.0,0.0,0.0,0.0,0.0,0.0,0.0,0.0,0.0,0.0,0.0,0.0,0.0,0.0,0.0,26.0,26.0
Jacobina,A440,Jacobina,Jacobina - A440,-11.205,-40.465,Nordeste,RPGA do Rio Itapicuru,0.0,0.0,0.0,0.0,0.0,0.0,0.0,0.0,0.0,0.0,0.0,0.0,0.0,0.0,1.4,0.0,0.0,0.0,0.0,0.0,0.0,0.0,0.0,0.0,0.0,0.0,0.0,0.2,0.0,2.2,33.4,37.2
Heliópolis,291185701C,Heliópolis,Heliópolis - 291185701C,-10.673,-38.327,Nordeste,RPGA do Rio Real,0.0,0.0,0.0,0.0,0.0,0.0,0.0,0.0,0.0,0.0,0.0,0.0,0.0,1.8,0.0,0.0,0.0,0.0,0.0,0.0,0.0,0.0,0.0,0.0,0.0,0.0,0.0,0.0,0.0,5.2,0.0,7.0
Serrinha,A441,Serrinha,Serrinha - A441,-11.665,-39.023,Nordeste,RPGA do Rio Paraguaçu,0.0,0.2,0.0,0.0,0.0,0.0,0.0,0.0,0.0,0.0,0.0,0.0,0.0,0.8,1.0,1.4,0.0,0.0,0.0,0.0,0.0,0.0,0.0,0.0,0.0,0.0,0.0,0.0,0.0,0.4,11.0,14.8
Senhor do Bonfim,A428,Senhor do Bonfim,Senhor do Bonfim - A428,-10.443,-40.148,Nordeste,RPGA do Rio Itapicuru,0.0,0.0,0.0,0.0,0.0,0.0,0.0,0.0,0.0,0.0,0.0,0.0,0.0,0.0,0.0,0.0,0.0,0.0,0.0,0.0,0.0,0.0,0.0,0.0,0.0,0.0,0.0,0.0,0.0,0.0,87.2,87.2
Pedras Altas,50430000,Capim Grosso,Capim Grosso (Pedras Altas) - 50430000,-11.183,-40.047,Nordeste,RPGA do Rio Itapicuru,0.0,0.0,0.0,0.0,0.0,0.0,0.0,0.0,0.0,0.0,0.0,0.0,0.0,0.0,0.0,0.0,0.0,0.0,0.0,0.0,0.0,0.0,0.0,0.0,0.0,0.0,0.0,0.0,0.0,0.0,15.6,15.6
Ponto Novo,50380000,Ponto Novo,Ponto Novo - 50380000,-10.845,-40.113,Nordeste,RPGA do Rio Itapicuru,0.0,0.0,0.0,0.0,0.0,0.0,0.0,0.0,0.0,0.0,0.0,0.0,0.0,0.0,0.0,0.0,0.6,0.0,0.0,0.2,0.2,0.0,0.0,0.0,0.0,0.0,0.0,0.0,0.0,0.0,16.0,17.0
Capim Grosso,IT-CL-03,Capim Grosso,Capim Grosso - IT-CL-03,-11.368,-40.034,Nordeste,RPGA do Rio Itapicuru,0.0,0.0,0.0,0.0,0.0,0.0,0.0,0.0,0.0,0.0,0.0,0.0,0.0,0.0,0.2,0.0,0.0,0.0,0.0,0.0,0.0,0.0,0.0,0.0,0.0,0.0,0.0,0.0,0.0,0.0,17.4,17.6
Pé de Serra,PG-CL-07,Pé de Serra,Pé de Serra - PG-CL-07,-11.837,-39.659,Nordeste,RPGA do Rio Paraguaçu,0.0,0.0,0.0,0.0,0.0,0.0,0.0,0.0,0.0,0.0,0.0,0.0,0.0,0.0,0.0,2.4,0.0,0.0,0.0,0.2,0.2,0.0,0.0,0.0,0.0,0.0,0.4,0.0,0.0,0.0,6.4,9.61
Caldas do Jorro,IT-CL-05,Tucano,Tucano (Caldas do Jorro) - IT-CL-05,-11.035,-38.804,Nordeste,RPGA do Rio Itapicuru,0.0,0.0,0.0,0.0,0.0,0.0,0.0,0.0,0.0,0.0,0.0,0.0,0.0,0.6,1.4,0.0,0.0,0.0,0.0,0.0,0.0,0.0,0.0,0.0,0.0,0.0,0.0,0.0,0.0,0.0,5.4,7.4
Saúde,IT-CL-04,Saúde,Saúde - IT-CL-04,-10.957,-40.383,Nordeste,RPGA do Rio Itapicuru,0.0,0.0,0.0,0.0,0.0,0.0,0.0,0.0,0.0,0.0,0.0,0.0,0.0,0.0,0.2,0.2,0.0,0.0,0.0,0.0,0.0,0.0,0.0,0.0,0.0,0.0,0.0,0.4,0.0,0.0,28.2,29.0
Lajinha,IT-CL-06,Várzea do Poço,Várzea do Poço (Lajinha) - IT-CL-06,-11.495999999999999,-40.345,Nordeste,RPGA do Rio Itapicuru,0.0,0.0,0.0,0.0,0.0,0.0,0.0,0.0,0.0,0.0,0.0,0.0,0.0,0.0,1.2,4.0,0.0,0.0,0.0,0.4,0.0,0.0,0.0,0.0,0.0,0.0,0.2,1.6,3.0,2.6,33.8,46.8
Cipó,IT-FR-24,Cipó,Cipó - IT-FR-24,-11.097999999999999,-38.513000000000005,Nordeste,RPGA do Rio Itapicuru,0.0,0.0,0.0,0.0,0.0,0.0,0.0,0.0,0.0,0.0,0.0,0.0,0.0,1.2,0.0,0.0,0.0,0.6,0.0,0.0,0.0,0.0,0.0,0.0,0.0,0.0,0.0,0.0,0.0,0.0,0.4,2.2
Valente,PG-PR-04,Valente,Valente - PG-PR-04,-11.401,-39.458,Nordeste,RPGA do Rio Paraguaçu,0.0,0.0,0.0,0.0,0.0,0.0,0.0,0.0,0.0,0.0,0.0,0.0,0.0,0.0,0.0,0.0,0.0,0.0,0.0,0.0,0.0,0.0,0.0,0.0,0.0,0.0,0.0,0.0,0.0,0.0,21.0,21.0
Itapeipu,IT-PR-34,Jacobina,Jacobina (Itapeipu) - IT-PR-34,-11.315999999999999,-40.357,Nordeste,RPGA do Rio Itapicuru,0.0,0.0,0.0,0.0,0.0,0.0,0.0,0.0,0.0,0.0,0.0,0.0,0.0,0.0,1.6,0.4,0.2,0.0,0.0,0.0,0.0,0.0,0.0,0.0,0.0,0.0,0.2,1.4,0.0,0.8,143.0,147.6
Tombador Araújo,IT-PR-36,Jacobina,Jacobina (Tombador Araújo) - IT-PR-36,-11.169,-40.671,Nordeste,RPGA do Rio Itapicuru,0.0,0.0,0.0,0.0,0.0,0.0,0.0,1.8,0.0,0.0,0.0,0.0,0.0,0.0,1.2,0.0,0.0,0.0,0.0,0.0,0.0,0.0,0.0,0.0,0.0,0.0,0.0,1.0,0.0,27.2,21.8,53.0
Carrapichel,IT-PR-37,Senhor do Bonfim,Senhor do Bonfim (Carrapichel) - IT-PR-37,-10.388,-40.22,Nordeste,RPGA do Rio Itapicuru,0.0,0.0,0.0,0.0,0.0,0.0,0.0,0.0,0.0,0.0,0.0,0.0,0.0,0.0,0.0,0.0,0.0,0.0,0.0,0.0,0.0,0.0,0.0,0.0,0.0,0.0,0.0,0.0,0.0,28.6,23.2,51.8
Santaluz,IT-PR-17,Santaluz,Santaluz - IT-PR-17,-11.248,-39.376,Nordeste,RPGA do Rio Itapicuru,0.0,0.0,0.0,0.0,0.0,0.0,0.0,0.0,0.0,0.0,0.0,0.0,0.0,0.0,0.4,0.0,0.0,0.0,0.0,0.0,0.0,0.0,0.0,0.0,0.0,0.0,0.0,0.0,0.0,0.0,27.0,27.4
Fazenda Boa Vista,IT-PR-18,Uauá,Uauá (Fazenda Boa Vista) - IT-PR-18,-10.059,-39.705999999999996,Nordeste,RPGA do Rio Itapicuru,0.0,0.0,0.0,0.0,0.0,0.0,0.0,0.0,0.0,0.0,0.0,0.0,0.0,0.0,9.4,0.0,0.0,0.0,0.0,0.0,0.0,0.0,0.0,0.0,0.0,0.0,0.0,0.0,0.0,0.0,64.8,74.2
Ambrósio,IT-PR-19,Cansanção,Cansanção (Ambrósio) - IT-PR-19,-10.985999999999999,-39.238,Nordeste,RPGA do Rio Itapicuru,0.0,0.0,0.0,0.0,0.0,0.0,0.0,0.0,0.0,0.0,0.0,0.0,0.0,0.0,0.0,0.0,0.0,0.0,0.0,0.0,0.0,0.0,0.0,0.0,0.0,0.0,0.0,0.0,0.0,0.0,26.6,26.6
Cansanção,IT-PR-20,Cansanção,Cansanção - IT-PR-20,-10.703,-39.544000000000004,Nordeste,RPGA do Rio Itapicuru,0.0,0.0,0.0,0.0,0.0,0.0,0.0,0.0,0.0,0.0,0.0,0.0,0.0,0.0,0.4,0.2,0.0,0.0,0.0,0.0,0.0,0.0,0.0,0.0,0.0,0.0,0.0,0.0,0.0,0.2,22.4,23.2
Pedra Vermelha,IT-PR-24,Monte Santo,Monte Santo (Pedra Vermelha) - IT-PR-24,-10.454,-39.559,Nordeste,RPGA do Rio Itapicuru,0.0,0.0,0.0,0.0,0.0,0.0,0.0,0.0,0.0,0.0,0.0,0.0,0.0,0.0,3.4,0.2,0.0,0.0,0.0,0.0,0.0,0.0,0.0,0.0,0.0,0.0,0.0,0.0,0.0,0.0,24.8,28.41
Ribeira do Amparo,A458,Ribeira do Amparo,Ribeira do Amparo - A458,-11.059000000000001,-38.444,Nordeste,RPGA do Rio Itapicuru,0.0,0.0,0.0,0.0,0.0,0.0,0.0,0.0,0.0,0.0,0.0,0.0,0.0,1.0,0.6,0.0,0.0,0.0,0.0,0.0,0.0,0.0,0.0,0.0,0.0,0.0,0.0,0.0,0.0,0.0,8.0,9.6
Quijingue,IT-PR-25,Quijingue,Quijingue - IT-PR-25,-10.784,-39.208,Nordeste,RPGA do Rio Itapicuru,0.0,0.0,0.0,0.0,0.0,0.0,0.0,0.0,0.0,0.0,0.0,0.0,0.0,0.0,1.0,0.0,0.0,0.0,0.0,0.0,0.0,0.0,0.0,0.0,0.0,0.0,0.0,0.0,0.0,0.0,4.0,5.0
Inhambupe,RN-CL-10,Inhambupe,Inhambupe - RN-CL-10,-11.693,-38.314,Nordeste,RPGA do Recôncavo Norte,0.0,0.0,0.0,0.0,0.0,0.0,0.0,0.0,3.0,0.2,0.0,0.0,0.0,2.2,0.0,1.0,0.0,0.0,0.4,1.0,0.0,0.0,0.0,0.0,0.0,0.0,0.0,0.0,0.0,0.0,2.0,9.8
Curral Falso,IT-PR-01,Ribeira do Pombal,Ribeira do Pombal (Curral Falso) - IT-PR-01,-10.698,-38.571,Nordeste,RPGA do Rio Itapicuru,0.0,0.0,0.0,0.0,0.0,0.0,0.0,0.0,0.0,0.0,0.0,0.0,0.0,1.2,2.2,0.2,0.0,0.4,0.0,0.0,0.0,0.0,0.0,0.0,0.0,0.0,0.6,0.2,0.0,0.0,0.0,4.81
Aribicé,IT-PR-02,Euclides da Cunha,Euclides da Cunha (Aribicé) - IT-PR-02,-10.558,-38.793,Nordeste,RPGA do Rio Itapicuru,0.0,0.0,0.0,0.0,0.0,0.0,0.0,0.0,0.0,0.0,0.0,0.0,0.0,0.0,9.0,0.0,0.0,0.0,0.0,0.0,0.0,0.0,0.0,0.0,0.0,0.0,0.0,0.0,0.0,0.0,0.0,9.0
Ribeira do Pombal,IT-PR-04,Ribeira do Pombal,Ribeira do Pombal - IT-PR-04,-10.823,-38.546,Nordeste,RPGA do Rio Itapicuru,0.0,0.0,0.0,0.0,0.0,0.0,0.0,0.0,0.0,0.0,0.0,0.0,0.0,1.8,0.2,0.0,0.0,0.0,0.0,0.0,0.0,0.0,0.0,0.0,0.0,0.0,0.0,0.0,0.0,0.0,0.0,2.0
BR 116 E. Cunha / Tucano,IT-PR-05,Quijingue,Quijingue (BR 116 E. Cunha / Tucano) - IT-PR-05,-10.71,-38.923,Nordeste,RPGA do Rio Itapicuru,0.0,0.0,0.0,0.0,0.0,0.0,0.0,0.0,0.0,0.0,0.0,0.0,0.0,0.0,0.0,0.0,0.0,0.0,0.0,0.0,0.0,0.0,0.0,0.0,0.0,0.0,0.0,0.0,0.0,0.0,1.2,1.2
Fazenda Santo Antônio,IT-PR-06,Euclides da Cunha,Euclides da Cunha (Fazenda Santo Antônio) - IT-PR-06,-10.405,-39.046,Nordeste,RPGA do Rio Itapicuru,0.0,0.0,0.0,0.0,0.0,0.0,0.0,0.8,0.0,0.0,0.0,0.0,0.0,0.0,5.8,0.0,0.0,0.0,0.0,0.0,0.0,0.0,0.0,0.0,0.0,0.0,0.0,0.0,0.0,0.0,5.4,12.0
Estação Experimental,IT-PR-10,Nova Soure,Nova Soure (Estação Experimental) - IT-PR-10,-11.308,-38.536,Nordeste,RPGA do Rio Itapicuru,0.0,0.0,0.0,0.0,0.0,0.0,0.0,0.0,0.0,0.0,0.0,0.0,0.0,2.8,0.0,0.0,0.0,0.0,0.0,0.0,0.0,0.0,0.0,0.4,0.0,0.0,0.0,0.0,0.0,0.0,4.0,7.2
Boa Hora,IT-PR-13,Ribeira do Amparo,Ribeira do Amparo (Boa Hora) - IT-PR-13,-10.965,-38.523,Nordeste,RPGA do Rio Itapicuru,0.0,0.0,0.0,0.0,0.0,0.0,0.0,0.0,0.0,0.0,0.0,0.0,0.0,0.0,0.8,0.0,0.2,0.0,0.0,0.0,0.0,0.0,0.0,0.0,0.0,0.0,0.0,0.0,0.0,0.0,0.0,1.0
Jeremoabo,A450,Jeremoabo,Jeremoabo - A450,-10.081,-38.346,Nordeste,RPGA do Rio Vaza-Barris,0.0,0.0,0.0,0.0,0.0,0.0,0.0,0.0,0.0,0.0,0.0,0.0,0.0,0.0,0.8,0.0,0.0,0.0,0.0,0.0,0.0,0.0,0.0,0.0,0.0,0.0,0.0,0.0,0.0,0.0,0.0,0.8
Itaberaba,291840701A,Juazeiro,Juazeiro (Itaberaba) - 291840701A,-9.448,-40.485,Norte,RPGA dos Rios Macururé e Curaçá,0.0,0.0,0.0,0.0,0.0,0.0,0.0,0.0,6.0,0.0,0.0,0.0,0.0,0.0,0.0,0.0,0.0,0.0,0.0,0.0,0.0,0.0,0.0,0.0,0.0,0.0,0.0,0.0,0.0,0.0,7.8,13.8
Maria Gorete,291840703A,Juazeiro,Juazeiro (Maria Gorete) - 291840703A,-9.42,-40.499,Norte,RPGA dos Rios Macururé e Curaçá,0.0,0.0,0.0,0.0,0.0,0.0,0.0,0.0,8.4,0.2,0.0,0.0,0.0,0.0,0.0,0.0,0.0,0.0,0.0,0.0,0.0,0.0,0.0,0.0,0.0,0.0,0.0,0.0,0.0,0.0,0.0,8.6
João Paulo II,291840704A,Juazeiro,Juazeiro (João Paulo II) - 291840704A,-9.471,-40.498000000000005,Norte,RPGA dos Rios Macururé e Curaçá,0.0,0.0,0.0,0.2,0.0,0.0,0.0,0.0,2.0,0.0,0.0,0.0,0.0,0.0,0.0,0.0,0.0,0.0,0.0,0.0,0.0,0.0,0.0,0.0,0.0,0.0,0.0,0.0,0.0,0.0,3.6,5.81
Lapão,291915701A,Lapão,Lapão - 291915701A,-11.38,-41.83,Norte,RPGA dos Rios Verde e Jacaré,0.0,0.0,0.0,0.0,0.0,0.0,0.0,0.0,0.0,0.0,0.0,0.0,0.0,0.0,0.0,0.0,0.0,0.0,0.0,0.0,0.0,0.0,0.0,0.0,0.0,0.0,0.0,0.0,0.0,4.6,0.8,5.4
Centro,290115501A,América Dourada,América Dourada (Centro) - 290115501A,-11.45,-41.434,Norte,RPGA dos Rios Verde e Jacaré,0.0,0.0,0.0,0.0,0.0,0.0,0.0,0.0,0.0,0.0,0.0,0.0,0.0,0.0,0.0,0.0,0.0,0.0,0.0,0.0,0.0,0.0,0.0,0.0,0.0,0.0,0.0,0.0,0.0,11.2,31.6,42.8
Remanso,82979,Remanso,Remanso - 82979,-9.633,-42.1,Norte,RPGA do Lago de Sobradinho,0.0,0.0,0.0,0.1,0.0,0.0,0.0,6.8,10.0,0.0,0.0,0.0,0.0,0.0,0.0,0.0,0.0,0.0,0.0,0.0,0.0,0.0,0.0,0.0,0.0,0.0,0.0,0.0,0.0,0.0,0.0,16.9
Delfino,A443,Umburanas,Umburanas (Delfino) - A443,-10.455,-41.207,Norte,RPGA do Rio Salitre,0.0,0.0,0.0,0.0,0.0,0.0,0.0,0.0,0.0,0.0,0.0,0.0,0.0,0.0,0.0,0.0,0.0,0.0,0.0,0.0,0.0,0.0,0.0,0.0,0.0,0.0,0.0,0.0,0.0,0.0,46.4,46.4
Remanso,A423,Remanso,Remanso - A423,-9.626,-42.077,Norte,RPGA do Lago de Sobradinho,0.0,0.0,0.0,0.2,0.0,0.0,0.0,7.2,50.4,0.0,0.0,0.0,0.0,0.0,0.0,0.0,0.0,0.0,0.0,0.0,0.0,0.0,0.0,0.0,0.0,0.0,0.0,0.0,0.0,0.0,0.0,57.8
Irecê,A424,Irecê,Irecê - A424,-11.329,-41.865,Norte,RPGA dos Rios Verde e Jacaré,0.0,0.0,0.0,0.0,0.0,0.0,0.0,0.0,0.0,0.0,0.0,0.0,0.0,0.0,0.0,0.0,0.0,0.0,0.0,0.0,0.0,0.0,0.0,0.0,0.0,0.0,0.0,0.0,0.0,15.6,10.0,25.6
Várzea Nova,SA-CL-02,Várzea Nova,Várzea Nova - SA-CL-02,-11.24,-40.936,Norte,RPGA do Rio Salitre,0.0,0.0,0.0,0.0,0.0,0.0,0.0,0.0,0.0,0.0,0.0,0.0,0.0,0.0,0.2,2.0,0.0,0.0,0.0,0.0,0.0,0.0,0.0,0.0,0.0,0.0,0.0,0.2,0.0,5.6,72.4,80.4
CODEVASF Salitre,MC-CL-01,Juazeiro,Juazeiro (CODEVASF Salitre) - MC-CL-01,-9.488,-40.613,Norte,RPGA dos Rios Macururé e Curaçá,0.0,0.0,0.0,0.0,0.0,0.0,0.0,0.0,19.0,0.0,0.0,0.0,0.0,0.0,0.0,0.0,0.0,0.0,0.0,0.0,0.0,0.0,0.0,0.0,0.0,0.0,0.0,0.0,0.0,0.0,8.6,27.6
Campo Formoso,IT-CL-02,Campo Formoso,Campo Formoso - IT-CL-02,-10.470999999999998,-40.334,Norte,RPGA do Rio Itapicuru,0.0,0.0,0.0,0.0,0.0,0.0,0.0,0.0,0.0,0.2,0.0,0.0,0.0,0.0,0.0,0.0,0.0,0.0,0.0,0.0,0.0,0.0,0.0,0.0,0.0,0.0,0.0,0.0,0.0,0.0,48.6,48.81
Sento Sé,SO-CL-01,Sento Sé,Sento Sé - SO-CL-01,-9.782,-41.818999999999996,Norte,RPGA do Lago de Sobradinho,0.0,0.0,0.0,0.0,0.0,0.0,0.0,0.0,31.4,0.0,0.0,0.0,0.0,0.0,0.0,0.0,0.0,0.0,0.0,0.0,0.0,0.0,0.0,0.0,0.0,0.0,0.0,0.0,0.0,0.0,1.0,32.4
Itaguaçu da Bahia,VJ-CL-03,Itaguaçu da Bahia,Itaguaçu da Bahia - VJ-CL-03,-10.955,-42.346000000000004,Norte,RPGA dos Rios Verde e Jacaré,0.0,0.0,0.0,0.2,0.0,0.0,0.0,1.4,4.2,0.0,0.0,0.0,0.0,0.0,0.0,0.0,0.0,0.0,0.0,0.0,0.0,0.0,0.0,0.0,0.0,0.0,0.0,0.0,0.0,0.4,22.6,28.8
Juazeiro,48020000,Juazeiro,Juazeiro - 48020000,-9.406,-40.504,Norte,RPGA dos Rios Macururé e Curaçá,0.0,0.0,0.0,0.0,0.0,0.0,0.0,0.0,6.0,0.0,0.0,0.0,0.0,0.0,0.0,0.0,0.0,0.0,0.0,0.0,0.0,0.0,0.0,0.0,0.0,0.0,0.0,0.0,0.0,0.0,11.4,17.4
Ibipeba,VJ-CL-02,Ibipeba,Ibipeba - VJ-CL-02,-11.627,-42.06399999999999,Norte,RPGA dos Rios Verde e Jacaré,0.0,0.0,0.0,0.0,0.0,0.0,0.0,0.2,0.0,0.0,0.0,0.0,0.0,0.0,0.0,0.0,0.0,0.0,0.0,0.0,0.0,0.0,0.0,0.0,0.0,0.0,0.0,0.0,0.0,4.0,8.4,12.61
Aeródromo,SA-PR-03,Campo Formoso,Campo Formoso (Aeródromo) - SA-PR-03,-10.49,-40.486999999999995,Norte,RPGA do Rio Itapicuru,0.0,0.0,0.0,0.0,0.0,0.0,0.0,0.0,0.0,0.0,0.0,0.0,0.0,0.0,0.6,0.0,0.0,0.0,0.0,0.0,0.0,0.0,0.0,0.0,0.0,0.0,0.0,0.0,0.0,0.0,29.0,29.6
Santa Rosa,SM-PR-01,Jaguarari,Jaguarari (Santa Rosa) - SM-PR-01,-10.097999999999999,-39.87,Norte,RPGA dos Rios Macururé e Curaçá,0.0,0.0,0.0,0.0,0.0,0.0,0.0,0.0,0.0,0.0,0.0,0.0,0.0,0.0,0.4,0.2,0.0,0.0,0.0,0.0,0.0,0.0,0.0,0.0,0.0,0.0,0.0,0.0,0.0,0.0,50.4,51.0
Jaguarari,IT-PR-28,Jaguarari,Jaguarari - IT-PR-28,-10.269,-40.2,Norte,RPGA do Rio Itapicuru,0.0,0.0,0.0,0.0,0.0,0.0,0.0,0.0,0.0,0.0,0.0,0.0,0.0,0.0,0.2,0.0,0.0,0.0,0.0,0.0,0.0,0.0,0.0,0.0,0.0,0.0,0.0,0.0,0.0,0.0,50.4,50.6
Mirangaba,IT-PR-29,Mirangaba,Mirangaba - IT-PR-29,-10.955,-40.575,Norte,RPGA do Rio Itapicuru,0.0,0.0,0.0,0.0,0.0,0.0,0.0,0.0,0.0,0.0,0.0,0.0,0.0,0.0,0.6,0.8,0.0,0.0,0.0,0.0,0.0,0.0,0.0,0.0,0.0,0.0,0.0,2.2,0.0,0.4,12.4,16.4
Arrojolândia,,Arrojolândia,Arrojolândia,-13.742,-45.466,Oeste,"RPGA do Rio Corrente e Riachos do Ramalho, Serra Dourada e Brejo Velho",0.0,0.0,4.4,5.2,0.0,2.8,0.0,0.0,2.2,0.0,0.0,0.0,0.0,0.0,0.0,0.0,0.0,0.0,0.0,0.0,0.0,0.0,0.4,0.0,0.0,0.4,0.2,0.0,0.0,0.0,6.4,22.0
Formosa do Rio Preto,A452,Formosa do Rio Preto,Formosa do Rio Preto - A452,-11.052,-45.201,Oeste,RPGA do Rio Grande,0.0,0.0,0.0,20.0,5.2,0.0,0.0,0.6,4.2,0.0,0.0,0.0,0.0,6.0,0.0,0.0,0.0,0.0,0.0,0.0,0.0,0.0,0.0,0.0,0.0,11.2,0.0,0.0,0.0,0.2,0.0,47.41
Nova Vida Montante,46590000,Barreiras,Barreiras (Nova Vida Montante) - 46590000,-11.868,-45.085,Oeste,RPGA do Rio Grande,0.0,0.0,0.0,15.8,0.0,0.0,4.8,1.4,4.6,0.0,0.0,0.0,0.0,0.0,0.0,0.0,0.0,3.2,0.0,0.0,0.0,0.0,0.0,0.0,6.2,10.8,0.0,0.0,0.0,8.2,0.0,55.0
Correntina,A416,Correntina,Correntina - A416,-13.332,-44.617,Oeste,"RPGA do Rio Corrente e Riachos do Ramalho, Serra Dourada e Brejo Velho",0.2,0.0,0.0,6.6,11.0,0.2,0.0,45.8,0.4,0.0,0.0,0.0,0.0,0.0,0.0,0.0,0.0,0.0,0.0,0.0,0.0,0.0,0.0,0.0,0.0,1.2,0.0,0.0,0.0,0.0,30.6,96.0
Derocal,46455000,São Desidério,São Desidério (Derocal) - 46455000,-12.413,-45.121,Oeste,RPGA do Rio Grande,6.4,0.0,8.2,4.6,0.0,0.0,0.0,0.0,10.8,2.6,0.0,0.0,0.0,0.0,0.0,0.0,0.0,0.2,0.0,0.0,0.0,0.0,0.0,0.0,0.0,9.6,0.0,0.0,1.6,3.8,0.0,47.81
Arrojado,45770000,Correntina,Correntina (Arrojado) - 45770000,-13.453,-44.568999999999996,Oeste,"RPGA do Rio Corrente e Riachos do Ramalho, Serra Dourada e Brejo Velho",2.8,0.0,0.0,0.6,19.4,0.0,0.0,46.0,0.4,0.0,0.0,0.0,0.0,0.0,0.0,0.0,0.0,0.0,0.0,0.0,0.0,0.0,0.0,0.0,0.0,0.2,0.0,0.0,0.2,0.0,9.2,78.81
Fazenda Redenção,46543000,Barreiras,Barreiras (Fazenda Redenção) - 46543000,-12.136,-45.103,Oeste,RPGA do Rio Grande,0.0,0.0,0.0,26.4,0.0,0.0,3.0,1.6,0.0,0.0,0.0,0.0,0.0,1.4,0.0,0.0,0.0,0.0,0.0,0.0,0.0,0.0,0.0,0.0,0.0,7.0,0.0,0.0,0.0,10.4,0.0,49.8
Fazenda Santa Luzia,CA-CL-01,Cocos,Cocos (Fazenda Santa Luzia) - CA-CL-01,-14.855,-45.93600000000001,Oeste,RPGA do Rio Carinhanha,0.0,0.8,0.2,0.0,0.0,0.0,2.6,16.2,0.0,0.0,7.6,0.2,0.0,0.0,0.0,0.0,0.0,0.0,0.0,0.0,0.0,0.0,0.0,0.0,0.0,1.8,0.0,0.0,0.0,0.0,0.0,29.4
Fazenda Porta do Céu,CT-CL-02,Jaborandi,Jaborandi (Fazenda Porta do Céu) - CT-CL-02,-14.116,-45.843999999999994,Oeste,"RPGA do Rio Corrente e Riachos do Ramalho, Serra Dourada e Brejo Velho",0.0,0.0,58.8,0.0,32.6,0.0,0.0,0.2,0.0,0.0,0.0,0.0,0.0,0.0,0.0,0.0,0.0,0.0,0.0,3.8,0.0,0.0,0.0,0.0,0.0,0.0,0.0,0.0,9.4,0.0,0.0,104.81
Fazenda Morinaga,CT-CL-01,Correntina,Correntina (Fazenda Morinaga) - CT-CL-01,-13.752,-45.87,Oeste,"RPGA do Rio Corrente e Riachos do Ramalho, Serra Dourada e Brejo Velho",0.0,0.0,49.4,56.0,39.2,0.0,0.0,5.0,0.0,1.0,11.6,0.0,0.0,0.0,0.0,0.0,0.0,0.0,1.2,5.4,0.0,0.0,0.0,0.0,0.0,12.4,0.0,0.0,0.0,1.8,40.0,223.01
Fazenda Decisão,GR-CL-05,São Desidério,São Desidério (Fazenda Decisão) - GR-CL-05,-12.762,-45.282,Oeste,RPGA do Rio Grande,0.0,0.0,0.0,0.0,0.0,0.4,1.0,0.6,0.0,0.0,0.0,0.0,0.0,0.0,0.0,0.0,0.0,0.0,2.6,0.0,0.0,0.0,0.0,0.0,0.0,7.8,0.0,0.0,0.4,0.0,0.0,12.8
Fazenda Madras,GR-CL-04,Riachão das Neves,Riachão das Neves (Fazenda Madras) - GR-CL-04,-11.63,-44.846000000000004,Oeste,RPGA do Rio Grande,0.0,0.0,0.0,8.6,0.0,0.0,0.0,5.4,19.8,2.4,0.0,0.0,0.8,0.0,0.0,0.0,0.0,0.2,0.0,0.0,0.0,0.0,0.0,0.0,0.0,47.2,0.0,0.0,0.8,2.8,8.2,96.2
Fazenda Barcelona,GR-CL-03,Formosa do Rio Preto,Formosa do Rio Preto (Fazenda Barcelona) - GR-CL-03,-11.591,-46.022,Oeste,RPGA do Rio Grande,2.4,0.0,0.0,1.8,0.0,0.0,0.0,17.2,34.6,2.2,0.0,0.0,0.0,0.0,0.0,0.0,0.0,0.0,4.0,0.0,0.0,0.0,0.0,0.0,0.0,17.8,0.0,0.0,0.0,2.0,0.0,82.0
PCH Pres. Goulart-J,45600000,Correntina,Correntina (PCH Pres. Goulart-J) - 45600000,-13.334000000000001,-44.621,Oeste,"RPGA do Rio Corrente e Riachos do Ramalho, Serra Dourada e Brejo Velho",0.0,0.0,0.0,8.0,12.75,0.0,0.0,68.25,0.25,0.0,0.0,0.0,0.0,0.0,0.0,0.0,0.0,0.0,0.0,0.0,0.0,0.0,0.0,0.0,0.0,1.5,0.0,0.0,0.0,0.0,38.0,128.75
PCH Pres. Goulart-M1,45588000,Correntina,Correntina (PCH Pres. Goulart-M1) - 45588000,-13.341,-44.641000000000005,Oeste,"RPGA do Rio Corrente e Riachos do Ramalho, Serra Dourada e Brejo Velho",0.75,0.0,0.0,6.75,6.25,0.0,0.0,75.5,0.25,0.0,0.0,0.0,0.0,0.0,0.0,0.0,0.0,0.0,0.0,0.0,0.0,0.0,0.0,0.0,0.0,2.0,0.0,0.0,0.0,0.0,36.75,128.25
PCH Sítio Grande-J,46453500,São Desidério,São Desidério (PCH Sítio Grande-J) - 46453500,-12.429,-45.153,Oeste,RPGA do Rio Grande,1.5,0.0,2.5,4.75,0.0,0.0,0.0,0.0,8.75,1.75,0.0,0.0,0.0,0.0,0.0,0.0,0.0,0.0,0.0,0.0,0.0,0.0,0.0,0.0,0.0,15.5,0.0,0.0,1.25,0.0,0.0,36.0
COACERAL,GR-CL-02,Formosa do Rio Preto,Formosa do Rio Preto (COACERAL) - GR-CL-02,-10.562000000000001,-45.693000000000005,Oeste,RPGA do Rio Grande,0.0,0.0,0.0,17.75,1.75,0.0,0.0,7.25,0.0,0.0,0.0,0.0,0.0,0.0,0.0,0.0,0.0,0.0,0.0,0.0,0.0,0.0,0.0,0.0,0.0,3.5,0.0,0.0,0.0,1.25,0.25,31.75
Barreiras,A402,Barreiras,Barreiras - A402,-12.125,-45.027,Oeste,RPGA do Rio Grande,0.0,0.0,0.0,11.0,0.2,0.0,0.4,3.4,1.0,0.0,0.0,0.0,2.8,0.0,0.0,0.0,0.0,0.6,0.0,1.6,0.0,0.0,0.0,0.0,0.0,12.6,0.0,0.0,0.0,22.2,0.0,55.8
Luís Eduardo Magalhães,A404,Luís Eduardo Magalhães,Luís Eduardo Magalhães - A404,-12.152000000000001,-45.83,Oeste,RPGA do Rio Grande,0.2,0.0,0.0,8.4,0.0,0.0,0.0,0.4,0.2,0.0,0.0,0.0,1.0,0.0,0.0,0.0,0.0,0.0,0.0,0.0,0.0,0.0,0.0,0.0,0.4,16.4,0.0,0.0,0.0,3.0,0.2,30.2
Fazenda Evandro,,Fazenda Evandro,Fazenda Evandro,-10.600999999999999,-45.823,Oeste,RPGA do Rio Grande,0.2,0.0,0.0,0.4,1.8,2.6,0.2,0.2,0.4,0.2,0.0,0.0,0.0,0.0,0.0,0.0,0.0,0.0,0.4,0.0,0.0,0.0,0.0,0.0,0.0,2.4,17.8,0.0,0.2,6.6,1.0,34.4
J. Zoológico,A401,Salvador,Salvador (J. Zoológico) - A401,-13.005999999999998,-38.506,Recôncavo,RPGA do Recôncavo Norte,0.0,0.0,0.0,0.0,0.0,0.0,0.0,0.0,0.0,6.0,0.0,0.0,0.0,2.4,3.6,5.4,0.2,0.0,0.2,4.2,1.6,0.2,0.0,0.0,0.0,0.0,3.2,0.4,0.2,0.0,14.4,42.0
Cruz das Almas,A406,Cruz das Almas,Cruz das Almas - A406,-12.675,-39.09,Recôncavo,RPGA do Rio Paraguaçu,0.0,0.0,0.0,0.0,0.0,0.0,0.0,0.0,0.0,1.4,0.0,0.2,0.0,0.0,6.6,6.6,0.2,0.2,0.0,0.0,0.0,0.0,0.0,0.0,0.0,0.2,3.0,2.6,0.2,0.6,1.6,23.41
Feira de Santana,A413,Feira de Santana,Feira de Santana - A413,-12.196,-38.967,Recôncavo,RPGA do Recôncavo Norte,0.0,0.0,0.0,0.0,0.0,0.0,0.0,0.0,0.0,1.4,0.0,0.0,0.0,0.0,5.4,0.6,0.2,0.0,0.0,0.0,0.0,0.0,0.0,0.0,0.0,0.0,0.6,4.4,0.0,2.2,3.2,18.0
Periperi,292740820A,Salvador,Salvador (Periperi) - 292740820A,-12.867,-38.458,Recôncavo,RPGA do Recôncavo Norte,0.0,0.0,0.0,0.0,0.0,0.0,0.0,0.0,1.0,0.8,0.0,0.0,0.0,0.0,7.2,7.4,2.4,0.0,0.8,0.0,0.0,0.0,0.0,0.0,0.0,1.2,4.8,5.0,6.8,0.2,55.8,93.4
Mussurunga,292740821A,Salvador,Salvador (Mussurunga) - 292740821A,-12.908,-38.44,Recôncavo,RPGA do Recôncavo Norte,0.0,0.0,0.0,0.0,0.0,0.0,0.0,0.0,0.0,0.2,0.0,0.0,0.0,0.8,8.4,10.2,0.2,0.0,1.2,0.4,0.4,0.0,0.0,0.4,0.0,0.0,5.4,5.6,1.2,0.0,115.6,150.0
Fazenda Coutos,292740822A,Salvador,Salvador (Fazenda Coutos) - 292740822A,-12.85,-38.461999999999996,Recôncavo,RPGA do Recôncavo Norte,0.0,0.0,0.0,0.0,0.0,0.0,0.0,0.0,1.0,0.4,0.0,0.0,0.0,0.0,6.8,7.4,1.0,0.0,1.8,0.0,0.0,0.0,0.0,0.0,1.2,0.6,0.6,7.4,4.6,0.2,59.2,92.21
Itapuã,292740819A,Salvador,Salvador (Itapuã) - 292740819A,-12.948,-38.37,Recôncavo,RPGA do Recôncavo Norte,0.0,0.0,0.0,0.0,0.0,0.0,0.0,0.0,0.0,5.0,0.0,0.0,0.0,0.0,7.2,12.8,0.2,0.0,0.0,0.6,0.0,0.0,0.0,0.0,0.0,0.0,2.8,6.6,0.4,0.2,116.0,151.8
Alagoinhas,83249,Alagoinhas,Alagoinhas - 83249,-12.148,-38.426,Recôncavo,RPGA do Recôncavo Norte,0.0,0.0,0.0,0.0,0.0,0.0,0.0,0.0,6.6,0.0,0.0,0.0,0.0,2.4,1.2,5.4,0.0,0.6,0.0,0.0,0.0,0.0,0.0,0.0,0.0,0.0,0.0,0.0,0.6,0.0,38.7,55.5
Tancredo Neves,292740823A,Salvador,Salvador (Tancredo Neves) - 292740823A,-12.945,-38.453,Recôncavo,RPGA do Recôncavo Norte,0.0,0.0,0.0,0.0,0.0,0.0,0.0,0.0,0.0,0.2,0.0,0.0,0.0,3.2,5.6,4.6,0.4,0.6,0.0,0.2,0.0,0.0,0.0,0.2,0.0,0.0,6.2,4.4,0.0,3.0,22.2,50.8
Polivalente,292860401A,Santo Amaro,Santo Amaro (Polivalente) - 292860401A,-12.552999999999999,-38.713,Recôncavo,RPGA do Recôncavo Norte,0.0,0.0,0.0,0.0,0.0,0.0,0.0,0.0,15.2,0.0,0.0,0.0,0.0,0.0,9.4,8.2,1.8,4.0,0.0,0.0,0.0,0.0,0.0,0.0,0.0,0.0,0.0,0.6,0.4,0.0,10.6,50.2
Povoado de Pedras,292860402A,Santo Amaro,Santo Amaro (Povoado de Pedras) - 292860402A,-12.55,-38.771,Recôncavo,RPGA do Recôncavo Norte,0.0,0.0,0.0,0.0,0.0,0.0,0.0,0.0,9.2,0.0,0.0,0.0,0.0,0.0,8.0,16.2,3.8,0.0,0.0,0.0,0.0,0.0,0.0,0.0,0.0,0.0,0.0,2.2,1.0,0.0,4.4,44.8
Camaçari,Tiririca,Camaçari,Camaçari - Tiririca,-12.512,-38.068000000000005,Recôncavo,RPGA do Recôncavo Norte,0.0,0.0,0.0,0.0,0.0,0.0,0.0,0.0,0.0,9.6,0.0,0.0,0.0,7.0,4.8,4.6,0.8,0.2,0.0,0.2,0.0,0.0,0.0,0.0,0.0,0.6,3.8,1.0,0.4,0.8,45.8,79.6
Estação Rádio Marinha,A456,Salvador,Salvador (Estação Rádio Marinha) - A456,-12.808,-38.496,Recôncavo,RPGA do Recôncavo Norte,0.0,0.0,0.0,0.0,0.0,0.0,0.0,0.2,3.0,1.0,0.0,0.0,0.0,0.8,4.6,10.4,2.2,0.2,0.0,1.0,0.0,0.0,1.2,0.0,0.0,0.0,0.8,4.4,3.6,0.0,6.6,40.0
Cruz das Almas,83222,Cruz das Almas,Cruz das Almas - 83222,-12.667,-39.083,Recôncavo,RPGA do Rio Paraguaçu,0.0,0.0,0.0,0.0,0.0,0.0,0.0,0.0,0.0,1.2,0.0,0.0,0.0,0.0,7.8,6.8,0.2,0.0,0.0,0.0,0.0,0.0,0.0,0.0,0.0,0.0,3.2,2.6,0.0,0.4,1.8,24.0
Cachoeira,290490201A,Cachoeira,Cachoeira - 290490201A,-12.607999999999999,-38.961,Recôncavo,RPGA do Rio Paraguaçu,0.0,0.0,0.0,0.0,0.0,0.0,0.0,0.0,0.2,2.4,0.0,0.0,0.0,0.0,9.8,1.4,0.8,0.0,0.0,0.0,0.0,0.0,0.0,0.0,0.0,0.0,5.0,9.0,1.0,1.0,4.2,34.81
Centro,291345701A,Igrapiúna,Igrapiúna (Centro) - 291345701A,-13.819,-39.141999999999996,Recôncavo,RPGA do Recôncavo Sul,0.0,0.0,0.0,0.2,0.0,0.0,0.0,0.6,0.6,0.0,0.0,0.0,0.0,1.2,10.2,13.2,3.0,3.2,0.6,10.4,0.6,0.0,1.6,0.2,14.4,6.6,2.0,5.2,3.4,0.8,4.6,82.61
São Félix,292900801A,São Félix,São Félix - 292900801A,-12.607000000000001,-38.97,Recôncavo,RPGA do Rio Paraguaçu,0.0,0.0,0.0,0.0,0.0,0.0,0.0,0.0,0.0,4.6,0.0,0.0,0.0,0.0,11.4,2.0,1.4,0.0,0.0,0.0,0.0,0.0,0.0,0.0,0.0,0.0,6.6,8.2,0.8,3.4,7.2,45.6
Góes Calmon,293070901A,Simões Filho,Simões Filho (Góes Calmon) - 293070901A,-12.78,-38.353,Recôncavo,RPGA do Recôncavo Norte,0.0,0.0,0.0,0.0,0.0,0.0,0.0,0.0,0.4,0.4,0.0,0.0,0.0,1.2,6.6,13.2,1.6,0.0,0.2,0.8,0.2,0.0,0.0,0.0,0.0,0.0,0.6,1.2,2.8,0.0,43.8,73.0
Centro,293070903A,Simões Filho,Simões Filho (Centro) - 293070903A,-12.788,-38.397,Recôncavo,RPGA do Recôncavo Norte,0.0,0.0,0.0,0.0,0.0,0.0,0.0,1.0,0.4,1.6,0.0,0.0,0.0,1.2,5.6,9.6,1.6,0.0,0.0,1.2,0.0,0.0,0.0,0.0,0.0,0.0,0.0,1.4,4.0,0.0,24.4,52.0
Amargosa,A434,Amargosa,Amargosa - A434,-13.009,-39.617,Recôncavo,RPGA do Recôncavo Sul,0.0,0.0,0.0,0.0,0.0,0.0,0.0,0.0,0.0,0.0,0.0,0.0,0.0,0.0,9.6,10.2,1.0,0.8,0.2,0.0,0.0,0.0,0.0,0.0,0.0,0.2,1.2,2.8,0.2,0.2,6.0,32.4
Valença,A444,Valença,Valença - A444,-13.344000000000001,-39.126999999999995,Recôncavo,RPGA do Recôncavo Sul,0.0,0.0,0.0,1.4,0.0,0.2,0.0,0.0,0.6,0.2,0.0,0.0,0.0,0.2,12.0,25.6,1.0,0.6,0.0,12.2,0.2,0.2,0.0,3.2,0.0,4.6,2.0,9.4,3.6,0.2,4.2,81.61
Ondina,83229,Salvador,Salvador (Ondina) - 83229,-13.005,-38.506,Recôncavo,RPGA do Recôncavo Norte,0.0,0.0,0.0,0.0,0.0,0.0,0.0,0.0,0.0,6.4,0.0,0.0,0.0,2.6,3.8,6.4,0.0,0.2,0.1,4.6,1.9,0.0,0.0,0.0,0.0,0.0,2.6,0.4,0.0,0.0,14.9,43.9
Feira de Santana,PG-PR-13,Feira de Santana,Feira de Santana - PG-PR-13,-12.267999999999999,-38.966,Recôncavo,RPGA do Rio Paraguaçu,0.0,0.0,0.0,0.0,0.0,0.0,0.0,0.0,0.0,0.4,0.0,0.0,0.0,0.0,1.6,1.4,0.0,0.0,0.0,0.0,0.0,0.0,0.0,0.0,0.0,0.0,0.2,1.0,0.0,0.2,41.8,46.6
Centro,292740802A,Salvador,Salvador (Centro) - 292740802A,-12.978,-38.516,Recôncavo,RPGA do Recôncavo Norte,0.0,0.0,0.0,0.0,0.0,0.0,0.2,0.0,0.0,0.0,0.0,0.0,0.0,0.4,1.97,2.76,1.38,1.19,0.0,5.92,0.0,0.0,0.0,0.0,0.0,0.0,2.37,2.96,0.2,0.0,16.94,36.3
Federação,292740803A,Salvador,Salvador (Federação) - 292740803A,-13.001,-38.510999999999996,Recôncavo,RPGA do Recôncavo Norte,0.0,0.0,0.0,0.0,0.0,0.0,0.0,0.0,0.0,2.56,0.0,0.0,0.0,3.35,4.4,4.72,0.0,0.6,0.0,2.16,0.79,0.0,0.0,0.0,0.0,0.0,0.79,2.17,0.0,0.0,23.06,44.6
Cabula,292740810A,Salvador,Salvador (Cabula) - 292740810A,-12.960999999999999,-38.461,Recôncavo,RPGA do Recôncavo Norte,0.0,0.0,0.0,0.0,0.0,0.0,0.0,0.0,0.0,2.76,0.62,0.0,0.0,0.79,4.33,3.54,5.51,1.18,0.0,0.79,0.2,0.0,0.0,0.0,0.0,0.0,3.94,1.38,0.2,0.0,32.27,57.51
Santo Estevão,PG-CL-08,Santo Estevão,Santo Estevão - PG-CL-08,-12.435,-39.211999999999996,Recôncavo,RPGA do Rio Paraguaçu,0.0,0.0,0.0,0.0,0.0,0.0,0.0,0.0,10.0,0.0,0.0,0.0,0.0,0.0,3.4,1.0,0.0,1.4,0.0,0.0,0.0,0.0,0.0,0.0,0.0,0.0,0.4,2.2,0.2,0.0,2.0,20.6
Caminho das Árvores,292740815A,Salvador,Salvador (Caminho das Árvores) - 292740815A,-12.977,-38.454,Recôncavo,RPGA do Recôncavo Norte,0.0,0.0,0.0,0.0,0.0,0.0,0.0,0.0,0.0,3.94,0.0,0.0,0.0,0.2,2.18,5.52,1.78,1.78,0.0,3.74,1.18,0.0,0.0,0.0,0.0,0.0,5.32,0.0,0.39,0.0,40.18,66.22
Águas Claras,292740808A,Salvador,Salvador (Águas Claras) - 292740808A,-12.894,-38.442,Recôncavo,RPGA do Recôncavo Norte,0.0,0.0,0.0,0.0,0.0,0.0,0.0,0.0,0.4,7.26,0.0,0.0,0.0,0.2,5.16,2.79,0.6,1.2,0.6,0.4,0.0,0.0,0.0,0.0,0.0,0.79,4.32,3.73,4.55,0.6,59.96,92.56
Alto do Peru,292740812A,Salvador,Salvador (Alto do Peru) - 292740812A,-12.939,-38.486,Recôncavo,RPGA do Recôncavo Norte,0.0,0.0,0.0,0.0,0.0,0.0,0.0,0.0,0.0,0.79,0.0,0.0,0.0,2.35,4.73,5.31,0.79,0.99,0.2,0.0,0.0,0.0,0.0,0.79,0.0,0.0,3.93,2.56,1.19,0.0,25.64,49.27
Cosme de Farias,292740816A,Salvador,Salvador (Cosme de Farias) - 292740816A,-12.979000000000001,-38.486,Recôncavo,RPGA do Recôncavo Norte,0.0,0.0,0.0,0.0,0.0,0.0,0.0,0.0,0.0,0.59,0.2,0.0,0.0,0.59,0.79,1.0,0.79,0.6,0.0,1.38,0.2,0.0,0.0,0.0,0.0,0.0,0.4,2.96,0.79,0.0,10.24,20.53
São Caetano,292740814A,Salvador,Salvador (São Caetano) - 292740814A,-12.94,-38.475,Recôncavo,RPGA do Recôncavo Norte,0.0,0.0,0.0,0.0,0.0,0.0,0.0,0.0,0.0,0.4,0.0,0.0,0.0,3.14,3.75,6.28,0.0,0.99,0.0,0.0,0.0,0.0,0.0,1.77,0.0,0.0,3.73,3.55,0.0,0.4,29.08,53.09
Pirajá,292740801A,Salvador,Salvador (Pirajá) - 292740801A,-12.899000000000001,-38.459,Recôncavo,RPGA do Recôncavo Norte,0.0,0.0,0.0,0.0,0.0,0.0,0.0,0.0,0.2,3.94,0.0,0.0,0.0,0.0,4.34,2.96,1.39,0.0,0.0,0.2,0.0,0.0,0.0,0.2,0.0,0.2,3.35,6.5,1.78,0.79,32.69,58.54
Rio Sena,292740805A,Salvador,Salvador (Rio Sena) - 292740805A,-12.890999999999998,-38.471,Recôncavo,RPGA do Recôncavo Norte,0.0,0.0,0.0,0.0,0.0,0.0,0.0,0.0,0.0,12.07,0.0,0.0,0.0,0.2,8.29,7.27,4.15,0.2,0.4,0.0,0.4,0.0,0.0,0.0,0.2,0.99,2.55,9.84,4.73,1.97,75.1,128.36
Valéria,292740817A,Salvador,Salvador (Valéria) - 292740817A,-12.864,-38.438,Recôncavo,RPGA do Recôncavo Norte,0.0,0.0,0.0,0.0,0.0,0.0,0.0,0.0,0.99,1.18,0.0,0.0,0.0,0.0,9.46,8.69,4.54,0.0,0.79,0.0,0.0,0.0,0.0,0.0,0.0,1.18,1.97,5.52,4.54,0.2,55.26,94.32
Monte Serrat,292740804A,Salvador,Salvador (Monte Serrat) - 292740804A,-12.931,-38.516999999999996,Recôncavo,RPGA do Recôncavo Norte,0.0,0.0,0.0,0.0,0.0,0.0,0.0,0.0,0.0,0.2,0.0,0.0,0.0,1.97,3.55,3.75,0.8,0.79,0.0,0.39,0.2,0.0,0.0,0.0,0.0,0.59,0.98,1.98,0.0,0.39,31.07,46.66
Centro,290650101A,Candeias,Candeias (Centro) - 290650101A,-12.67,-38.544000000000004,Recôncavo,RPGA do Recôncavo Norte,0.0,0.0,0.0,0.0,0.0,0.0,0.0,0.0,1.97,0.0,0.0,0.0,0.0,0.6,14.84,0.6,0.2,0.4,0.0,0.0,0.0,0.0,0.0,0.0,0.0,0.0,0.99,1.4,0.6,0.0,0.8,22.4
Sarandi,290650104A,Candeias,Candeias (Sarandi) - 290650104A,-12.671,-38.531,Recôncavo,RPGA do Recôncavo Norte,0.0,0.0,0.0,0.0,0.0,0.0,0.0,0.0,2.16,0.0,0.0,0.0,0.0,0.98,15.0,0.39,0.2,0.59,0.0,0.0,0.0,0.0,0.0,0.0,0.0,0.0,0.78,1.19,0.59,0.0,0.8,22.69
Areia Branca,291920706A,Lauro de Freitas,Lauro de Freitas (Areia Branca) - 291920706A,-12.841,-38.336999999999996,Recôncavo,RPGA do Recôncavo Norte,0.0,0.0,0.0,0.0,0.0,0.0,0.0,0.0,0.98,1.57,0.0,0.0,0.0,4.14,6.31,12.02,4.54,0.0,0.0,1.58,0.0,0.0,0.39,0.0,0.0,0.59,0.2,3.34,5.91,0.6,85.16,127.34
Vila Praiana,291920702A,Lauro de Freitas,Lauro de Freitas (Vila Praiana) - 291920702A,-12.901,-38.308,Recôncavo,RPGA do Recôncavo Norte,0.0,0.0,0.0,0.0,0.0,0.0,0.0,0.0,0.0,2.95,0.2,0.0,0.0,0.0,16.75,2.37,0.2,0.39,0.0,0.39,0.79,0.2,0.0,0.0,0.0,0.59,3.16,2.37,1.38,0.0,85.35,117.09
Portão,291920701A,Lauro de Freitas,Lauro de Freitas (Portão) - 291920701A,-12.87,-38.305,Recôncavo,RPGA do Recôncavo Norte,0.0,0.0,0.0,0.0,0.0,0.0,0.0,0.0,0.0,0.0,0.0,0.0,0.0,2.16,7.49,8.3,2.18,0.0,0.79,0.2,0.4,0.0,0.0,0.0,0.0,1.37,0.79,3.54,10.84,1.38,87.42,126.87
Muritiba,PG-PR-12,Muritiba,Muritiba - PG-PR-12,-12.618,-39.006,Recôncavo,RPGA do Rio Paraguaçu,0.0,0.0,0.0,0.0,0.0,0.0,0.0,0.0,0.8,8.4,0.0,0.0,0.0,0.6,12.0,3.2,0.0,0.0,0.0,0.0,0.0,0.0,0.0,0.0,0.0,0.0,4.6,9.8,1.0,0.4,6.4,47.2
Dois de Julho,291120401A,Gandú,Gandú (Dois de Julho) - 291120401A,-13.741,-39.483000000000004,Recôncavo,RPGA do Recôncavo Sul,0.0,0.0,0.0,0.0,0.0,0.0,0.0,0.2,0.2,0.0,6.9,0.0,0.0,0.0,11.81,2.2,4.34,0.2,0.0,2.56,0.42,0.0,0.0,0.0,1.38,7.14,0.79,0.99,14.99,0.79,0.8,55.71
Centro,292060101A,Maragogipe,Maragogipe (Centro) - 292060101A,-12.78,-38.917,Recôncavo,RPGA do Rio Paraguaçu,0.0,0.0,0.0,0.4,0.0,0.0,0.0,0.0,4.58,0.0,0.0,0.0,0.0,0.4,10.49,8.33,1.41,0.0,0.0,0.0,0.0,0.0,0.0,0.0,0.0,0.0,2.95,7.14,0.81,1.38,16.81,54.7
Rua São Roque,293290301A,Valença,Valença (Rua São Roque) - 293290301A,-13.363,-39.078,Recôncavo,RPGA do Recôncavo Sul,0.0,0.0,0.0,4.73,0.0,0.0,0.0,0.2,1.18,0.79,0.0,0.0,0.0,0.0,8.11,27.82,0.59,0.4,0.0,16.73,0.4,0.0,0.0,5.93,0.82,6.5,0.98,12.47,6.7,0.0,9.84,104.19
Amélia Rodrigues,RN-CL-03,Amélia Rodrigues,Amélia Rodrigues - RN-CL-03,-12.419,-38.777,Recôncavo,RPGA do Recôncavo Norte,0.0,0.0,0.0,0.0,0.0,0.0,0.0,0.0,0.0,2.2,0.0,0.0,0.0,0.0,11.6,5.2,1.4,0.0,0.0,0.0,0.0,0.0,0.0,0.0,0.0,0.0,1.4,1.0,0.8,0.4,3.0,27.0
Colônia Japonesa,RN-CL-04,Camaçari,Camaçari (Colônia Japonesa) - RN-CL-04,-12.489,-38.221,Recôncavo,RPGA do Recôncavo Norte,0.0,0.2,0.2,0.0,0.2,0.0,0.2,0.0,0.0,1.4,0.0,0.0,0.0,7.2,3.8,25.0,3.8,0.2,0.0,1.0,0.0,0.0,0.0,0.0,6.4,0.4,4.4,2.0,1.4,1.2,8.2,67.2
Abaeté,RN-CL-05,Salvador,Salvador (Abaeté) - RN-CL-05,-12.947000000000001,-38.359,Recôncavo,RPGA do Recôncavo Norte,2.2,0.0,0.0,0.0,0.0,0.0,0.0,0.0,0.0,2.8,0.0,0.0,0.0,0.2,6.2,9.0,0.0,0.0,0.0,2.6,0.0,0.0,0.0,0.6,0.2,0.0,4.6,6.4,0.2,2.2,111.0,148.2
Lauro de Freitas,RN-CL-09,Lauro de Freitas,Lauro de Freitas - RN-CL-09,-12.887,-38.297,Recôncavo,RPGA do Recôncavo Norte,0.0,0.0,0.0,0.0,0.0,0.0,0.0,0.0,0.0,7.4,0.0,0.0,0.0,0.0,7.4,7.8,2.8,0.0,2.8,0.2,3.0,0.0,0.0,0.0,0.0,1.6,1.4,3.2,4.6,1.8,67.0,111.0
São Francisco do Conde,RN-CL-07,São Francisco do Conde,São Francisco do Conde - RN-CL-07,-12.610999999999999,-38.681999999999995,Recôncavo,RPGA do Recôncavo Norte,0.0,0.0,0.0,0.0,0.0,0.0,0.0,0.0,3.6,0.0,0.0,0.0,0.0,0.0,16.4,4.6,0.0,0.0,0.0,0.0,0.0,0.0,2.0,0.0,0.0,0.2,0.4,4.4,0.2,0.0,1.4,33.2
CIA,293070902A,Simões Filho,Simões Filho (CIA) - 293070902A,-12.825,-38.409,Recôncavo,RPGA do Recôncavo Norte,0.8,0.0,0.0,0.0,0.0,0.0,0.0,0.0,0.2,5.0,0.0,0.0,0.0,2.2,5.6,8.8,8.0,2.4,0.0,0.0,0.0,0.0,0.0,0.0,0.0,0.0,0.8,1.6,2.0,0.2,0.6,38.2
PC Fazenda Jurema,51346050,Rafael Jambeiro,Rafael Jambeiro (PC Fazenda Jurema) - 51346050,-12.488,-39.698,Recôncavo,RPGA do Rio Paraguaçu,0.0,0.0,0.0,0.0,0.0,0.0,0.0,0.0,0.0,0.0,0.0,0.0,0.0,0.0,1.2,4.8,2.0,0.2,0.0,0.0,0.0,0.0,0.0,0.0,0.0,0.0,0.0,0.4,0.0,0.2,0.4,9.2
PC Argoim,51351000,Rafael Jambeiro,Rafael Jambeiro (PC Argoim) - 51351000,-12.587,-39.522,Recôncavo,RPGA do Rio Paraguaçu,0.0,0.0,0.0,0.0,0.0,0.0,0.0,0.0,0.4,0.0,0.0,0.0,0.0,0.0,0.2,11.6,0.2,0.0,0.0,0.0,0.0,0.0,0.0,0.0,0.0,0.0,0.0,1.0,0.4,0.0,9.2,23.0
PC Rio Paratigi,51370000,Santo Estevão,Santo Estevão (PC Rio Paratigi) - 51370000,-12.515,-39.383,Recôncavo,RPGA do Rio Paraguaçu,0.0,0.0,0.0,0.0,0.0,0.0,0.0,0.0,0.8,0.0,0.0,0.0,0.0,0.0,3.4,1.0,1.4,0.0,0.0,0.0,0.8,0.0,0.0,0.0,0.0,0.0,0.0,0.8,0.4,0.0,1.4,10.0
Feira de Santana,PC Rio Branco,Feira de Santana,Feira de Santana - PC Rio Branco,-12.232999999999999,-39.046,Recôncavo,RPGA do Rio Paraguaçu,0.0,0.0,0.0,0.0,0.0,0.0,0.0,0.0,0.0,5.6,0.0,0.0,0.0,0.0,1.0,1.0,0.0,0.0,0.0,1.4,0.0,0.0,0.0,0.0,0.0,0.0,0.0,0.2,0.0,0.6,4.6,14.4
Abaeté,RN-PR-01,Salvador,Salvador (Abaeté) - RN-PR-01,-12.945,-38.361,Recôncavo,RPGA do Recôncavo Norte,0.0,0.0,0.0,0.0,0.0,0.0,0.0,0.0,0.0,0.0,0.0,0.0,0.0,0.3,5.8,16.2,0.0,0.0,0.0,0.5,0.5,0.0,0.0,0.4,0.0,0.0,3.6,6.4,6.4,1.2,109.6,150.9
Cândido Sales,53620000,Cândido Sales,Cândido Sales - 53620000,-15.513,-41.236999999999995,Sudoeste,RPGA do Rio Pardo,0.0,0.0,10.0,0.2,0.2,0.0,0.0,23.6,5.2,0.2,0.0,0.0,0.0,0.0,3.6,0.8,2.4,0.0,0.0,0.0,0.0,0.0,0.0,0.0,0.0,0.0,0.0,0.2,0.0,0.0,0.0,46.41
Itiruçu,A407,Itiruçu,Itiruçu - A407,-13.526,-40.121,Sudoeste,RPGA do Recôncavo Sul,0.0,0.0,0.0,0.0,0.2,0.0,0.0,0.2,0.0,0.0,0.0,0.0,0.0,0.0,17.6,20.0,1.6,0.0,0.0,0.0,0.0,0.0,0.0,0.0,0.4,0.2,0.2,1.2,0.8,0.0,0.4,42.81
Vitória da Conquista,A414,Vitória da Conquista,Vitória da Conquista - A414,-14.886,-40.801,Sudoeste,RPGA do Rio Pardo,0.0,0.0,6.4,0.4,0.0,0.0,0.0,0.0,2.6,0.0,0.0,0.0,0.0,0.0,3.6,1.2,0.2,0.0,0.0,0.0,0.0,0.0,0.0,0.0,0.0,0.0,0.0,0.4,0.0,0.0,6.8,21.6
Ituaçu,83292,Ituaçu,Ituaçu - 83292,-13.812999999999999,-41.3,Sudoeste,RPGA do Rio de Contas,0.0,0.0,0.0,0.0,0.0,0.0,0.0,0.0,0.0,0.0,0.0,0.0,0.0,0.0,0.0,0.0,0.0,0.0,0.0,0.0,0.0,0.0,0.0,0.0,0.0,0.0,0.0,0.0,0.0,0.0,0.0,0.0
Lagoa,291760701A,Jaguaquara,Jaguaquara (Lagoa) - 291760701A,-13.523,-39.969,Sudoeste,RPGA do Recôncavo Sul,0.0,0.0,0.0,0.0,0.2,0.0,0.0,0.0,0.0,0.0,0.0,0.0,0.0,0.0,10.0,5.8,0.4,0.0,0.0,0.0,1.2,0.0,0.0,0.0,0.4,0.0,1.0,0.4,0.2,0.2,0.0,19.8
Entroncamento,291760702A,Jaguaquara,Jaguaquara (Entroncamento) - 291760702A,-13.51,-40.055,Sudoeste,RPGA do Recôncavo Sul,0.0,0.0,0.0,0.0,0.2,0.0,0.0,0.0,0.0,0.0,8.6,0.0,0.0,0.0,5.6,3.6,0.4,0.2,0.0,0.0,0.0,0.0,0.0,0.0,0.4,0.0,0.4,0.4,0.0,0.0,0.0,19.8
Vitória da Conquista,83344,Vitória da Conquista,Vitória da Conquista - 83344,-14.883,-40.8,Sudoeste,RPGA do Rio Pardo,0.0,0.0,6.1,0.0,0.0,0.0,10.0,0.0,2.5,0.0,0.0,0.0,0.0,0.0,2.3,1.3,0.0,0.0,0.0,0.0,0.0,0.0,0.0,0.0,0.0,0.0,0.0,0.0,0.0,0.0,6.9,29.1
Brumado,A433,Brumado,Brumado - A433,-14.182,-41.672,Sudoeste,RPGA do Rio de Contas,0.0,0.0,4.8,0.4,0.0,0.0,0.0,0.0,0.8,0.0,0.0,0.0,0.0,0.0,30.8,1.0,0.0,0.0,0.0,0.0,0.0,0.0,0.0,0.0,0.0,0.0,0.0,0.0,0.0,0.0,1.2,39.0
Ipiaú,A445,Ipiaú,Ipiaú - A445,-14.171,-39.693000000000005,Sudoeste,RPGA do Rio de Contas,0.0,0.0,0.0,0.0,1.6,0.0,0.0,0.0,2.8,0.0,0.4,0.0,0.0,0.6,8.8,9.4,1.4,0.2,0.0,0.0,2.8,0.0,0.0,0.0,5.0,5.6,8.4,6.4,0.2,0.0,21.2,74.8
Itapetinga,A446,Itapetinga,Itapetinga - A446,-15.245,-40.23,Sudoeste,RPGA do Rio Pardo,0.0,0.0,22.6,2.6,0.0,0.0,0.0,0.6,14.6,0.0,0.0,0.0,0.0,0.0,1.6,6.8,1.2,0.0,0.0,0.0,0.0,0.0,0.0,0.0,0.0,0.0,4.0,5.0,1.6,0.2,0.4,61.21
Anagé,CO-CL-01,Anagé,Anagé - CO-CL-01,-14.618,-41.15,Sudoeste,RPGA do Rio de Contas,0.0,0.0,0.75,21.0,0.25,0.0,0.0,1.0,6.25,0.0,0.0,0.0,0.0,0.0,0.25,0.0,0.0,0.0,0.0,0.0,0.0,0.0,0.0,0.0,0.0,0.5,0.0,0.0,9.25,0.0,1.5,40.75
Vitória da Conquista,Inhobim (ANA),Vitória da Conquista,Vitória da Conquista - Inhobim (ANA),-15.34,-40.934,Sudoeste,RPGA do Rio Pardo,0.0,0.0,66.0,0.2,0.0,0.0,0.0,90.6,12.4,0.0,0.0,0.0,0.0,0.2,8.6,0.6,3.8,0.0,0.0,0.0,0.0,0.0,0.0,0.0,0.0,0.0,0.0,2.2,0.4,0.0,19.6,204.6
Centro,293330701A,Vitória da Conquista,Vitória da Conquista (Centro) - 293330701A,-14.852,-40.839,Sudoeste,RPGA do Rio Pardo,0.0,0.0,18.16,0.0,0.0,0.0,0.0,0.0,1.6,0.0,0.0,0.0,0.0,0.0,1.19,0.4,0.0,0.0,0.0,0.0,0.4,0.0,0.0,0.0,0.0,6.89,0.0,0.0,0.0,0.0,9.27,37.91
Centro,291710201A,Itororó,Itororó (Centro) - 291710201A,-15.119000000000002,-40.065,Sudoeste,RPGA do Leste,0.0,0.0,0.2,0.4,0.0,0.0,0.0,0.0,8.26,0.0,0.0,0.0,0.0,0.0,20.47,9.28,0.4,0.59,0.0,0.0,0.2,0.0,0.0,0.0,0.4,3.95,0.2,7.28,12.81,4.54,0.4,69.39
Clerolândia,291640101A,Itapetinga,Itapetinga (Clerolândia) - 291640101A,-15.243,-40.221,Sudoeste,RPGA do Rio Pardo,0.0,0.0,18.53,3.35,0.0,0.0,0.0,0.2,14.97,0.2,0.0,0.0,0.0,0.0,0.99,5.52,0.2,0.2,0.0,0.0,0.0,0.0,0.0,0.0,0.0,0.2,3.73,3.94,0.79,0.2,0.98,54.01
Recreio,293330702A,Vitória da Conquista,Vitória da Conquista (Recreio) - 293330702A,-14.860999999999999,-40.841,Sudoeste,RPGA do Rio Pardo,0.0,0.0,13.99,0.2,0.0,0.0,0.0,0.0,1.59,0.2,0.0,0.0,0.0,0.0,1.39,0.2,0.0,0.0,0.0,0.0,0.4,0.0,0.0,0.0,0.0,11.71,0.0,0.0,0.0,0.0,6.29,35.97
Patagônia,293330704A,Vitória da Conquista,Vitória da Conquista (Patagônia) - 293330704A,-14.87,-40.863,Sudoeste,RPGA do Rio Pardo,0.0,0.0,18.33,0.82,0.0,0.0,0.0,0.0,1.78,0.0,0.0,0.0,0.0,0.0,1.18,0.2,0.0,0.0,0.0,0.0,0.59,0.0,0.0,0.0,0.0,0.0,0.0,0.0,0.0,0.0,4.74,27.64
Barcelar,293330705A,Vitória da Conquista,Vitória da Conquista (Barcelar) - 293330705A,-14.838,-40.856,Sudoeste,RPGA do Rio Pardo,0.0,0.0,9.91,0.0,0.0,0.0,0.0,0.0,1.2,0.0,0.0,0.0,0.0,0.0,1.58,0.4,3.16,0.0,0.0,0.0,0.42,0.0,0.0,0.0,0.0,1.78,0.0,0.0,0.0,0.0,7.52,25.98
Lomantão,293330703A,Vitória da Conquista,Vitória da Conquista (Lomantão) - 293330703A,-14.87,-40.827,Sudoeste,RPGA do Rio Pardo,0.2,0.0,11.84,0.2,0.2,0.0,0.0,0.0,2.01,0.0,0.0,0.0,0.0,0.0,1.59,0.2,0.0,0.0,0.0,0.0,0.0,0.0,0.0,0.0,0.0,0.79,0.0,0.0,0.0,0.0,6.68,23.71
Anagé,290120501C,Anagé,Anagé - 290120501C,-14.765999999999998,-41.138000000000005,Sudoeste,RPGA do Rio de Contas,0.0,0.0,8.8,0.0,0.0,0.0,0.0,0.0,0.0,0.0,0.0,0.0,0.0,0.0,0.0,0.0,1.0,0.0,0.0,0.0,0.0,0.0,0.0,0.0,0.0,7.4,0.0,0.0,0.0,0.0,9.8,27.01
Jaguaquara,RS-CL-01,Jaguaquara,Jaguaquara - RS-CL-01,-13.573,-39.941,Sudoeste,RPGA do Recôncavo Sul,0.0,0.0,0.0,0.0,0.25,0.0,0.0,0.0,0.25,0.0,0.0,0.0,0.0,0.0,6.5,11.5,1.75,0.0,0.0,0.0,0.0,0.0,0.0,0.0,0.75,0.75,2.0,2.5,0.0,0.0,1.75,28.0
Vitória da Conquista,PA-CL-01,Vitória da Conquista,Vitória da Conquista - PA-CL-01,-14.886,-40.801,Sudoeste,RPGA do Rio Pardo,0.0,0.0,6.25,0.25,0.0,0.0,0.0,0.0,2.25,0.0,0.0,0.0,0.0,0.0,2.75,0.75,0.0,0.0,0.0,0.0,0.0,0.0,0.0,0.0,0.0,0.0,0.0,0.0,0.0,0.0,6.5,18.75
Rio do Antônio,292680601C,Rio do Antônio,Rio do Antônio - 292680601C,-14.347999999999999,-42.185,Sudoeste,RPGA do Rio de Contas,0.0,0.0,0.0,0.0,0.0,0.0,0.0,0.0,0.0,0.0,0.0,0.0,0.0,0.0,0.0,0.0,0.0,0.0,0.0,0.0,0.0,0.0,0.0,0.0,0.0,0.0,0.0,0.0,0.0,0.0,0.0,0.0
Fz Nanci,53880000,Camacã,Camacã (Fz Nanci) - 53880000,-15.581,-39.521,Sul,RPGA do Rio Pardo,0.0,0.0,52.2,0.0,0.0,0.0,0.0,4.4,14.6,0.0,0.0,0.0,0.0,1.6,19.4,7.6,0.2,0.0,0.0,0.0,3.6,0.0,0.0,0.0,0.0,5.4,0.0,10.2,3.8,0.2,7.6,130.8
PCH Cach. da Lixa M,55354000,Jucuruçu,Jucuruçu (PCH Cach. da Lixa M) - 55354000,-17.067,-40.069,Sul,"RPGA dos Rios Peruípe, Itanhém e Jucuruçu",0.0,0.0,28.8,7.2,17.2,0.0,0.0,7.8,3.0,0.0,0.0,0.0,0.0,0.0,2.6,2.6,0.4,0.0,0.0,0.0,0.0,0.0,0.0,0.0,0.0,0.0,1.2,10.0,0.8,2.0,0.4,84.0
Caravelas,A405,Caravelas,Caravelas - A405,-17.739,-39.259,Sul,"RPGA dos Rios Peruípe, Itanhém e Jucuruçu",0.0,0.0,4.0,3.8,1.2,0.0,0.0,4.2,14.2,0.2,0.0,0.0,0.0,0.0,0.4,1.8,2.6,0.0,0.0,7.2,0.2,1.0,0.6,0.0,0.8,2.0,0.2,5.2,0.4,0.4,1.2,51.61
PCH Colino II M,55355600,Vereda,Vereda (PCH Colino II M) - 55355600,-17.070999999999998,-40.155,Sul,"RPGA dos Rios Peruípe, Itanhém e Jucuruçu",0.0,0.0,36.0,9.0,21.5,0.0,0.0,9.75,3.75,0.0,0.0,0.0,0.0,0.0,3.25,3.25,0.5,0.0,0.0,0.0,0.0,0.0,0.0,0.0,0.0,0.0,1.5,12.5,1.0,2.5,0.5,105.0
Itamaraju,A455,Itamaraju,Itamaraju - A455,-17.171,-39.588,Sul,"RPGA dos Rios Peruípe, Itanhém e Jucuruçu",0.0,0.0,13.4,3.2,7.4,0.0,0.0,9.2,24.0,0.0,0.0,0.0,0.0,0.0,0.0,2.8,3.2,0.0,0.0,0.0,0.0,0.0,0.0,0.0,0.0,0.6,0.6,3.0,0.4,0.0,1.6,69.4
Itajuípe,,Itajuípe,Itajuípe,-14.674000000000001,-39.376999999999995,Sul,RPGA do Leste,0.0,0.0,0.0,0.0,0.0,0.0,0.0,4.0,3.8,0.0,0.0,0.0,0.4,3.6,9.2,6.8,1.4,1.2,0.6,0.2,13.8,0.0,0.0,0.0,7.8,9.2,3.4,1.4,1.0,1.6,3.6,73.0
Canavieiras,83398,Canavieiras,Canavieiras - 83398,-15.667,-38.95,Sul,RPGA do Rio Pardo,0.0,0.0,0.0,0.0,0.0,0.0,0.0,15.8,0.0,0.0,0.0,0.0,0.0,4.4,26.8,8.2,7.3,0.0,0.0,0.0,2.1,0.0,0.0,1.3,0.0,7.8,2.8,22.6,0.0,0.0,6.1,105.2
Caravelas,83498,Caravelas,Caravelas - 83498,-17.739,-39.258,Sul,"RPGA dos Rios Peruípe, Itanhém e Jucuruçu",0.0,0.0,3.8,2.8,1.0,0.0,0.0,3.6,13.6,0.0,0.0,0.0,0.0,0.0,0.0,1.8,2.4,0.0,0.0,6.2,0.0,0.0,0.4,0.0,0.6,2.0,0.2,0.0,0.0,0.0,1.0,39.4
Barra do Rocha,290310201A,Barra do Rocha,Barra do Rocha - 290310201A,-14.209000000000001,-39.599000000000004,Sul,RPGA do Rio de Contas,0.0,0.0,0.0,0.0,0.0,0.0,0.0,0.4,10.4,0.4,8.4,0.2,0.0,0.8,6.4,6.6,1.0,0.0,0.0,0.0,3.8,0.0,0.0,0.0,6.4,4.2,3.6,1.0,3.0,0.0,0.6,57.2
Guaratinga,83446,Guaratinga,Guaratinga - 83446,-16.58,-39.78,Sul,"RPGA dos Rios dos Frades, Buranhém e Santo Antônio",0.0,0.0,41.6,0.0,18.5,0.0,0.0,35.6,1.7,0.0,0.0,0.0,0.0,0.0,2.7,2.2,1.6,0.0,0.0,0.0,0.0,0.0,0.0,0.0,0.0,0.0,17.2,0.6,2.2,0.0,0.2,124.11
Centro,290580001A,Camamu,Camamu (Centro) - 290580001A,-13.944,-39.103,Sul,RPGA do Recôncavo Sul,0.0,0.0,0.0,0.0,0.0,0.0,0.0,0.0,0.6,4.8,0.0,0.0,0.0,0.4,18.6,13.0,1.2,26.2,0.2,3.0,5.2,0.0,0.0,2.0,42.4,4.6,3.6,6.8,0.0,0.2,7.0,139.8
Novo Horizonte,291180801A,Guaratinga,Guaratinga (Novo Horizonte) - 291180801A,-16.583,-39.781,Sul,"RPGA dos Rios dos Frades, Buranhém e Santo Antônio",0.2,0.0,46.4,0.0,20.8,0.2,0.0,42.0,1.8,0.0,0.0,0.0,0.0,0.0,3.6,2.2,1.2,0.4,0.0,0.0,0.0,0.0,0.0,0.0,0.0,1.0,16.2,0.4,2.6,0.2,0.0,139.2
Passagem,291490101A,Itacaré,Itacaré (Passagem) - 291490101A,-14.280999999999999,-39.003,Sul,RPGA do Rio de Contas,0.0,0.0,0.0,0.0,0.0,0.0,0.0,0.8,0.4,3.8,0.6,0.0,0.0,4.6,9.8,15.6,9.6,2.2,0.0,1.4,3.2,1.4,0.0,0.0,14.6,2.0,4.0,6.6,3.2,0.2,23.8,107.8
Centro,291560101A,Itamaraju,Itamaraju (Centro) - 291560101A,-17.028,-39.535,Sul,"RPGA dos Rios Peruípe, Itanhém e Jucuruçu",0.0,0.0,14.8,7.4,2.8,0.2,0.0,9.8,26.0,0.0,0.0,0.0,0.0,0.0,1.4,3.6,5.2,0.0,0.0,0.0,0.0,0.0,0.0,0.0,0.0,0.6,1.2,2.2,0.2,0.0,4.0,79.4
Pau Brasil,292390201A,Pau Brasil,Pau Brasil - 292390201A,-15.460999999999999,-39.652,Sul,RPGA do Rio Pardo,0.0,0.0,8.8,1.8,0.8,0.0,0.0,4.6,47.2,0.0,0.0,0.0,0.0,0.8,14.2,17.0,1.0,0.0,0.0,0.0,0.0,0.0,0.0,0.0,0.0,1.2,4.2,7.6,1.4,2.2,9.2,122.01
Ribeira,292550101A,Prado,Prado (Ribeira) - 292550101A,-17.338,-39.232,Sul,"RPGA dos Rios Peruípe, Itanhém e Jucuruçu",0.0,3.6,8.2,7.6,3.0,0.0,0.0,6.4,3.0,0.0,0.0,0.0,0.0,0.4,1.8,9.0,6.0,0.0,0.0,10.4,0.0,0.0,0.0,0.0,0.0,2.0,2.0,0.0,0.0,0.2,1.2,64.8
Centro,292805901A,Santa Luzia,Santa Luzia (Centro) - 292805901A,-15.43,-39.333,Sul,RPGA do Leste,0.0,0.0,0.0,0.2,1.4,0.0,0.0,0.8,6.4,0.0,0.0,0.0,0.0,1.8,19.4,16.6,0.6,0.6,0.0,0.4,9.4,0.0,0.0,0.0,1.4,6.6,2.2,15.2,11.0,8.2,22.8,125.0
Maraú,A438,Maraú,Maraú - A438,-13.907,-38.972,Sul,RPGA do Recôncavo Sul,0.0,0.0,0.0,0.2,0.0,0.0,0.0,0.0,0.0,0.0,0.0,0.0,0.0,3.2,10.6,11.2,1.0,0.2,0.0,5.8,0.0,0.0,0.0,0.6,16.2,11.8,4.8,11.6,0.8,0.8,56.0,134.8
Una,A437,Una,Una - A437,-15.28,-39.091,Sul,RPGA do Leste,0.0,0.0,0.0,0.6,0.2,0.0,0.0,1.8,0.0,0.2,0.0,0.0,0.0,3.2,20.8,24.6,1.6,2.8,0.0,0.8,0.2,0.2,0.0,1.2,9.2,3.4,2.2,14.0,2.6,9.0,5.4,104.01
Porto Seguro,A427,Porto Seguro,Porto Seguro - A427,-16.389,-39.181999999999995,Sul,"RPGA dos Rios dos Frades, Buranhém e Santo Antônio",0.0,0.0,1.6,6.8,1.8,0.0,0.0,20.6,4.0,0.0,0.0,0.0,0.0,0.0,4.4,10.6,0.6,1.2,0.0,0.0,0.4,0.0,0.6,0.0,0.4,4.4,0.0,2.2,0.0,0.0,5.2,64.81
Abrolhos,A422,Caravelas,Caravelas (Abrolhos) - A422,-17.791,-39.228,Sul,"RPGA dos Rios Peruípe, Itanhém e Jucuruçu",0.2,0.0,0.2,0.4,0.0,0.0,0.0,0.4,0.0,0.0,0.0,0.0,0.0,0.0,3.0,1.2,0.2,0.2,0.0,0.0,0.0,0.0,0.0,0.0,0.0,0.0,0.0,1.2,0.0,0.2,0.4,7.61
Mascote,53950000,Mascote,Mascote - 53950000,-15.565999999999999,-39.303000000000004,Sul,RPGA do Rio Pardo,0.0,0.0,2.8,0.0,0.2,0.0,0.0,10.2,29.2,0.0,0.0,0.0,0.0,1.8,17.4,11.0,0.0,0.0,0.2,1.0,8.6,0.0,0.0,7.0,2.4,2.8,2.4,17.2,0.0,0.0,14.2,128.4
PCH Colino I J,55357000,Jucuruçu,Jucuruçu (PCH Colino I J) - 55357000,-17.082,-40.077,Sul,"RPGA dos Rios Peruípe, Itanhém e Jucuruçu",0.0,0.0,43.5,10.75,27.25,0.0,0.0,14.0,4.75,0.0,0.0,0.0,0.0,0.0,4.0,9.0,0.25,0.0,0.0,0.0,0.0,0.0,0.0,0.0,0.0,0.0,1.75,0.25,7.5,15.25,0.5,138.75
Eunápolis,FB-CL-01,Eunápolis,Eunápolis - FB-CL-01,-16.291,-39.58,Sul,"RPGA dos Rios dos Frades, Buranhém e Santo Antônio",0.0,0.0,11.5,2.0,3.25,0.0,0.0,8.0,33.75,0.0,0.0,0.0,0.0,0.0,5.25,4.75,2.0,0.0,0.0,0.0,0.0,0.0,0.0,2.5,0.0,0.0,0.5,0.75,0.5,3.0,9.75,87.5
Teixeira de Freitas,PJ-CL-01,Teixeira de Freitas,Teixeira de Freitas - PJ-CL-01,-17.576,-39.733000000000004,Sul,"RPGA dos Rios Peruípe, Itanhém e Jucuruçu",0.0,0.0,15.25,4.0,8.5,0.0,0.0,6.25,0.25,0.25,0.0,0.0,0.0,0.0,1.25,1.5,2.0,0.0,0.0,0.0,0.0,0.0,0.0,0.0,0.0,1.25,2.25,1.25,2.75,2.25,0.0,49.0
Itabuna,Fazenda Barra,Itabuna,Itabuna - Fazenda Barra,-14.9,-39.369,Sul,RPGA do Leste,0.0,0.0,0.0,0.0,0.0,0.0,0.0,2.6,22.2,0.0,0.0,0.0,0.0,0.8,7.8,5.0,3.0,0.2,0.0,0.0,22.8,0.0,0.0,0.0,0.6,8.4,8.6,0.6,5.8,0.0,8.2,96.6
Centro,290340901A,Belmonte,Belmonte (Centro) - 290340901A,-15.859000000000002,-38.878,Sul,RPGA do Rio Jequitinhonha,0.0,0.0,5.91,0.0,0.0,0.0,0.0,2.19,0.0,0.0,0.0,0.0,0.0,4.73,4.33,3.54,0.99,0.0,0.0,0.0,0.4,0.0,0.0,0.99,1.58,6.71,0.0,0.59,0.59,26.25,3.95,62.75
São João do Panelinha,290560202A,Camacan,Camacan (São João do Panelinha) - 290560202A,-15.375,-39.49,Sul,RPGA do Rio Pardo,0.0,0.0,0.0,0.0,0.0,0.0,0.0,7.69,13.59,0.0,0.0,0.0,0.0,0.0,15.6,13.83,6.9,0.0,0.0,0.0,1.58,0.0,0.0,0.0,1.58,3.36,1.39,8.34,11.85,0.2,12.6,98.51
Centro,290560203A,Camacan,Camacan (Centro) - 290560203A,-15.415999999999999,-39.494,Sul,RPGA do Rio Pardo,0.0,0.0,5.54,0.0,0.0,0.0,0.0,2.18,16.52,0.0,0.0,0.0,0.0,0.4,18.35,13.0,0.0,0.0,0.0,0.0,3.74,0.0,0.0,0.0,0.4,0.99,1.58,11.45,3.57,5.32,13.03,96.07
Conquista,291360601A,Ilhéus,Ilhéus (Conquista) - 291360601A,-14.797,-39.046,Sul,RPGA do Leste,1.01,0.0,0.0,0.0,0.0,0.0,0.0,0.0,4.13,0.0,0.0,0.0,0.0,8.66,10.64,6.31,2.75,0.2,0.0,1.78,25.04,0.0,0.0,1.18,0.59,5.91,4.54,3.35,0.2,0.0,19.28,95.58
Malhado,291360602A,Ilhéus,Ilhéus (Malhado) - 291360602A,-14.789000000000001,-39.049,Sul,RPGA do Leste,1.8,0.0,0.0,0.0,0.0,0.0,0.0,1.18,3.15,0.2,0.0,0.0,0.0,7.31,14.79,4.18,1.18,1.79,0.2,0.4,25.05,0.0,0.99,1.58,0.4,5.91,2.37,5.32,0.79,0.0,9.06,87.66
São Caetano,291480202A,Itabuna,Itabuna (São Caetano) - 291480202A,-14.806,-39.278,Sul,RPGA do Leste,0.0,0.0,0.0,0.0,0.0,0.0,0.0,10.84,7.28,0.0,0.0,0.0,0.0,1.61,9.05,18.75,1.39,2.98,0.0,0.0,20.9,0.0,0.0,0.0,3.74,4.36,10.48,7.5,1.39,2.36,9.25,111.88
Nova Ferradas,291480203A,Itabuna,Itabuna (Nova Ferradas) - 291480203A,-14.857000000000001,-39.347,Sul,RPGA do Leste,0.0,0.0,0.0,0.0,0.0,0.0,0.0,0.2,12.42,0.0,0.0,0.0,0.0,0.59,9.56,6.95,1.77,8.5,0.0,0.0,26.56,0.0,0.0,0.0,0.4,5.72,9.85,1.98,11.62,1.19,3.97,101.28
Planalto I,292110401A,Medeiros Neto,Medeiros Neto (Planalto I) - 292110401A,-17.365,-40.223,Sul,"RPGA dos Rios Peruípe, Itanhém e Jucuruçu",0.0,0.0,64.22,2.84,11.19,0.0,0.0,2.64,4.9,0.0,0.0,0.0,0.0,0.0,0.79,0.4,0.0,0.0,0.0,0.0,0.0,0.0,0.0,0.0,0.0,11.81,1.38,3.15,0.4,0.59,0.0,104.32
Centro,292300102A,Nova Viçosa,Nova Viçosa (Centro) - 292300102A,-17.893,-39.372,Sul,"RPGA dos Rios Peruípe, Itanhém e Jucuruçu",0.0,0.6,3.17,3.95,8.47,2.16,0.0,2.18,24.54,0.2,0.0,0.0,0.0,0.0,0.2,1.97,0.4,1.58,0.0,0.0,0.2,0.0,0.0,0.0,3.34,2.36,0.4,1.18,0.0,0.59,12.66,70.15
Posto da Mata,292300103A,Nova Viçosa,Nova Viçosa (Posto da Mata) - 292300103A,-17.896,-39.37,Sul,"RPGA dos Rios Peruípe, Itanhém e Jucuruçu",0.0,0.6,3.56,3.75,8.27,2.95,0.0,2.37,21.67,0.0,0.0,0.0,0.0,0.0,0.4,1.58,0.39,1.77,0.0,0.0,0.0,0.0,0.0,0.0,2.17,6.68,0.2,2.36,0.0,0.59,15.9,75.22
Areião,292530301A,Porto Seguro,Porto Seguro (Areião) - 292530301A,-16.441,-39.076,Sul,"RPGA dos Rios dos Frades, Buranhém e Santo Antônio",0.0,0.0,12.99,0.59,0.0,0.0,0.0,12.61,0.0,0.0,0.0,0.0,0.0,0.0,7.35,3.34,1.78,0.0,0.0,0.0,0.0,0.2,0.0,0.0,0.0,0.0,0.0,0.0,0.0,0.0,0.2,39.06
Paraguai,292530302A,Porto Seguro,Porto Seguro (Paraguai) - 292530302A,-16.41,-39.08,Sul,"RPGA dos Rios dos Frades, Buranhém e Santo Antônio",0.0,0.0,4.77,0.0,0.8,0.0,0.0,14.41,2.4,0.0,0.0,0.0,0.6,0.0,3.0,3.2,1.6,0.0,0.0,0.0,0.0,0.0,0.2,0.0,0.0,0.6,0.0,0.4,1.18,1.0,0.0,34.17
Trancoso,292530303A,Porto Seguro,Porto Seguro (Trancoso) - 292530303A,-16.595,-39.109,Sul,"RPGA dos Rios dos Frades, Buranhém e Santo Antônio",0.2,0.0,11.84,1.18,0.2,0.0,0.0,39.93,20.89,0.0,0.0,0.0,1.18,0.2,3.16,4.23,1.39,2.19,0.0,0.0,0.2,0.2,0.0,0.0,0.39,0.4,0.0,1.19,0.0,0.0,4.74,93.72
BR367km4,292770501A,Santa Cruz Cabrália,Santa Cruz Cabrália (BR367km4) - 292770501A,-16.320999999999998,-39.023,Sul,"RPGA dos Rios dos Frades, Buranhém e Santo Antônio",0.0,0.0,3.15,0.99,0.2,0.0,0.0,2.76,0.2,0.0,0.0,0.0,0.6,0.0,7.61,3.94,0.79,0.0,0.0,0.0,0.0,0.0,0.0,0.0,0.0,3.76,0.0,0.98,0.0,7.88,0.0,32.86
Estádio Municipal,291530401A,Itagimirim,Itagimirim (Estádio Municipal) - 291530401A,-16.089000000000002,-39.616,Sul,RPGA do Rio Jequitinhonha,0.0,0.0,11.47,0.2,15.93,0.0,0.0,2.38,8.7,0.2,0.0,0.0,0.0,0.0,7.94,0.6,0.0,0.0,0.0,0.0,0.2,0.0,0.0,0.0,0.2,0.2,0.0,0.6,14.59,0.2,0.0,63.42
Jusante,54945000,Itapebi,Itapebi (Jusante) - 54945000,-15.949000000000002,-39.523,Sul,RPGA do Rio Jequitinhonha,0.0,0.0,15.4,2.6,4.2,0.0,0.0,4.4,5.6,0.0,0.0,0.0,0.0,0.0,10.4,4.2,0.0,0.0,0.0,0.0,0.0,0.0,0.0,0.0,0.4,1.4,2.4,15.6,4.2,4.0,3.8,78.6
Morpará,46360000,Morpará,Morpará - 46360000,-11.558,-43.282,São Francisco,RPGA dos Rios Paramirim e Santo Onofre,0.0,0.0,0.0,0.0,0.0,0.0,0.0,3.2,0.4,0.0,0.0,0.0,0.0,0.0,0.0,0.0,0.0,0.0,0.0,0.0,0.0,0.0,0.0,0.0,0.0,3.4,0.0,0.0,0.0,5.4,29.0,41.4
Pilão Arcado,A449,Pilão Arcado,Pilão Arcado - A449,-10.004,-42.475,São Francisco,RPGA do Lago de Sobradinho,0.0,0.0,0.0,6.8,0.2,0.0,0.0,5.0,10.4,0.0,0.0,0.0,0.0,0.0,0.0,0.0,0.0,0.0,0.0,0.0,0.0,0.0,0.0,0.0,0.0,0.0,0.0,0.0,0.0,6.4,3.6,32.4
Bom Jesus da Lapa,83288,Bom Jesus da Lapa,Bom Jesus da Lapa - 83288,-13.251,-43.405,São Francisco,RPGA do Rio Carnaíba de Dentro,2.8,0.0,0.0,0.0,0.0,0.0,0.0,14.6,3.0,0.0,0.0,0.0,0.0,0.0,0.0,0.0,0.0,0.0,0.0,0.0,0.0,0.0,0.0,0.0,0.0,5.0,0.0,0.0,0.0,0.0,56.0,81.4
Santa Rita de Cássia,83076,Santa Rita de Cássia,Santa Rita de Cássia - 83076,-11.017000000000001,-44.516999999999996,São Francisco,RPGA do Rio Grande,0.0,0.0,0.2,13.8,0.0,0.0,0.0,10.0,10.0,0.0,0.0,0.0,0.0,0.0,0.0,0.0,0.0,0.0,2.5,0.0,0.0,0.0,0.0,0.0,0.0,0.0,0.0,0.0,0.0,2.0,0.0,38.5
Guanambí,A426,Guanambí,Guanambí - A426,-14.208,-42.75,São Francisco,RPGA do Rio Carnaíba de Dentro,0.0,0.0,0.0,0.0,0.0,0.0,0.0,0.0,11.4,0.0,0.0,0.0,0.0,0.0,0.0,0.0,0.0,0.0,0.0,0.0,0.0,0.0,0.0,0.0,0.0,0.0,0.0,0.0,0.0,0.0,0.0,11.4
Buritirama,A432,Buritirama,Buritirama - A432,-10.722999999999999,-43.651,São Francisco,RPGA do Rio Grande,0.0,0.0,0.0,5.6,0.0,0.0,0.0,32.4,0.2,0.0,0.0,0.0,0.0,0.0,0.0,0.0,0.0,0.0,0.0,0.0,0.0,0.0,0.0,0.0,0.0,0.0,0.0,0.0,0.0,2.2,0.0,40.41
Barra,A429,Barra,Barra - A429,-11.085,-43.138999999999996,São Francisco,RPGA do Rio Grande,0.0,0.0,0.0,6.4,0.2,0.0,0.0,1.8,1.4,0.0,0.0,0.0,0.0,0.0,0.0,0.0,0.0,0.0,0.0,0.0,0.0,0.0,0.0,0.0,0.0,0.0,0.0,0.0,0.0,17.0,6.6,33.4
Ibotirama,A439,Ibotirama,Ibotirama - A439,-12.193,-43.213,São Francisco,RPGA dos Rios Paramirim e Santo Onofre,0.0,0.0,0.0,0.0,0.0,0.0,0.0,3.8,2.6,0.0,0.0,0.0,0.0,0.0,0.0,0.0,0.0,0.0,0.0,0.0,0.0,0.0,0.0,0.0,0.4,0.2,0.0,0.0,0.2,1.8,10.6,19.6
Macaúbas,PM-CL-02,Macaúbas,Macaúbas - PM-CL-02,-13.08,-42.696000000000005,São Francisco,RPGA dos Rios Paramirim e Santo Onofre,0.0,0.0,0.0,28.2,0.0,0.0,0.0,0.8,25.0,0.0,0.0,0.0,0.0,0.0,0.0,0.0,0.0,0.0,0.0,0.0,0.0,0.0,0.0,0.0,1.2,0.0,0.0,0.0,20.8,0.4,17.0,93.4
Fz.P. Limpo,46870000,Mansidão,Mansidão (Fz.P. Limpo) - 46870000,-11.237,-43.951,São Francisco,RPGA do Rio Grande,0.0,0.0,0.0,31.0,0.4,0.0,0.0,15.6,9.2,0.2,0.0,0.0,0.0,0.0,0.0,0.0,0.0,0.0,0.0,0.0,0.0,0.0,0.0,0.0,0.0,0.0,0.0,0.0,0.0,22.6,0.2,79.2
Santa Maria da Vitória,45910001,Santa Maria da Vitória,Santa Maria da Vitória - 45910001,-13.401,-44.199,São Francisco,"RPGA do Rio Corrente e Riachos do Ramalho, Serra Dourada e Brejo Velho",20.8,0.0,0.0,0.2,0.0,0.0,0.0,40.0,6.2,0.2,0.0,0.0,0.0,0.0,0.0,0.0,0.0,0.0,0.0,0.0,0.0,0.0,0.0,0.0,0.0,1.4,0.0,0.0,0.0,0.0,1.0,69.81
Bom Jesus da Lapa,45480000,Bom Jesus da Lapa,Bom Jesus da Lapa - 45480000,-13.257,-43.435,São Francisco,"RPGA do Rio Corrente e Riachos do Ramalho, Serra Dourada e Brejo Velho",4.4,0.0,0.0,0.0,0.0,0.0,0.0,10.6,3.8,0.0,0.0,0.0,0.0,0.0,0.6,0.0,0.0,0.0,0.0,0.0,0.0,0.0,0.0,0.0,0.0,2.4,0.0,0.0,0.0,0.0,19.2,41.0
Barra,46998000,Barra,Barra - 46998000,-11.093,-43.14,São Francisco,RPGA do Rio Grande,0.0,0.0,0.0,5.0,0.2,0.0,0.0,2.0,1.6,0.0,0.0,0.0,0.0,0.0,0.0,0.0,0.0,0.0,0.0,0.0,0.0,0.0,0.0,0.0,0.0,0.0,0.0,0.0,0.0,10.0,5.2,24.0
Boqueirão,46902000,Mansidão,Mansidão (Boqueirão) - 46902000,-11.345,-43.826,São Francisco,RPGA do Rio Grande,0.0,0.0,0.0,7.4,0.0,0.0,0.0,1.6,0.2,0.0,0.0,0.0,0.0,0.0,0.0,0.0,0.0,0.0,0.0,0.0,0.0,0.0,0.0,0.0,0.0,7.0,0.0,0.0,0.0,25.0,2.8,44.0
Boquira,PM-PR-05,Boquira,Boquira - PM-PR-05,-12.81,-42.718,São Francisco,RPGA dos Rios Paramirim e Santo Onofre,0.0,0.0,0.0,0.8,0.0,0.0,0.0,0.6,0.0,0.0,0.0,0.0,0.0,0.0,0.0,0.0,0.0,0.0,0.0,0.0,0.0,0.0,0.0,0.0,2.4,0.4,0.0,0.0,0.8,0.0,42.2,47.2
Volta da Serra,CD-CL-02,Paratinga,Paratinga (Volta da Serra) - CD-CL-02,-12.575999999999999,-43.128,São Francisco,RPGA do Rio Carnaíba de Dentro,0.6,0.4,0.0,0.0,0.0,0.0,0.0,0.4,9.6,0.0,0.0,0.0,0.2,0.0,0.0,0.0,0.2,0.0,0.0,0.0,0.0,0.0,0.0,0.0,0.2,0.0,0.0,0.0,5.2,0.2,28.6,45.6
Xique-Xique,PM-CL-05,Xique-Xique,Xique-Xique - PM-CL-05,-10.825,-42.68899999999999,São Francisco,RPGA dos Rios Paramirim e Santo Onofre,0.0,0.0,0.0,0.0,0.0,0.0,0.0,0.2,0.0,0.0,0.0,0.0,0.0,0.0,0.0,0.0,0.0,0.0,0.0,0.0,0.0,0.0,0.0,0.0,0.0,0.0,0.0,0.0,0.0,0.6,0.0,0.8
Guanambi,291170901C,Guanambi,Guanambi - 291170901C,-14.212,-42.839,São Francisco,RPGA do Rio Carnaíba de Dentro,0.0,0.0,0.0,0.0,0.0,0.0,0.0,0.0,10.4,0.0,0.0,0.0,0.0,0.0,1.2,0.0,0.0,0.0,0.0,0.0,0.0,0.0,0.0,0.0,0.0,24.2,0.0,0.0,0.0,0.0,0.2,36.0
Licínio de Almeida,291940501C,Licínio de Almeida,Licínio de Almeida - 291940501C,-14.689,-42.503,São Francisco,RPGA do Rio de Contas,0.0,0.0,0.0,0.0,0.0,0.0,0.0,0.0,5.6,0.0,0.0,0.0,0.0,0.0,0.0,0.0,0.0,0.0,0.0,0.0,0.0,0.0,0.0,0.0,0.0,14.4,0.0,0.0,0.0,0.0,0.0,20.0
