nome_estacao,codigo,municipio,estacao,latitude,longitude,regiao,rpga,01_07_19,02_07_19,03_07_19,04_07_19,05_07_19,06_07_19,07_07_19,08_07_19,09_07_19,10_07_19,11_07_19,12_07_19,13_07_19,14_07_19,15_07_19,16_07_19,17_07_19,18_07_19,19_07_19,20_07_19,21_07_19,22_07_19,23_07_19,24_07_19,25_07_19,26_07_19,27_07_19,28_07_19,29_07_19,30_07_19,31_07_19,total
Itaberaba,A408,Itaberaba,Itaberaba - A408,-12.524062,-40.299714,Chapada Diamantina,RPGA do Rio Paraguaçu,0.2,0.0,0.0,0.0,0.6,0.0,0.0,4.0,0.0,0.0,0.0,0.0,0.0,0.0,0.0,0.0,0.0,0.0,0.0,0.6,4.2,4.2,1.6,1.0,0.4,4.0,12.6,1.4,3.2,3.8,0.0,41.8
Macajuba,A412,Macajuba,Macajuba - A412,-12.131694,-40.354222,Chapada Diamantina,RPGA do Rio Paraguaçu,0.2,0.2,0.0,0.0,0.0,0.0,0.0,1.4,0.0,0.0,0.2,0.2,0.0,0.0,0.0,0.0,0.0,1.4,0.2,2.2,5.8,9.2,8.4,5.0,0.2,3.4,3.0,2.0,2.8,2.6,0.0,48.4
Morro do Chapéu,83184,Morro do Chapéu,Morro do Chapéu - 83184,-11.216667,-41.216667,Chapada Diamantina,RPGA do Rio Salitre,0.4,0.0,0.0,0.0,0.0,0.5,0.8,0.4,0.1,0.0,0.0,0.0,0.0,0.0,0.0,0.0,0.0,0.1,0.0,0.2,3.2,2.4,8.2,1.2,2.1,2.5,5.6,1.0,6.9,2.2,0.5,38.31
Piatã,A430,Piatã,Piatã - A430,-13.155681,-41.774125,Chapada Diamantina,RPGA do Rio de Contas,0.2,0.0,0.0,0.0,0.0,0.0,0.0,0.8,0.0,0.0,0.0,0.0,0.0,0.2,0.0,0.0,0.0,0.6,0.0,3.0,7.6,2.2,2.2,2.6,0.0,2.0,3.0,1.4,1.0,4.8,0.0,31.6
Iaçu,51280000,Iaçu,Iaçu - 51280000,-12.7622,-40.2136,Chapada Diamantina,RPGA do Rio Paraguaçu,0.0,0.0,0.2,0.0,0.0,0.0,0.0,1.2,0.0,0.0,0.0,0.0,0.0,0.0,0.0,0.0,0.0,0.0,0.0,0.0,4.8,1.6,1.0,2.8,0.0,0.6,3.8,0.0,3.2,0.6,0.0,19.8
Lençóis,A425,Lençóis,Lençóis - A425,-12.557854,-41.388808,Chapada Diamantina,RPGA do Rio Paraguaçu,0.0,0.0,0.0,0.0,0.0,1.0,147.2,5.2,0.0,0.0,0.0,0.0,0.0,0.0,0.0,0.0,0.0,0.0,0.0,0.8,11.0,4.0,3.6,1.4,0.4,2.6,3.6,0.8,4.6,5.0,0.0,191.2
Lagoa Bonita,PG-PR-15,Iacú,Iacú (Lagoa Bonita) - PG-PR-15,-12.931506,-40.226468,Chapada Diamantina,RPGA do Rio Paraguaçu,0.0,0.0,0.0,0.0,0.0,0.0,0.0,1.0,0.0,0.0,0.0,0.0,0.0,0.0,0.0,0.0,0.0,0.0,0.0,0.0,1.4,0.0,0.0,2.0,0.0,1.0,0.8,0.0,2.4,0.4,0.0,9.0
João Amaro,PG-PR-16,Iaçu,Iaçu (João Amaro) - PG-PR-16,-12.800391,-40.363139,Chapada Diamantina,RPGA do Rio Paraguaçu,0.0,0.0,0.0,0.0,0.0,0.0,0.0,11.4,0.0,0.0,0.0,0.0,0.0,0.0,0.0,0.0,0.0,0.0,0.0,0.0,3.4,0.8,2.2,1.4,0.2,1.6,5.6,0.2,2.4,0.0,0.0,29.2
Guiné,PG-PR-24,Mucugê,Mucugê (Guiné) - PG-PR-24,-12.771772,-41.540679,Chapada Diamantina,RPGA do Rio Paraguaçu,0.0,0.0,0.0,0.0,0.0,15.0,0.2,4.8,0.0,0.0,0.0,0.0,0.0,0.0,0.0,0.0,0.0,0.0,0.0,2.4,8.8,4.4,3.8,0.8,0.0,1.2,3.4,3.2,1.2,0.4,0.0,49.6
Machado Portela,PG-PR-26,Marcionílio Souza,Marcionílio Souza (Machado Portela) - PG-PR-26,-13.153732,-40.768155,Chapada Diamantina,RPGA do Rio Paraguaçu,0.0,0.0,0.0,0.0,0.0,0.0,0.0,0.2,0.0,0.0,0.0,0.0,0.0,0.0,0.0,0.0,0.0,0.0,0.0,0.0,4.2,3.4,0.4,0.0,0.0,1.4,0.2,0.8,0.6,1.6,0.0,12.8
Mulungu do Morro,,Mulungu do Morro,Mulungu do Morro,-11.980363,-41.619012,Chapada Diamantina,RPGA do Rio Paraguaçu,0.4,0.0,0.0,0.0,0.0,7.0,0.2,0.0,0.0,0.0,0.0,0.0,0.0,0.0,0.0,0.0,0.0,0.0,0.0,0.4,0.4,0.4,1.8,0.2,0.2,1.0,3.4,0.0,0.8,0.2,0.0,16.4
Rio do Pires,PM-CL-04,Rio do Pires,Rio do Pires - PM-CL-04,-13.11695,-42.28411,Chapada Diamantina,RPGA dos Rios Paramirim e Santo Onofre,0.0,0.0,0.0,0.0,0.0,0.0,0.0,0.0,0.0,0.4,0.0,0.0,0.0,0.0,0.0,0.0,0.0,0.0,0.0,0.0,0.0,0.0,0.0,0.0,0.0,0.0,0.0,0.0,0.0,0.0,0.0,0.4
Barro Alto,,Barro Alto,Barro Alto,-11.769188,-41.909464,Chapada Diamantina,RPGA dos Rios Verde e Jacaré,0.0,0.0,0.0,0.0,0.0,0.0,0.0,0.0,0.0,0.0,0.0,0.0,0.0,0.0,0.0,0.0,0.0,0.0,0.0,0.0,0.0,0.0,0.0,0.0,0.0,0.0,0.0,0.0,0.0,0.0,0.0,0.0
Seabra,PG-CL-09,Seabra,Seabra - PG-CL-09,-12.39971,-41.78893,Chapada Diamantina,RPGA do Rio Paraguaçu,0.0,0.0,0.0,0.0,0.0,0.0,0.0,0.0,0.0,0.0,0.0,0.0,0.0,0.0,0.0,0.0,0.0,0.0,0.0,0.0,0.0,0.0,0.0,0.0,0.0,0.0,0.2,0.0,0.0,0.0,0.0,0.2
Canarana,,Canarana,Canarana,-11.69541,-41.78921,Chapada Diamantina,RPGA dos Rios Verde e Jacaré,0.0,0.0,0.0,0.0,0.0,0.8,0.4,0.0,0.0,0.0,0.0,0.0,0.0,0.0,0.0,0.0,0.0,0.0,0.0,0.0,0.0,0.0,0.0,0.0,0.0,0.0,0.8,0.2,0.0,0.0,0.0,2.2
Iaçu,PG-CL-05,Iaçu,Iaçu - PG-CL-05,-12.9114,-40.03177,Chapada Diamantina,RPGA do Rio Paraguaçu,0.0,0.0,0.0,0.0,0.0,0.0,0.0,0.2,0.0,0.0,0.0,0.0,0.0,0.0,0.0,0.0,0.0,0.0,0.0,0.0,2.6,0.8,0.6,3.0,0.4,2.6,2.4,0.4,0.2,0.2,0.0,13.4
Barra dos Mendes,,Barra dos Mendes,Barra dos Mendes,-11.805077,-42.05708,Chapada Diamantina,RPGA dos Rios Verde e Jacaré,0.0,0.0,0.0,0.0,0.0,1.6,1.6,4.0,0.0,0.0,0.0,0.0,0.0,0.0,0.0,0.0,0.0,0.0,0.0,0.0,0.0,0.0,0.0,0.0,0.0,0.0,1.0,0.4,0.0,0.0,0.0,8.6
Olho D'Água do Francisco,,Olho D'Água do Francisco,Olho D'Água do Francisco,-12.307034,-42.079028,Chapada Diamantina,RPGA dos Rios Verde e Jacaré,0.2,0.0,0.0,0.0,0.0,0.0,0.6,0.0,0.0,0.0,0.0,0.0,0.0,0.0,0.0,0.0,0.0,0.0,0.0,0.0,1.2,0.2,0.6,0.4,0.2,0.0,6.8,1.2,0.2,0.2,0.2,12.0
Ibiaporã,PG-CL-01,Mundo Novo,Mundo Novo (Ibiaporã) - PG-CL-01,-12.05379,-40.83722,Chapada Diamantina,RPGA do Rio Paraguaçu,1.8,0.2,0.2,0.0,0.0,0.0,0.0,0.8,0.0,0.0,0.0,0.0,0.0,0.0,0.0,0.0,0.0,0.2,0.2,3.6,7.2,9.2,11.2,6.6,0.4,5.4,9.6,1.0,1.8,7.0,0.0,66.4
Marcionílio Souza,PG-CL-03,Marcionílio Souza,Marcionílio Souza - PG-CL-03,-13.00021,-40.537783,Chapada Diamantina,RPGA do Rio Paraguaçu,0.0,0.0,0.0,0.0,0.0,0.0,0.0,10.8,0.0,0.0,0.0,0.0,0.0,0.0,0.0,0.0,0.0,0.0,0.0,0.0,2.8,1.8,0.4,0.2,0.0,0.2,0.0,0.0,2.4,0.4,0.0,19.0
Mucugê,PG-PR-28,Mucugê,Mucugê - PG-PR-28,-13.07667,-41.43772,Chapada Diamantina,RPGA do Rio Paraguaçu,0.0,0.0,0.0,0.0,0.0,0.0,0.2,1.0,0.0,0.0,0.0,0.0,0.0,0.0,0.0,0.0,0.0,0.0,0.0,0.0,0.0,0.0,0.0,0.0,0.0,0.0,0.0,0.0,0.0,0.0,0.0,1.2
Seabra,PG-PR-01,Seabra,Seabra - PG-PR-01,-12.428149,-41.770409,Chapada Diamantina,RPGA do Rio Paraguaçu,0.0,0.0,0.0,0.0,0.0,0.0,0.0,3.6,0.0,0.0,0.0,0.0,0.0,0.0,0.0,0.0,0.0,0.0,0.0,0.0,4.2,1.0,1.0,2.4,0.0,0.2,6.0,1.6,1.2,0.0,0.0,21.2
Iraquara,PG-PR-02,Iraquara,Iraquara - PG-PR-02,-12.255093,-41.61679,Chapada Diamantina,RPGA do Rio Paraguaçu,0.2,0.0,0.0,0.0,0.0,5.0,8.4,1.8,0.0,0.0,0.0,0.0,0.0,0.0,0.0,0.0,0.0,0.0,0.0,0.0,5.4,1.0,0.4,0.8,0.2,1.4,5.2,1.8,2.0,0.0,0.0,33.6
Baixa Grande,PG-PR-08,Baixa Grande,Baixa Grande - PG-PR-08,-11.908701,-40.183683,Chapada Diamantina,RPGA do Rio Paraguaçu,0.4,0.0,0.0,0.0,0.0,0.0,0.0,4.0,0.0,0.0,0.0,0.0,0.0,0.0,0.0,0.2,0.0,9.2,1.4,16.2,9.4,7.6,9.2,2.4,0.2,6.0,2.6,2.0,4.2,7.0,0.2,82.2
Ventura,PG-PR-10,Morro do Chapéu,Morro do Chapéu (Ventura) - PG-PR-10,-11.650911,-40.951765,Chapada Diamantina,RPGA do Rio Paraguaçu,0.4,0.0,0.0,0.0,0.0,0.2,0.4,0.0,0.0,0.0,0.0,0.0,0.0,0.0,0.0,0.0,0.0,0.2,0.0,1.2,2.8,3.2,6.6,3.6,0.8,2.0,4.0,0.8,2.0,0.8,0.0,29.0
Bonito,PG-PR-11,Bonito,Bonito - PG-PR-11,-11.98993,-41.25429,Chapada Diamantina,RPGA do Rio Paraguaçu,1.6,2.2,0.2,0.0,0.0,0.6,0.2,6.2,0.8,0.0,0.0,0.0,0.0,0.0,0.0,0.0,0.0,0.2,0.6,12.6,15.6,12.4,15.6,7.4,3.2,8.2,19.8,4.0,7.4,13.2,0.2,132.2
Piatã,CO-CL-04,Piatã,Piatã - CO-CL-04,-13.164166,-41.770833,Chapada Diamantina,RPGA do Rio de Contas,0.0,0.0,0.0,0.0,0.0,0.0,0.0,1.25,0.0,0.0,0.0,0.0,0.0,0.0,0.0,0.0,0.0,1.0,0.5,1.5,10.0,2.5,3.25,2.25,0.0,2.5,2.75,2.25,3.5,9.75,0.0,43.0
Cipó,83192,Cipó,Cipó - 83192,-11.083333,-38.516667,Nordeste,RPGA do Rio Itapicuru,0.6,0.0,3.2,0.0,0.0,0.0,0.0,15.2,4.6,1.8,4.2,0.0,11.4,1.6,1.0,8.9,0.0,0.0,5.8,1.2,0.0,3.0,2.3,0.0,0.0,3.0,0.0,9.8,7.2,6.6,0.6,92.0
Jacobina,83186,Jacobina,Jacobina - 83186,-11.172778,-40.534167,Nordeste,RPGA do Rio Itapicuru,3.2,0.0,0.1,0.0,0.0,0.0,0.0,1.4,1.1,0.0,0.0,0.0,0.0,0.0,0.0,0.0,0.0,0.0,0.0,1.9,3.7,1.8,1.1,0.1,0.6,2.4,0.0,2.6,4.0,0.1,0.0,24.11
Monte Santo,83090,Monte Santo,Monte Santo - 83090,-10.4425,-39.331111,Nordeste,RPGA do Rio Itapicuru,1.9,2.3,0.0,0.0,0.0,0.0,0.0,14.6,7.2,5.2,2.8,0.0,4.4,3.1,0.0,0.0,0.0,0.0,4.4,3.8,0.0,3.1,0.0,0.8,0.3,0.0,0.0,1.9,8.4,6.3,1.6,72.1
Conde,A431,Conde,Conde - A431,-12.03622,-37.68322,Nordeste,RPGA do Rio Itapicuru,3.6,5.4,0.0,0.0,0.0,0.0,0.0,42.2,3.4,3.8,1.2,0.0,20.2,0.4,3.2,0.2,0.0,3.4,6.0,2.4,2.8,3.8,5.8,1.4,1.6,0.0,3.0,32.4,0.0,16.4,0.0,162.61
Uauá,A435,Uauá,Uauá - A435,-9.833617,-39.495631,Nordeste,RPGA do Rio Vaza-Barris,1.4,0.0,0.0,0.0,0.0,0.0,0.0,7.0,4.6,1.0,1.6,0.4,6.8,0.6,0.0,0.0,0.0,0.0,1.2,0.8,0.0,0.6,0.0,0.0,0.6,2.4,0.0,0.2,0.8,0.0,0.2,30.21
Euclides da Cunha,A442,Euclides da Cunha,Euclides da Cunha - A442,-10.537233,-38.996605,Nordeste,RPGA do Rio Itapicuru,1.0,3.6,0.0,0.0,0.2,0.0,0.0,21.0,16.8,7.6,10.4,0.2,12.4,1.0,1.4,2.0,0.0,0.2,3.2,4.0,1.0,4.0,0.2,0.0,1.4,0.0,2.2,7.0,3.0,9.8,0.2,113.81
Queimadas,A436,Queimadas,Queimadas - A436,-10.984645,-39.617009,Nordeste,RPGA do Rio Itapicuru,0.2,2.8,0.2,0.0,0.0,0.0,0.0,15.6,3.0,0.0,0.0,0.0,3.2,0.0,0.0,3.6,0.0,0.4,0.8,0.2,0.2,4.8,0.8,0.0,0.0,0.4,0.0,1.6,6.0,3.0,1.6,48.4
Jacobina,A440,Jacobina,Jacobina - A440,-11.205136,-40.464979,Nordeste,RPGA do Rio Itapicuru,0.0,0.0,0.0,0.0,0.0,0.0,0.0,0.0,0.0,0.0,0.0,0.0,0.0,0.0,0.0,0.0,0.0,0.0,0.0,0.0,0.0,0.0,0.0,0.0,0.0,0.0,0.0,0.2,0.0,0.2,0.8,1.21
Serrinha,A441,Serrinha,Serrinha - A441,-11.664586,-39.022946,Nordeste,RPGA do Rio Paraguaçu,0.0,0.6,0.2,0.0,0.0,0.0,0.0,18.8,3.8,2.2,0.0,0.2,2.4,0.0,1.8,2.2,0.2,4.4,4.0,1.8,2.8,4.0,3.8,1.0,1.8,5.4,0.6,5.0,2.0,6.2,0.0,75.2
Senhor do Bonfim,A428,Senhor do Bonfim,Senhor do Bonfim - A428,-10.443072,-40.148244,Nordeste,RPGA do Rio Itapicuru,1.4,0.2,2.2,0.0,0.0,0.0,0.0,12.8,10.2,3.2,0.0,0.0,4.2,2.8,0.0,1.0,0.0,0.0,4.8,1.0,1.4,1.4,0.2,0.2,0.4,0.4,0.2,2.8,15.2,4.0,1.8,71.8
Pedras Altas,50430000,Capim Grosso,Capim Grosso (Pedras Altas) - 50430000,-11.18288,-40.04725,Nordeste,RPGA do Rio Itapicuru,0.0,0.0,0.0,0.0,0.0,0.0,0.0,3.6,1.2,0.0,0.0,0.0,0.0,0.0,0.0,0.0,0.0,2.6,0.8,1.6,2.2,2.0,3.8,0.2,0.0,3.2,0.2,0.8,2.0,0.2,0.0,24.4
Ponto Novo,50380000,Ponto Novo,Ponto Novo - 50380000,-10.845,-40.1128,Nordeste,RPGA do Rio Itapicuru,0.0,0.0,0.0,0.0,0.0,0.0,0.0,4.6,2.0,0.0,0.0,0.0,1.6,1.8,0.0,0.0,0.0,3.0,2.2,2.6,1.8,3.0,3.4,0.6,13.2,0.6,0.2,0.8,1.6,1.6,0.2,44.81
Capim Grosso,IT-CL-03,Capim Grosso,Capim Grosso - IT-CL-03,-11.36833,-40.03417,Nordeste,RPGA do Rio Itapicuru,1.6,0.0,0.0,0.0,0.0,0.0,0.0,4.8,3.8,0.0,0.0,0.0,0.0,0.0,0.0,0.0,0.0,2.0,3.0,5.4,1.4,5.4,2.4,0.0,0.0,1.8,0.0,1.6,0.2,3.2,0.2,36.81
Aporá,IT-CL-01,Aporá,Aporá - IT-CL-01,-11.67082,-38.17485,Nordeste,RPGA do Rio Itapicuru,1.4,2.8,7.4,0.0,0.2,0.0,0.2,42.2,7.0,1.6,0.8,0.0,8.6,0.4,2.2,0.6,0.2,2.4,4.0,0.4,0.8,6.2,2.2,6.6,1.2,2.2,4.2,18.4,1.8,14.0,0.0,140.0
Pé de Serra,PG-CL-07,Pé de Serra,Pé de Serra - PG-CL-07,-11.83676,-39.65905,Nordeste,RPGA do Rio Paraguaçu,0.0,0.0,0.0,0.0,0.0,0.0,0.0,4.4,1.8,0.0,0.0,0.0,0.0,0.0,0.0,0.0,0.0,0.8,0.2,8.8,0.6,5.4,3.8,0.2,1.2,1.2,1.0,0.4,2.8,2.4,0.0,35.0
Caldas do Jorro,IT-CL-05,Tucano,Tucano (Caldas do Jorro) - IT-CL-05,-11.03477,-38.80386,Nordeste,RPGA do Rio Itapicuru,0.2,1.0,0.8,0.0,0.0,0.0,0.0,6.4,4.0,0.0,1.2,0.0,4.8,0.2,0.0,4.0,0.0,0.0,10.2,0.8,0.0,3.8,0.0,0.0,0.0,0.4,0.0,7.8,0.4,5.0,1.0,52.0
Saúde,IT-CL-04,Saúde,Saúde - IT-CL-04,-10.95669,-40.38329,Nordeste,RPGA do Rio Itapicuru,0.2,0.0,0.4,0.0,0.0,0.0,0.0,3.6,0.4,0.0,0.0,0.0,0.0,0.0,0.0,0.0,0.0,2.4,1.0,2.0,2.6,2.0,1.0,0.0,0.6,2.0,0.0,0.6,4.4,0.6,0.0,23.81
Lajinha,IT-CL-06,Várzea do Poço,Várzea do Poço (Lajinha) - IT-CL-06,-11.4964,-40.34474,Nordeste,RPGA do Rio Itapicuru,1.4,0.0,0.2,0.0,0.0,0.0,0.0,7.4,1.2,0.0,0.0,0.0,0.0,0.0,0.0,0.0,0.0,1.8,1.2,3.0,3.8,4.0,5.8,0.4,1.2,1.8,0.0,1.0,4.8,2.8,0.4,42.2
Ipirá,PG-CL-02,Ipirá,Ipirá - PG-CL-02,-12.14986,-39.76454,Nordeste,RPGA do Rio Paraguaçu,0.2,0.0,0.0,0.0,0.0,0.0,0.0,4.6,0.0,0.0,0.0,0.0,0.0,0.0,0.0,0.0,0.0,7.8,0.4,9.4,18.6,6.8,7.2,4.6,0.0,0.4,2.0,0.0,1.8,4.8,0.0,68.6
Serrinha,RN-CL-02,Serrinha,Serrinha - RN-CL-02,-11.648333,-38.982777,Nordeste,RPGA do Recôncavo Norte,0.0,0.0,0.25,0.0,0.0,0.0,0.0,21.0,4.75,1.25,0.25,0.0,2.25,0.0,0.75,1.0,0.0,3.5,2.5,1.5,0.5,2.25,4.25,0.0,1.5,5.0,1.5,4.25,1.5,7.75,0.0,67.5
Caém,IT-PR-35,Caém,Caém - IT-PR-35,-11.093399,-40.437579,Nordeste,RPGA do Rio Itapicuru,2.6,0.0,1.0,0.0,0.0,0.0,0.0,6.2,3.0,0.0,0.0,0.0,0.0,0.0,0.0,0.0,0.0,2.2,3.8,4.0,0.8,7.8,1.8,0.6,4.0,2.8,0.0,2.4,7.0,5.4,2.4,57.8
Tombador Araújo,IT-PR-36,Jacobina,Jacobina (Tombador Araújo) - IT-PR-36,-11.168677,-40.670642,Nordeste,RPGA do Rio Itapicuru,3.6,0.0,0.6,0.0,0.0,0.0,0.0,0.6,0.2,0.0,0.0,0.0,0.0,0.0,0.0,0.0,0.0,0.0,0.4,1.4,3.0,0.0,3.6,0.0,0.4,2.2,0.0,0.4,7.0,0.4,0.0,23.8
Carrapichel,IT-PR-37,Senhor do Bonfim,Senhor do Bonfim (Carrapichel) - IT-PR-37,-10.388101,-40.220067,Nordeste,RPGA do Rio Itapicuru,1.0,0.2,3.4,0.0,0.0,0.0,0.0,16.4,12.2,4.2,0.2,0.0,4.6,2.6,0.0,0.6,0.0,0.2,8.4,1.0,1.6,1.8,0.4,0.2,0.2,0.4,0.2,4.2,17.8,6.6,2.6,91.0
Santaluz,IT-PR-17,Santaluz,Santaluz - IT-PR-17,-11.24831,-39.37563,Nordeste,RPGA do Rio Itapicuru,0.0,2.6,0.4,0.0,0.0,0.0,0.0,17.2,4.8,0.0,0.0,0.0,2.0,0.0,0.0,0.2,0.4,0.0,0.0,1.2,0.6,1.0,6.8,0.0,0.0,1.8,0.0,3.0,2.8,3.4,0.0,48.2
Ambrósio,IT-PR-19,Cansanção,Cansanção (Ambrósio) - IT-PR-19,-10.986458,-39.237813,Nordeste,RPGA do Rio Itapicuru,0.4,1.4,0.0,0.0,0.0,0.0,0.0,6.2,0.8,0.2,0.0,0.0,2.0,0.0,0.0,0.8,0.2,1.4,8.6,0.0,1.0,3.2,2.4,0.0,0.0,0.0,0.2,7.2,7.2,4.2,1.2,48.61
Cansanção,IT-PR-20,Cansanção,Cansanção - IT-PR-20,-10.702836,-39.543932,Nordeste,RPGA do Rio Itapicuru,1.0,0.2,0.0,0.0,0.0,0.0,0.0,8.6,8.8,2.6,0.2,0.0,2.2,3.0,0.0,1.8,0.0,0.4,6.0,0.0,0.4,0.8,0.0,0.0,0.4,0.2,0.0,4.0,2.6,4.2,1.0,48.4
Ribeira do Amparo,A458,Ribeira do Amparo,Ribeira do Amparo - A458,-11.058722,-38.444028,Nordeste,RPGA do Rio Itapicuru,1.8,0.2,0.2,0.2,0.0,0.0,0.0,15.6,9.6,0.8,4.8,0.0,16.8,1.6,0.6,1.4,0.2,0.2,8.0,0.2,0.4,3.0,0.0,0.0,0.0,0.0,3.2,11.4,1.8,5.6,0.6,88.2
Quijingue,IT-PR-25,Quijingue,Quijingue - IT-PR-25,-10.783951,-39.20809,Nordeste,RPGA do Rio Itapicuru,0.2,0.2,0.0,0.0,0.0,0.0,0.0,26.2,2.2,2.0,0.0,0.0,2.8,0.6,0.0,0.0,0.0,0.0,4.4,0.8,0.0,2.0,0.0,0.2,0.2,0.4,0.0,2.2,1.6,4.4,0.4,50.8
Curral Falso,IT-PR-01,Ribeira do Pombal,Ribeira do Pombal (Curral Falso) - IT-PR-01,-10.697843,-38.5714,Nordeste,RPGA do Rio Itapicuru,1.4,5.6,0.2,0.0,0.0,0.0,0.0,37.2,8.2,6.6,9.6,1.6,10.2,0.0,0.4,2.0,0.2,0.0,5.0,1.0,0.2,3.8,0.2,0.0,11.2,0.4,0.4,7.8,2.8,11.6,2.4,130.01
Aribicé,IT-PR-02,Euclides da Cunha,Euclides da Cunha (Aribicé) - IT-PR-02,-10.557835,-38.793352,Nordeste,RPGA do Rio Itapicuru,0.0,0.0,0.0,0.0,0.0,0.0,0.0,0.2,1.0,0.0,0.2,0.0,0.2,0.0,0.0,0.0,0.0,0.0,0.0,0.0,0.0,0.0,0.0,0.0,0.0,0.0,0.0,0.0,0.0,0.0,0.0,1.6
Ribeira do Pombal,IT-PR-04,Ribeira do Pombal,Ribeira do Pombal - IT-PR-04,-10.823399,-38.545844,Nordeste,RPGA do Rio Itapicuru,3.2,1.6,0.2,0.0,0.0,0.0,0.0,32.0,14.8,3.6,9.0,2.0,18.6,2.6,0.4,2.4,0.2,0.0,8.0,2.6,0.8,5.8,0.0,0.0,3.0,1.4,2.0,11.8,3.6,12.4,3.8,145.8
BR 116 E. Cunha / Tucano,IT-PR-05,Quijingue,Quijingue (BR 116 E. Cunha / Tucano) - IT-PR-05,-10.7105,-38.9227,Nordeste,RPGA do Rio Itapicuru,0.2,0.6,0.0,0.0,0.0,0.0,0.0,12.2,5.8,4.2,2.8,0.0,6.0,0.2,0.0,1.0,0.0,0.0,4.4,2.4,4.6,3.6,0.0,0.0,1.0,0.0,0.2,2.2,4.8,3.0,5.0,64.2
Fazenda Santo Antônio,IT-PR-06,Euclides da Cunha,Euclides da Cunha (Fazenda Santo Antônio) - IT-PR-06,-10.405331,-39.045582,Nordeste,RPGA do Rio Itapicuru,1.4,2.6,0.0,0.0,0.0,0.0,0.0,18.4,16.2,12.0,14.2,0.6,24.8,0.8,1.4,0.2,0.2,0.0,17.0,3.0,0.6,6.8,0.0,0.2,4.4,0.4,0.2,4.2,3.8,5.4,6.0,144.8
Estação Experimental,IT-PR-10,Nova Soure,Nova Soure (Estação Experimental) - IT-PR-10,-11.3083,-38.5361,Nordeste,RPGA do Rio Itapicuru,1.8,2.2,1.0,0.0,0.0,0.0,0.0,8.0,3.6,0.8,0.2,0.0,8.2,1.4,1.6,1.6,0.2,0.0,5.0,0.4,0.8,5.0,0.4,0.0,0.4,8.0,0.0,20.8,7.4,7.8,0.4,87.0
Olindina,IT-PR-11,Olindina,Olindina - IT-PR-11,-11.343693,-38.318892,Nordeste,RPGA do Rio Itapicuru,0.6,2.6,0.4,0.0,0.0,0.0,0.4,43.0,4.4,0.0,1.6,0.0,6.2,0.6,3.8,1.2,0.0,0.2,4.4,1.2,1.6,4.2,1.2,0.6,4.8,3.0,0.4,19.6,12.2,3.4,1.2,122.81
Boa Hora,IT-PR-13,Ribeira do Amparo,Ribeira do Amparo (Boa Hora) - IT-PR-13,-10.965,-38.5234,Nordeste,RPGA do Rio Itapicuru,2.8,0.8,0.8,0.0,0.0,0.0,0.0,14.4,8.2,1.8,7.4,0.0,8.0,0.8,1.4,2.2,0.2,0.0,7.6,0.4,0.2,4.0,0.0,0.6,0.4,0.2,1.4,10.0,4.2,9.4,0.4,87.61
Jeremoabo,A450,Jeremoabo,Jeremoabo - A450,-10.0807,-38.3459,Nordeste,RPGA do Rio Vaza-Barris,2.6,5.8,0.0,0.0,0.0,0.0,0.0,8.0,4.2,7.0,24.0,10.4,9.2,0.2,3.4,0.6,0.2,0.0,4.8,0.0,2.2,0.0,0.0,0.0,0.6,0.2,0.0,2.4,1.0,0.4,6.8,94.0
Remanso,82979,Remanso,Remanso - 82979,-9.633333,-42.1,Norte,RPGA do Lago de Sobradinho,0.0,0.0,0.0,0.0,0.0,0.0,0.0,0.0,0.0,0.0,0.0,0.0,0.0,0.0,0.0,0.0,0.0,0.0,0.0,0.0,0.0,0.0,0.0,0.0,0.0,0.0,0.0,0.0,0.0,0.0,0.0,0.0
Delfino,A443,Umburanas,Umburanas (Delfino) - A443,-10.45492,-41.206996,Norte,RPGA do Rio Salitre,0.4,0.0,0.0,0.0,0.0,0.0,0.4,0.2,0.0,0.0,0.0,0.0,0.8,0.0,0.0,0.0,0.0,0.0,0.4,2.2,1.0,0.0,0.2,0.2,1.0,0.4,0.0,0.0,0.2,0.0,0.0,7.41
Remanso,A423,Remanso,Remanso - A423,-9.625693,-42.077214,Norte,RPGA do Lago de Sobradinho,0.0,0.0,0.0,0.0,0.0,0.0,0.0,0.0,0.0,0.0,0.0,0.0,0.0,0.0,0.0,0.0,0.0,0.0,0.0,0.0,0.0,0.0,0.0,0.0,0.0,0.0,0.0,0.0,0.0,0.0,0.0,0.0
Irecê,A424,Irecê,Irecê - A424,-11.328998,-41.864504,Norte,RPGA dos Rios Verde e Jacaré,0.0,0.0,0.0,0.0,0.0,5.0,0.0,0.0,1.6,0.0,0.0,0.0,0.0,0.0,0.0,0.0,0.0,0.0,0.0,0.0,0.0,0.0,1.4,0.2,0.0,0.0,0.0,0.0,0.0,0.0,0.0,8.2
Várzea Nova,SA-CL-02,Várzea Nova,Várzea Nova - SA-CL-02,-11.23996,-40.935618,Norte,RPGA do Rio Salitre,0.2,0.0,0.0,0.0,0.0,0.0,0.0,0.0,0.0,0.0,0.0,0.0,0.0,0.0,0.0,0.0,0.0,0.0,0.2,0.0,0.2,0.0,2.6,0.0,0.0,0.4,0.4,0.0,0.0,0.0,0.0,4.0
Ibitibá,,Ibitibá,Ibitibá,-11.551736,-41.968187,Norte,RPGA dos Rios Verde e Jacaré,0.0,0.0,0.0,0.0,0.0,0.0,0.0,0.0,0.0,0.2,0.0,0.0,0.0,0.0,0.0,0.0,0.0,0.0,0.0,0.0,0.0,0.0,0.8,0.8,0.0,0.0,0.0,0.0,0.0,0.0,0.0,1.8
CODEVASF Salitre,MC-CL-01,Juazeiro,Juazeiro (CODEVASF Salitre) - MC-CL-01,-9.48778,-40.61333,Norte,RPGA dos Rios Macururé e Curaçá,0.0,0.0,0.0,0.0,0.0,0.0,0.0,0.6,0.0,0.0,0.0,0.0,0.4,0.0,0.0,0.0,0.0,0.0,0.0,0.0,0.0,0.0,0.0,0.0,0.0,0.0,0.0,0.0,0.0,0.0,0.0,1.0
Jussara,Arrecife,Jussara,Jussara - Arrecife,-11.065335,-41.974853,Norte,RPGA dos Rios Verde e Jacaré,0.0,0.0,0.0,0.0,0.0,0.0,0.0,0.0,0.0,0.0,0.0,0.0,0.0,0.0,0.0,0.0,0.0,0.0,0.0,0.0,0.0,0.0,0.0,0.0,0.0,0.0,0.0,0.0,0.0,0.0,0.0,0.0
Campo Formoso,IT-CL-02,Campo Formoso,Campo Formoso - IT-CL-02,-10.47062,-40.33412,Norte,RPGA do Rio Itapicuru,1.0,0.2,0.4,0.0,0.0,0.0,0.0,13.4,17.4,8.8,0.6,0.0,6.0,2.0,0.2,0.2,0.0,0.6,12.2,4.4,2.2,7.4,1.4,0.2,1.6,1.4,3.2,5.0,10.6,9.2,5.0,114.61
Sento Sé,SO-CL-01,Sento Sé,Sento Sé - SO-CL-01,-9.78228,-41.81872,Norte,RPGA do Lago de Sobradinho,0.0,0.0,0.0,0.0,0.0,0.0,0.0,0.0,0.0,0.0,0.0,0.0,0.0,0.0,0.0,0.0,0.0,0.0,0.0,0.0,0.0,0.0,0.0,0.0,0.0,0.0,0.0,0.0,0.0,0.0,0.0,0.0
Itaguaçu da Bahia,VJ-CL-03,Itaguaçu da Bahia,Itaguaçu da Bahia - VJ-CL-03,-10.9549,-42.3465,Norte,RPGA dos Rios Verde e Jacaré,0.0,0.0,0.0,0.0,0.0,0.0,1.0,1.0,0.0,0.0,0.0,0.0,0.0,0.0,0.0,0.0,0.0,0.0,0.0,0.0,0.0,0.0,0.0,0.0,0.0,0.0,0.0,0.0,0.0,0.0,0.0,2.0
Juazeiro,48020000,Juazeiro,Juazeiro - 48020000,-9.4064,-40.5036,Norte,RPGA dos Rios Macururé e Curaçá,0.0,0.0,0.0,0.0,0.0,0.0,0.0,0.8,0.0,0.0,0.0,0.0,0.2,0.2,0.0,0.0,0.0,0.0,0.0,0.0,0.0,0.0,0.0,0.0,0.0,0.0,0.0,0.0,0.0,0.0,0.0,1.2
Ibipeba,VJ-CL-02,Ibipeba,Ibipeba - VJ-CL-02,-11.62667,-42.06444,Norte,RPGA dos Rios Verde e Jacaré,0.0,0.0,0.0,0.0,0.0,0.0,0.8,3.4,0.0,0.0,0.0,0.0,0.0,0.0,0.0,0.0,0.0,0.0,0.0,0.0,0.0,0.2,0.0,0.0,0.0,0.0,0.4,0.2,0.0,0.0,0.0,5.01
Aeródromo,SA-PR-03,Campo Formoso,Campo Formoso (Aeródromo) - SA-PR-03,-10.49,-40.4871,Norte,RPGA do Rio Itapicuru,2.8,0.0,0.4,0.0,0.0,0.0,0.0,2.8,6.0,0.8,0.2,0.0,3.0,1.2,0.0,2.2,0.0,0.8,4.0,2.6,4.0,6.2,1.8,1.0,0.6,1.2,1.6,1.0,9.8,1.4,3.4,58.8
Irecê,VJ-CL-01,Irecê,Irecê - VJ-CL-01,-11.289166,-41.894166,Norte,RPGA dos Rios Verde e Jacaré,0.0,0.0,0.0,0.0,0.0,12.25,2.5,0.5,1.25,0.0,0.0,0.0,0.0,0.0,0.0,0.0,0.0,0.0,0.0,0.0,0.0,0.0,0.5,0.25,0.0,0.0,0.0,0.0,0.0,0.0,0.0,17.25
Jaguarari,IT-PR-28,Jaguarari,Jaguarari - IT-PR-28,-10.269489,-40.200344,Norte,RPGA do Rio Itapicuru,2.6,2.2,2.0,0.0,0.0,0.0,0.0,14.4,12.6,2.8,1.6,0.0,3.6,4.6,0.0,0.8,0.0,0.0,0.6,0.8,1.4,0.2,0.0,0.0,0.0,0.2,9.8,1.8,17.0,3.0,1.6,83.6
Mirangaba,IT-PR-29,Mirangaba,Mirangaba - IT-PR-29,-10.954784,-40.574527,Norte,RPGA do Rio Itapicuru,3.2,0.0,0.4,0.2,0.0,0.0,0.0,5.0,8.0,0.2,0.0,0.0,1.4,0.8,0.2,0.2,0.0,2.0,5.2,4.4,2.2,4.6,5.0,2.4,0.6,2.0,3.0,3.4,7.8,3.4,1.6,67.2
Olho D'Água,,Olho D'Água,Olho D'Água,-10.700331,-40.601468,Norte,RPGA do Rio Salitre,2.4,0.0,0.0,0.0,0.0,0.0,0.0,0.2,0.0,0.4,0.0,0.0,2.8,0.2,0.0,0.4,0.2,2.0,1.0,1.4,0.6,0.8,3.6,0.6,0.4,2.2,0.8,0.4,4.8,0.6,0.2,26.01
Arrojolândia,,Arrojolândia,Arrojolândia,-13.741772,-45.466093,Oeste,"RPGA do Rio Corrente e Riachos do Ramalho, Serra Dourada e Brejo Velho",0.0,0.0,0.0,0.0,0.0,0.0,0.0,0.0,0.0,0.0,0.0,0.0,0.0,0.0,0.0,0.0,0.0,0.0,0.0,0.0,0.0,0.0,0.0,0.0,0.0,0.0,0.0,0.0,0.0,0.0,0.0,0.0
Formosa do Rio Preto,A452,Formosa do Rio Preto,Formosa do Rio Preto - A452,-11.052163,-45.200769,Oeste,RPGA do Rio Grande,0.0,0.0,0.0,0.0,0.0,0.0,0.0,3.0,0.2,0.0,0.0,0.0,0.0,0.0,0.0,0.0,0.0,0.0,0.0,0.0,0.0,0.0,0.0,0.0,0.0,0.0,0.0,0.0,0.0,0.0,0.0,3.2
Nova Vida Montante,46590000,Barreiras,Barreiras (Nova Vida Montante) - 46590000,-11.867963,-45.084552,Oeste,RPGA do Rio Grande,0.0,0.0,0.0,0.0,0.0,0.0,0.0,13.4,0.0,0.0,0.0,0.0,0.0,0.0,0.0,0.0,0.0,0.0,0.0,0.0,0.0,0.0,0.0,0.0,0.0,0.0,0.0,0.0,0.0,0.0,0.0,13.4
Correntina,A416,Correntina,Correntina - A416,-13.332386,-44.617376,Oeste,"RPGA do Rio Corrente e Riachos do Ramalho, Serra Dourada e Brejo Velho",0.0,0.0,0.0,0.0,0.0,0.0,0.0,0.0,0.0,0.0,0.0,0.0,0.0,0.0,0.0,0.0,0.0,0.0,0.0,0.0,0.0,0.0,0.0,0.0,0.0,0.0,0.0,0.0,0.0,0.0,0.0,0.0
Barreiras,83236,Barreiras,Barreiras - 83236,-12.155556,-45.007778,Oeste,RPGA do Rio Grande,0.0,0.0,0.0,0.0,0.0,0.0,0.0,0.0,0.0,0.0,0.0,0.0,0.0,0.0,0.0,0.0,0.0,0.0,0.0,0.0,0.0,0.0,0.0,0.0,0.0,0.0,0.0,0.0,0.0,0.0,0.0,0.0
Correntina,83286,Correntina,Correntina - 83286,-13.332222,-44.617222,Oeste,"RPGA do Rio Corrente e Riachos do Ramalho, Serra Dourada e Brejo Velho",0.0,0.0,0.0,0.0,0.0,0.0,0.0,0.0,0.0,0.0,0.0,0.0,0.0,0.0,0.0,0.0,0.0,0.0,0.0,0.0,0.0,0.0,0.0,0.0,0.0,0.0,0.0,0.0,0.0,0.0,0.0,0.0
Derocal,46455000,São Desidério,São Desidério (Derocal) - 46455000,-12.412696,-45.121499,Oeste,RPGA do Rio Grande,0.0,0.0,0.0,0.0,0.0,0.0,0.0,0.0,0.0,0.0,0.0,0.0,0.0,0.0,0.0,0.0,0.0,0.0,0.0,0.0,0.0,0.0,0.0,0.0,0.0,0.0,0.0,0.0,0.0,0.0,0.0,0.0
Arrojado,45770000,Correntina,Correntina (Arrojado) - 45770000,-13.4528,-44.5689,Oeste,"RPGA do Rio Corrente e Riachos do Ramalho, Serra Dourada e Brejo Velho",0.0,0.0,0.0,0.0,0.0,0.0,0.0,0.0,0.0,0.0,0.0,0.0,0.0,0.0,0.0,0.0,0.0,0.0,0.0,0.0,0.0,0.0,0.0,0.0,0.0,0.0,0.0,0.0,0.0,0.0,0.0,0.0
Fazenda Redenção,46543000,Barreiras,Barreiras (Fazenda Redenção) - 46543000,-12.1358,-45.1033,Oeste,RPGA do Rio Grande,0.0,0.0,0.0,0.0,0.0,0.0,0.0,0.0,0.0,0.0,0.0,0.0,0.0,0.0,0.0,0.0,0.0,0.0,0.0,0.0,0.0,0.0,0.0,0.0,0.0,0.0,0.0,0.0,0.0,0.0,0.0,0.0
Fazenda Santa Luzia,CA-CL-01,Cocos,Cocos (Fazenda Santa Luzia) - CA-CL-01,-14.85528,-45.93583,Oeste,RPGA do Rio Carinhanha,0.0,0.0,0.0,0.0,0.0,0.0,0.0,0.0,0.0,0.0,0.0,0.0,0.0,0.0,0.0,0.0,0.0,0.0,0.0,0.0,0.0,0.0,0.0,0.0,0.0,0.0,0.0,0.0,0.0,0.0,0.0,0.0
Fazenda Porta do Céu,CT-CL-02,Jaborandi,Jaborandi (Fazenda Porta do Céu) - CT-CL-02,-14.11621,-45.84417,Oeste,"RPGA do Rio Corrente e Riachos do Ramalho, Serra Dourada e Brejo Velho",0.0,0.0,0.0,0.0,0.0,0.0,0.0,0.0,0.0,0.0,0.0,0.0,0.0,0.0,0.0,0.0,0.0,0.0,0.0,0.0,0.0,0.0,0.0,0.0,0.0,0.0,0.0,0.0,0.0,0.0,0.0,0.0
Fazenda Morinaga,CT-CL-01,Correntina,Correntina (Fazenda Morinaga) - CT-CL-01,-13.75194,-45.87028,Oeste,"RPGA do Rio Corrente e Riachos do Ramalho, Serra Dourada e Brejo Velho",0.0,0.0,0.0,0.0,0.0,0.0,0.0,0.0,0.0,0.0,0.0,0.0,0.0,0.0,0.0,0.0,0.0,0.0,0.0,0.0,0.0,0.0,0.0,0.0,0.0,0.0,0.0,0.0,0.0,0.0,0.0,0.0
Fazenda Madras,GR-CL-04,Riachão das Neves,Riachão das Neves (Fazenda Madras) - GR-CL-04,-11.63028,-44.84556,Oeste,RPGA do Rio Grande,0.0,0.0,0.0,0.0,0.0,0.0,0.0,0.0,0.0,0.0,0.0,0.0,0.0,0.0,0.0,0.0,0.0,0.0,0.0,0.0,0.0,0.0,0.0,0.0,0.0,0.0,0.0,0.0,0.0,0.0,0.0,0.0
Fazenda Barcelona,GR-CL-03,Formosa do Rio Preto,Formosa do Rio Preto (Fazenda Barcelona) - GR-CL-03,-11.59139,-46.02194,Oeste,RPGA do Rio Grande,0.0,0.0,0.0,0.0,0.0,0.0,0.0,0.0,0.0,0.0,0.0,0.0,0.2,0.0,0.0,0.0,0.0,0.0,0.0,0.0,0.0,0.0,0.0,0.0,0.0,0.0,0.0,0.0,0.0,0.0,0.0,0.2
PCH Pres. Goulart-J,45600000,Correntina,Correntina (PCH Pres. Goulart-J) - 45600000,-13.3344,-44.6208,Oeste,"RPGA do Rio Corrente e Riachos do Ramalho, Serra Dourada e Brejo Velho",0.0,0.0,0.0,0.0,0.0,0.0,7.5,0.0,0.0,0.0,0.0,0.0,0.0,0.0,0.0,0.0,0.0,0.0,0.0,0.0,0.0,0.0,0.0,0.0,0.0,0.0,0.0,0.0,0.0,0.0,0.0,7.5
PCH Pres. Goulart-M1,45588000,Correntina,Correntina (PCH Pres. Goulart-M1) - 45588000,-13.3408,-44.6414,Oeste,"RPGA do Rio Corrente e Riachos do Ramalho, Serra Dourada e Brejo Velho",0.0,0.0,0.0,0.0,0.0,0.0,0.0,0.0,6.5,0.0,0.0,0.0,0.0,0.0,0.0,0.0,0.0,0.0,0.0,0.0,0.0,0.0,0.0,0.0,0.0,0.0,0.0,0.0,0.0,0.0,0.0,6.5
PCH Sítio Grande-J,46453500,São Desidério,São Desidério (PCH Sítio Grande-J) - 46453500,-12.4286,-45.1528,Oeste,RPGA do Rio Grande,0.0,0.0,0.0,0.0,0.0,0.0,0.0,0.0,8.25,0.0,0.0,0.0,0.0,0.0,0.0,0.0,0.0,0.0,0.0,0.0,0.0,0.0,0.0,0.0,0.0,0.0,0.0,0.0,0.0,0.0,0.0,8.25
COACERAL,GR-CL-02,Formosa do Rio Preto,Formosa do Rio Preto (COACERAL) - GR-CL-02,-10.561944,-45.693333,Oeste,RPGA do Rio Grande,0.0,0.0,0.0,0.0,0.0,0.0,0.0,0.0,0.0,0.0,0.0,0.0,0.0,0.0,0.0,0.0,0.0,0.0,0.0,0.0,0.0,0.0,0.0,0.0,0.0,0.0,0.0,0.0,0.0,0.0,0.0,0.0
Luís Eduardo Magalhães,A404,Luís Eduardo Magalhães,Luís Eduardo Magalhães - A404,-12.152394,-45.829745,Oeste,RPGA do Rio Grande,0.0,0.0,0.0,0.0,0.0,0.0,0.0,0.0,0.0,0.0,0.0,0.0,0.0,0.0,0.0,0.0,0.0,0.0,0.0,0.0,0.0,0.0,0.0,0.0,0.0,0.0,0.0,0.0,0.0,0.0,0.0,0.0
São Desidério,R. Velha - GR-CL-01,São Desidério,São Desidério - R. Velha - GR-CL-01,-12.898055,-46.157222,Oeste,RPGA do Rio Grande,0.0,0.0,0.0,0.0,0.0,0.0,0.0,0.0,0.0,0.0,0.0,0.0,0.0,0.0,0.0,0.0,0.0,0.0,0.0,0.0,0.0,0.0,0.0,0.0,0.0,0.0,0.0,0.0,0.0,0.0,0.0,0.0
J. Zoológico,A401,Salvador,Salvador (J. Zoológico) - A401,-13.005515,-38.50576,Recôncavo,RPGA do Recôncavo Norte,0.6,8.8,0.0,0.0,0.0,0.0,0.0,109.6,4.2,0.2,3.4,0.0,1.0,0.0,0.0,0.0,0.0,36.2,0.0,12.2,15.6,3.4,8.4,0.0,10.0,2.8,3.6,1.8,44.6,28.8,0.0,295.21
Feira de Santana,A413,Feira de Santana,Feira de Santana - A413,-12.1962,-38.967384,Recôncavo,RPGA do Recôncavo Norte,0.2,1.2,0.6,0.0,0.0,0.0,0.0,33.2,10.0,0.6,3.8,0.0,2.6,0.2,0.4,0.2,0.2,11.0,4.6,3.0,4.6,3.0,7.4,4.6,1.2,2.6,1.2,3.4,7.0,8.4,0.2,115.41
Mussurunga,292740821A,Salvador,Salvador (Mussurunga) - 292740821A,-12.907733,-38.440111,Recôncavo,RPGA do Recôncavo Norte,4.6,0.8,0.6,0.0,0.0,0.0,0.0,62.8,16.2,0.4,3.4,0.0,0.0,0.0,0.0,0.0,0.2,9.6,0.4,7.4,17.2,4.8,4.4,2.8,12.0,5.6,6.8,10.8,6.4,20.6,0.0,197.81
Alagoinhas,83249,Alagoinhas,Alagoinhas - 83249,-12.148333,-38.425556,Recôncavo,RPGA do Recôncavo Norte,0.6,2.5,1.3,0.0,0.0,0.0,0.4,45.7,12.1,0.3,0.6,0.0,8.0,0.0,2.4,3.5,0.0,11.2,4.4,2.2,7.1,8.6,10.1,8.0,4.6,10.0,3.6,16.8,3.8,22.4,0.0,190.21
Estação Rádio Marinha,A456,Salvador,Salvador (Estação Rádio Marinha) - A456,-12.808222,-38.495944,Recôncavo,RPGA do Recôncavo Norte,0.0,1.4,0.2,0.0,0.2,0.0,0.0,103.2,11.2,1.8,4.0,0.2,2.0,0.2,0.0,0.0,0.0,13.8,4.2,6.6,17.6,1.4,3.6,4.6,12.0,3.8,6.4,14.2,12.2,10.0,0.2,235.0
Amargosa,A434,Amargosa,Amargosa - A434,-13.009468,-39.616881,Recôncavo,RPGA do Recôncavo Sul,0.0,0.2,0.0,0.0,0.0,0.0,3.2,2.2,0.0,0.0,0.0,0.2,0.0,0.0,0.0,0.2,0.0,0.0,0.0,1.8,18.0,4.0,6.8,11.2,6.2,10.0,14.0,0.0,4.4,3.0,0.6,86.0
Valença,A444,Valença,Valença - A444,-13.34361,-39.12667,Recôncavo,RPGA do Recôncavo Sul,1.0,1.8,1.4,0.0,0.0,0.0,0.0,6.4,1.2,0.0,1.0,0.0,0.0,0.2,0.0,0.0,0.0,8.0,3.0,11.0,53.2,7.2,12.6,17.0,8.2,13.6,18.8,16.4,8.4,35.2,0.2,225.8
Ondina,83229,Salvador,Salvador (Ondina) - 83229,-13.005278,-38.505833,Recôncavo,RPGA do Recôncavo Norte,0.6,9.0,0.1,0.0,0.0,0.0,0.0,112.8,4.1,0.2,3.2,0.0,1.2,0.0,0.0,0.0,0.0,34.6,0.0,12.8,15.9,3.2,2.8,0.1,10.5,2.7,3.6,2.1,44.1,28.7,0.0,292.3
Feira de Santana,PG-PR-13,Feira de Santana,Feira de Santana - PG-PR-13,-12.268161,-38.96642,Recôncavo,RPGA do Rio Paraguaçu,0.2,1.0,0.8,0.0,0.0,0.0,0.0,43.8,8.8,0.8,2.0,0.2,0.0,0.2,0.0,0.2,0.0,10.6,2.8,3.6,3.6,1.4,4.6,3.4,3.2,5.0,3.8,1.0,4.4,5.8,0.4,111.6
Maragogipe,PG-CL-06,Maragogipe,Maragogipe - PG-CL-06,-12.85164,-38.94467,Recôncavo,RPGA do Rio Paraguaçu,0.4,4.2,0.0,0.0,0.0,0.0,0.0,51.2,13.4,1.6,3.8,2.2,0.0,3.2,0.0,0.0,0.2,33.6,0.8,18.6,16.8,19.6,9.6,4.4,8.4,14.4,9.6,8.0,8.6,18.0,2.0,252.61
Santo Estevão,PG-CL-08,Santo Estevão,Santo Estevão - PG-CL-08,-12.43521,-39.21209,Recôncavo,RPGA do Rio Paraguaçu,0.4,0.4,0.2,0.0,0.0,0.0,0.0,9.0,1.0,0.0,2.8,0.0,0.0,0.6,0.0,0.4,0.0,6.6,0.4,13.0,9.4,6.6,10.2,4.4,6.8,1.6,2.8,1.4,4.6,13.8,0.2,96.6
Muritiba,PG-PR-12,Muritiba,Muritiba - PG-PR-12,-12.617895,-39.005591,Recôncavo,RPGA do Rio Paraguaçu,0.0,0.0,0.0,0.2,0.0,0.0,0.0,0.2,0.0,0.0,0.0,0.0,0.0,0.0,0.2,0.0,0.0,0.0,0.0,0.0,0.0,0.0,0.4,0.8,0.0,1.4,1.0,3.0,2.4,10.4,0.0,20.0
PC Fazenda Jurema,51346050,Rafael Jambeiro,Rafael Jambeiro (PC Fazenda Jurema) - 51346050,-12.4881,-39.6981,Recôncavo,RPGA do Rio Paraguaçu,0.0,0.2,0.0,0.0,0.0,0.0,0.0,9.2,0.0,0.0,0.0,0.0,0.0,0.0,0.2,0.2,1.2,0.2,0.0,0.8,1.6,3.0,1.6,2.0,0.8,1.6,4.2,0.0,1.8,1.6,0.0,30.2
PC Rio Paratigi,51370000,Santo Estevão,Santo Estevão (PC Rio Paratigi) - 51370000,-12.51503,-39.38272,Recôncavo,RPGA do Rio Paraguaçu,1.8,1.0,0.0,0.0,0.0,0.0,0.0,17.6,0.0,0.0,0.4,0.0,0.0,0.2,0.0,0.2,2.4,1.4,0.0,2.0,5.8,8.6,2.2,1.4,2.4,1.0,2.0,0.4,2.6,2.4,0.0,55.8
Feira de Santana,PC Rio Branco,Feira de Santana,Feira de Santana - PC Rio Branco,-12.2331,-39.0461,Recôncavo,RPGA do Rio Paraguaçu,0.0,0.4,1.0,0.0,0.0,0.0,0.0,9.6,6.0,0.4,0.0,0.2,0.2,0.4,0.0,0.4,0.2,5.0,0.8,3.6,1.8,0.2,2.2,1.2,4.0,0.8,1.6,0.6,3.4,2.0,0.4,46.4
Cândido Sales,53620000,Cândido Sales,Cândido Sales - 53620000,-15.512891,-41.236629,Sudoeste,RPGA do Rio Pardo,0.4,0.0,0.0,0.0,0.0,0.0,0.0,0.0,0.0,0.0,0.0,0.0,0.0,0.0,0.0,0.0,0.0,0.0,0.0,0.0,0.8,0.6,1.0,6.4,0.4,0.6,1.4,2.2,0.4,1.8,0.2,16.2
Itiruçu,A407,Itiruçu,Itiruçu - A407,-13.52629,-40.12055,Sudoeste,RPGA do Recôncavo Sul,1.4,0.2,2.2,0.2,0.0,0.0,0.0,0.6,0.2,0.0,0.2,0.2,0.0,0.0,0.2,0.0,0.0,0.2,0.2,3.2,13.0,8.0,7.4,2.0,0.0,4.8,3.2,1.0,0.4,3.8,0.2,52.8
Vitória da Conquista,A414,Vitória da Conquista,Vitória da Conquista - A414,-14.886428,-40.80133,Sudoeste,RPGA do Rio Pardo,0.2,0.0,0.2,0.0,0.0,0.0,0.2,0.0,0.4,0.0,0.2,0.2,0.2,0.0,0.2,0.0,0.0,0.0,0.0,1.2,4.8,2.2,5.8,3.4,1.0,0.0,3.4,1.8,0.4,0.2,0.0,26.0
Ituaçu,83292,Ituaçu,Ituaçu - 83292,-13.812778,-41.3,Sudoeste,RPGA do Rio de Contas,0.0,0.0,0.0,0.0,0.0,0.0,0.0,0.0,0.0,0.0,0.0,0.0,0.0,0.0,0.0,0.0,0.0,0.0,0.0,0.0,0.0,0.0,0.0,5.6,0.0,0.0,0.0,0.0,0.0,3.8,0.0,9.4
Vitória da Conquista,83344,Vitória da Conquista,Vitória da Conquista - 83344,-14.883333,-40.8,Sudoeste,RPGA do Rio Pardo,0.2,0.0,0.0,0.0,0.0,0.0,0.2,0.0,0.5,0.0,0.3,0.0,0.2,0.0,0.0,0.0,0.0,0.0,0.0,1.3,4.7,2.2,5.6,3.2,0.3,0.0,3.7,1.5,0.3,0.7,0.0,24.91
Brumado,A433,Brumado,Brumado - A433,-14.181886,-41.672281,Sudoeste,RPGA do Rio de Contas,0.0,0.0,0.0,0.0,0.0,0.0,0.0,0.0,0.0,0.0,0.0,0.0,0.0,0.0,0.0,0.0,0.0,0.0,0.0,0.0,0.0,0.6,0.0,1.4,0.0,0.0,0.0,0.0,0.0,7.0,0.2,9.2
Ipiaú,A445,Ipiaú,Ipiaú - A445,-14.171304,-39.692502,Sudoeste,RPGA do Rio de Contas,0.2,0.2,1.2,0.0,0.0,0.0,0.0,2.0,0.0,0.2,0.0,0.0,0.2,0.0,0.2,0.2,0.2,0.0,0.0,2.2,12.0,5.2,6.2,7.6,0.2,4.8,10.6,7.2,1.0,5.6,0.0,67.2
Itapetinga,A446,Itapetinga,Itapetinga - A446,-15.24462,-40.22955,Sudoeste,RPGA do Rio Pardo,0.0,0.2,0.0,0.0,0.0,0.0,0.0,0.0,0.0,0.0,0.0,0.0,0.2,0.0,0.0,0.0,0.0,0.0,0.0,1.8,1.8,1.2,4.4,9.6,0.6,0.0,1.6,7.2,2.4,3.0,0.0,34.0
Anagé,CO-CL-01,Anagé,Anagé - CO-CL-01,-14.618055,-41.149722,Sudoeste,RPGA do Rio de Contas,0.0,0.0,0.0,0.0,0.0,0.0,0.0,0.0,0.0,0.0,0.0,0.0,0.0,0.0,0.0,0.0,0.0,0.0,0.0,0.0,0.0,0.0,0.0,0.25,0.0,0.0,0.0,0.0,0.0,0.0,0.0,0.25
Vitória da Conquista,Inhobim (ANA),Vitória da Conquista,Vitória da Conquista - Inhobim (ANA),-15.340228,-40.933566,Sudoeste,RPGA do Rio Pardo,1.8,0.0,0.0,0.0,0.0,0.6,0.0,1.2,0.0,0.0,0.0,0.0,0.0,0.0,0.0,0.0,0.0,0.0,0.0,0.0,0.0,0.8,2.8,4.2,0.2,0.2,1.8,3.6,0.0,0.4,0.0,17.6
Jaguaquara,RS-CL-01,Jaguaquara,Jaguaquara - RS-CL-01,-13.573055,-39.940833,Sudoeste,RPGA do Recôncavo Sul,1.75,0.0,0.0,0.0,0.0,0.0,0.0,0.0,0.0,0.0,0.0,1.0,0.0,0.0,0.0,0.0,0.0,0.25,0.0,3.75,13.0,9.5,11.25,3.75,0.25,5.0,4.75,1.75,1.0,3.5,0.0,60.5
Vitória da Conquista,PA-CL-01,Vitória da Conquista,Vitória da Conquista - PA-CL-01,-14.886111,-40.800833,Sudoeste,RPGA do Rio Pardo,0.0,0.0,0.0,0.0,0.0,0.0,0.0,0.0,0.25,0.0,0.0,0.0,0.0,0.0,0.0,0.0,0.0,0.0,0.0,0.75,4.25,2.0,5.0,2.75,0.5,0.0,3.0,1.25,0.0,0.25,0.0,20.0
Fz Nanci,53880000,Camacã,Camacã (Fz Nanci) - 53880000,-15.581395,-39.521095,Sul,RPGA do Rio Pardo,0.2,0.0,0.0,0.2,0.0,0.2,0.0,0.0,0.0,0.0,1.4,0.8,0.2,0.0,0.2,0.2,0.0,0.2,0.2,2.6,6.4,1.8,6.2,13.4,12.2,0.2,8.0,3.0,3.0,2.4,0.0,63.01
Caravelas,A405,Caravelas,Caravelas - A405,-17.739413,-39.258617,Sul,"RPGA dos Rios Peruípe, Itanhém e Jucuruçu",3.8,0.0,0.2,0.2,0.0,0.0,1.2,2.4,1.8,3.8,8.8,0.2,0.2,0.2,0.4,0.4,0.6,0.4,4.4,0.6,2.0,3.0,1.8,0.2,5.4,1.8,0.2,10.6,18.4,1.2,0.2,74.4
Itamaraju,A455,Itamaraju,Itamaraju - A455,-17.17103,-39.58819,Sul,"RPGA dos Rios Peruípe, Itanhém e Jucuruçu",0.2,0.8,0.8,0.0,0.0,0.0,0.0,0.0,1.8,0.0,2.6,1.6,0.2,0.0,0.0,0.2,0.0,0.0,2.0,7.2,2.4,5.0,10.4,4.4,11.2,7.8,4.8,10.4,2.0,0.0,0.0,75.8
Canavieiras,83398,Canavieiras,Canavieiras - 83398,-15.666667,-38.95,Sul,RPGA do Rio Pardo,1.2,0.9,1.4,0.0,0.0,0.0,1.1,2.9,1.8,0.0,13.3,0.0,0.0,0.0,0.0,0.0,0.0,6.3,0.0,4.3,2.8,8.2,6.3,16.6,19.1,1.3,1.7,2.9,28.2,0.0,0.0,120.3
Guaratinga,83446,Guaratinga,Guaratinga - 83446,-16.58,-39.78,Sul,"RPGA dos Rios dos Frades, Buranhém e Santo Antônio",1.8,0.0,0.8,0.0,0.0,0.0,0.0,0.0,0.0,0.0,0.6,1.4,0.2,0.0,0.0,0.0,0.0,0.0,0.0,1.2,2.5,4.7,11.6,13.8,5.8,0.8,1.5,8.7,1.2,2.4,0.0,59.0
Passagem,291490101A,Itacaré,Itacaré (Passagem) - 291490101A,-14.280609,-39.002952,Sul,RPGA do Rio de Contas,1.6,4.8,0.0,0.0,0.0,0.0,41.6,0.2,1.6,0.0,0.6,0.0,0.2,0.0,0.0,0.0,0.2,3.6,0.8,16.0,24.4,3.4,9.4,7.0,17.0,9.4,4.8,2.6,4.8,10.0,0.4,164.41
Pau Brasil,292390201A,Pau Brasil,Pau Brasil - 292390201A,-15.46122,-39.65225,Sul,RPGA do Rio Pardo,0.0,0.2,3.0,0.0,0.0,0.0,0.0,0.0,0.0,0.2,3.4,0.0,0.0,0.0,0.0,0.0,0.2,0.4,0.2,11.6,13.6,4.2,7.6,7.2,9.0,0.2,5.0,17.2,9.2,3.6,0.0,96.01
Maraú,A438,Maraú,Maraú - A438,-13.90694,-38.97222,Sul,RPGA do Recôncavo Sul,0.8,2.4,3.4,0.0,0.0,0.0,23.4,3.0,9.6,0.0,3.4,0.6,0.2,0.0,0.2,0.0,0.0,14.6,5.4,21.4,15.2,2.0,9.4,1.6,9.0,3.4,2.2,10.8,1.6,19.4,0.2,163.2
Una,A437,Una,Una - A437,-15.280215,-39.09127,Sul,RPGA do Leste,0.6,4.0,0.2,0.0,0.0,0.2,0.4,0.2,0.2,0.0,0.8,0.6,0.4,0.0,0.2,0.2,0.0,2.8,0.0,4.6,10.4,12.2,9.4,7.6,5.0,3.2,5.8,5.2,5.0,0.0,0.2,79.4
Porto Seguro,A427,Porto Seguro,Porto Seguro - A427,-16.388977,-39.182389,Sul,"RPGA dos Rios dos Frades, Buranhém e Santo Antônio",0.6,0.0,5.4,0.2,0.0,0.0,1.8,0.2,0.2,0.2,5.2,2.0,0.0,0.2,0.2,0.2,4.2,15.8,1.0,12.8,11.2,8.0,29.0,10.0,4.8,0.0,6.2,34.0,18.2,0.8,0.0,172.4
Abrolhos,A422,Caravelas,Caravelas (Abrolhos) - A422,-17.79052,-39.22789,Sul,"RPGA dos Rios Peruípe, Itanhém e Jucuruçu",6.2,0.2,0.0,0.0,0.0,0.0,0.0,1.2,0.0,0.0,8.8,0.0,0.0,0.0,0.0,0.0,0.0,0.0,8.4,0.0,0.0,0.6,0.0,0.0,1.2,0.0,0.0,2.4,0.0,0.8,0.0,29.81
Belmonte,A447,Belmonte,Belmonte - A447,-16.08487,-39.21726,Sul,"RPGA dos Rios dos Frades, Buranhém e Santo Antônio",0.2,1.6,0.0,0.0,0.0,0.0,7.2,0.2,0.2,0.0,7.0,0.6,0.0,0.0,0.2,0.0,0.0,4.4,0.6,2.8,7.8,14.8,17.0,11.4,3.8,0.0,8.4,12.4,15.4,0.2,0.0,116.21
PCH Colino I J,55357000,Jucuruçu,Jucuruçu (PCH Colino I J) - 55357000,-17.0822,-40.0772,Sul,"RPGA dos Rios Peruípe, Itanhém e Jucuruçu",0.0,0.25,0.5,0.0,0.25,0.0,4.75,0.25,0.75,0.0,3.75,0.25,0.25,0.0,0.0,0.0,0.75,0.0,1.0,2.5,5.25,16.5,18.5,15.0,18.5,4.25,1.25,16.75,4.0,9.75,0.0,125.0
Eunápolis,FB-CL-01,Eunápolis,Eunápolis - FB-CL-01,-16.290555,-39.579722,Sul,"RPGA dos Rios dos Frades, Buranhém e Santo Antônio",0.25,0.0,0.75,0.0,0.0,0.0,0.0,0.0,0.5,0.0,1.0,1.0,0.0,0.0,0.0,0.0,0.0,0.0,0.0,0.75,7.75,4.25,14.5,8.25,4.5,3.5,3.75,5.25,1.0,3.0,0.0,60.0
Teixeira de Freitas,PJ-CL-01,Teixeira de Freitas,Teixeira de Freitas - PJ-CL-01,-17.575555,-39.732777,Sul,"RPGA dos Rios Peruípe, Itanhém e Jucuruçu",0.5,0.0,1.0,0.0,0.0,0.0,0.0,0.0,1.0,0.0,2.0,2.0,0.0,0.0,0.0,0.0,0.0,0.0,1.75,0.75,1.5,9.0,2.75,2.75,10.0,0.0,2.25,2.5,4.5,4.5,0.0,48.75
Trancoso,292530303A,Porto Seguro,Porto Seguro (Trancoso) - 292530303A,-16.595,-39.109,Sul,"RPGA dos Rios dos Frades, Buranhém e Santo Antônio",0.79,4.74,0.2,0.0,0.0,0.0,4.39,0.8,0.99,0.98,7.33,0.99,0.2,0.0,0.0,0.2,14.37,16.15,1.39,4.98,9.28,3.74,14.96,6.31,5.16,0.39,3.75,35.87,14.07,0.6,0.0,152.63
Jusante,54945000,Itapebi,Itapebi (Jusante) - 54945000,-15.949206,-39.5225,Sul,RPGA do Rio Jequitinhonha,0.0,0.0,0.0,0.0,0.0,0.0,0.0,0.0,0.0,0.0,2.6,0.2,6.0,0.0,0.0,0.2,0.0,5.0,0.0,2.0,5.8,9.2,13.0,17.2,12.6,0.0,6.0,7.6,5.6,5.4,0.0,98.4
Morpará,46360000,Morpará,Morpará - 46360000,-11.5583,-43.2825,São Francisco,RPGA dos Rios Paramirim e Santo Onofre,0.0,0.0,0.0,0.0,0.0,0.0,0.0,0.0,0.0,0.0,0.0,0.0,0.0,0.0,0.0,0.0,0.0,0.0,0.0,0.0,0.0,0.0,0.0,0.0,0.0,0.0,0.0,0.0,0.0,0.0,0.0,0.0
Bom Jesus da Lapa,A418,Bom Jesus da Lapa,Bom Jesus da Lapa - A418,-13.251094,-43.405365,São Francisco,RPGA do Rio Carnaíba de Dentro,0.0,0.0,0.0,0.0,0.0,0.0,0.0,0.0,0.0,0.0,0.0,0.0,0.0,0.0,0.0,0.0,0.0,0.0,0.0,0.0,0.0,0.0,0.0,0.0,0.0,0.0,0.0,0.0,0.0,0.0,0.0,0.0
Pilão Arcado,A449,Pilão Arcado,Pilão Arcado - A449,-10.003519,-42.474785,São Francisco,RPGA do Lago de Sobradinho,0.0,0.0,0.0,0.0,0.0,0.0,0.0,0.0,0.0,0.0,0.0,0.0,0.0,0.0,0.0,0.0,0.0,0.0,0.0,0.0,0.0,0.0,0.0,0.0,0.0,0.0,0.0,0.0,0.0,0.4,0.0,0.4
Bom Jesus da Lapa,83288,Bom Jesus da Lapa,Bom Jesus da Lapa - 83288,-13.251389,-43.405278,São Francisco,RPGA do Rio Carnaíba de Dentro,0.0,0.0,0.0,0.0,0.0,0.0,0.0,0.0,0.0,0.0,0.0,0.0,0.0,0.0,0.0,0.0,0.0,0.0,0.0,0.0,0.0,0.0,0.0,0.0,0.0,0.0,0.0,0.0,0.0,0.0,0.0,0.0
Carinhanha,83408,Carinhanha,Carinhanha - 83408,-14.283333,-43.766667,São Francisco,"RPGA do Rio Corrente e Riachos do Ramalho, Serra Dourada e Brejo Velho",0.0,0.0,0.0,0.0,0.0,0.0,0.0,0.0,0.0,0.0,0.0,0.0,0.0,0.0,0.0,0.0,0.0,0.0,0.0,0.0,0.0,0.0,0.0,0.0,0.0,0.0,0.0,0.0,0.0,0.0,0.0,0.0
Guanambí,A426,Guanambí,Guanambí - A426,-14.208123,-42.749647,São Francisco,RPGA do Rio Carnaíba de Dentro,0.0,0.0,0.0,0.0,0.0,0.0,0.0,0.0,0.0,0.0,0.0,0.0,0.0,0.0,0.0,0.0,0.0,0.0,0.0,0.0,0.0,0.0,0.0,0.0,0.0,0.0,0.0,0.0,0.0,0.0,0.0,0.0
Buritirama,A432,Buritirama,Buritirama - A432,-10.722925,-43.651203,São Francisco,RPGA do Rio Grande,0.0,0.0,0.0,0.0,0.0,0.0,2.2,0.0,0.0,0.0,0.0,0.0,0.0,0.0,0.0,0.0,0.0,0.0,0.0,0.0,0.0,0.0,0.0,0.0,0.0,0.0,0.0,0.0,0.0,0.0,0.0,2.2
Barra,A429,Barra,Barra - A429,-11.084858,-43.138998,São Francisco,RPGA do Rio Grande,0.0,0.0,0.0,0.0,0.0,0.0,0.0,0.0,0.0,0.0,0.0,0.0,0.0,0.0,0.0,0.0,0.0,0.0,0.0,0.0,0.0,0.0,0.0,0.0,0.0,0.0,0.0,0.0,0.0,0.0,0.0,0.0
Ibotirama,A439,Ibotirama,Ibotirama - A439,-12.19306,-43.21342,São Francisco,RPGA dos Rios Paramirim e Santo Onofre,0.0,0.0,0.0,0.0,0.0,0.0,0.0,0.0,0.0,0.0,0.0,0.0,0.0,0.0,0.0,0.0,0.0,0.0,0.0,0.0,0.0,0.0,0.0,0.0,0.0,0.0,0.0,0.0,0.0,0.0,0.0,0.0
Zabumbão,PM-PR-02,Paramirim,Paramirim (Zabumbão) - PM-PR-02,-13.43836,-42.21638,São Francisco,RPGA dos Rios Paramirim e Santo Onofre,0.0,0.0,0.0,0.0,0.0,0.0,0.0,0.0,0.0,0.0,0.0,0.0,0.0,0.0,0.0,0.0,0.0,0.0,0.0,0.0,0.0,0.0,0.0,0.0,0.0,0.0,0.0,0.0,0.0,0.0,0.0,0.0
Macaúbas,PM-CL-02,Macaúbas,Macaúbas - PM-CL-02,-13.07953,-42.6957,São Francisco,RPGA dos Rios Paramirim e Santo Onofre,0.0,0.0,0.0,0.0,0.0,0.0,0.0,0.4,0.0,0.0,0.0,0.0,0.0,0.0,0.0,0.0,0.0,0.0,0.0,0.0,0.0,0.0,0.0,0.0,0.0,0.0,0.0,0.0,0.0,0.0,0.0,0.4
Faz. Macambira,46675000,Cotegipe,Cotegipe (Faz. Macambira) - 46675000,-11.6106,-44.1567,São Francisco,RPGA do Rio Grande,0.0,0.0,0.0,0.0,0.0,0.0,0.0,0.0,2.2,0.0,0.0,0.0,0.0,0.0,0.0,0.0,0.2,0.0,0.0,0.0,0.0,0.0,0.0,0.0,0.0,0.0,0.0,0.0,0.0,0.0,0.0,2.41
Fz.P. Limpo,46870000,Mansidão,Mansidão (Fz.P. Limpo) - 46870000,-11.236845,-43.950633,São Francisco,RPGA do Rio Grande,0.0,0.0,0.0,0.0,0.0,0.0,0.0,0.0,0.2,0.0,0.0,0.2,0.0,0.0,0.0,0.0,0.0,0.0,0.0,0.0,0.0,0.0,0.0,0.0,0.0,0.0,0.0,0.0,0.0,0.0,0.0,0.4
Fazenda Caraíbas,,Fazenda Caraíbas,Fazenda Caraíbas,-12.571486,-42.074028,São Francisco,RPGA dos Rios Paramirim e Santo Onofre,0.2,0.0,0.0,0.0,0.0,1.2,0.2,0.0,0.0,0.0,0.0,0.0,0.0,0.0,0.0,0.0,0.0,0.0,0.0,0.0,0.2,0.2,0.4,0.2,0.0,0.0,1.0,0.0,0.2,0.0,0.0,3.81
Santa Maria da Vitória,45910001,Santa Maria da Vitória,Santa Maria da Vitória - 45910001,-13.4006,-44.1989,São Francisco,"RPGA do Rio Corrente e Riachos do Ramalho, Serra Dourada e Brejo Velho",0.0,0.0,0.0,0.0,0.0,0.0,0.0,0.0,0.0,0.0,0.0,0.0,0.0,0.0,0.0,0.0,0.0,0.0,0.0,0.0,0.0,0.0,0.0,0.0,0.0,0.0,0.0,0.0,0.0,0.0,0.0,0.0
Caetité,CD-CL-01,Caetité,Caetité - CD-CL-01,-13.96659,-42.60482,São Francisco,RPGA do Rio Carnaíba de Dentro,0.0,0.0,0.0,0.0,0.0,0.0,0.0,0.0,0.0,0.0,0.0,0.0,0.0,0.0,0.0,0.0,0.0,0.0,0.0,0.0,0.0,0.0,0.0,0.5,0.0,0.0,0.0,0.0,0.0,0.0,0.0,0.5
Barra,46998000,Barra,Barra - 46998000,-11.0928,-43.1403,São Francisco,RPGA do Rio Grande,0.0,0.0,0.0,0.0,0.0,0.0,0.0,0.0,0.0,0.0,0.0,0.0,0.0,0.0,0.0,0.0,0.0,0.0,0.0,0.0,0.0,0.0,0.0,0.0,0.0,0.0,0.0,0.0,0.0,0.0,0.0,0.0
Boqueirão,46902000,Mansidão,Mansidão (Boqueirão) - 46902000,-11.345255,-43.826056,São Francisco,RPGA do Rio Grande,0.0,0.0,0.0,0.0,0.0,0.0,0.0,0.0,0.0,0.0,0.0,0.0,0.0,0.0,0.0,0.0,0.0,0.0,0.0,0.0,0.0,0.0,0.0,0.0,0.0,0.0,0.0,0.0,0.0,0.0,0.0,0.0
Boquira,PM-PR-05,Boquira,Boquira - PM-PR-05,-12.81037,-42.71849,São Francisco,RPGA dos Rios Paramirim e Santo Onofre,0.0,0.0,0.0,0.0,0.0,0.0,0.0,0.6,0.0,0.0,0.0,0.0,0.0,0.0,0.0,0.0,0.0,0.0,0.0,0.0,0.0,0.0,0.0,0.0,0.0,0.0,0.0,0.0,0.0,0.0,0.0,0.6
Volta da Serra,CD-CL-02,Paratinga,Paratinga (Volta da Serra) - CD-CL-02,-12.57591,-43.12782,São Francisco,RPGA do Rio Carnaíba de Dentro,0.0,0.0,0.0,0.0,0.0,0.0,0.0,0.0,0.0,0.0,0.0,0.0,0.0,0.0,0.0,0.0,0.0,0.0,0.0,0.0,0.0,1.2,0.0,0.0,0.0,0.2,0.0,0.0,0.0,0.0,0.0,1.4
