nome_estacao,codigo,municipio,estacao,latitude,longitude,regiao,rpga,01_03_19,02_03_19,03_03_19,04_03_19,05_03_19,06_03_19,07_03_19,08_03_19,09_03_19,10_03_19,11_03_19,12_03_19,13_03_19,14_03_19,15_03_19,16_03_19,17_03_19,18_03_19,19_03_19,20_03_19,21_03_19,22_03_19,23_03_19,24_03_19,25_03_19,26_03_19,27_03_19,28_03_19,29_03_19,30_03_19,31_03_19,total
Itaberaba,A408,Itaberaba,Itaberaba - A408,-12.524062,-40.299714,Chapada Diamantina,RPGA do Rio Paraguaçu,0.0,0.0,0.0,0.0,0.0,0.0,0.0,0.0,0.0,0.0,0.0,0.0,0.0,0.0,0.0,0.0,0.0,0.0,0.0,0.0,0.0,0.0,0.0,5.0,1.0,0.2,0.0,0.2,0.0,2.0,0.2,8.6
Macajuba,A412,Macajuba,Macajuba - A412,-12.131694,-40.354222,Chapada Diamantina,RPGA do Rio Paraguaçu,0.0,0.0,0.0,0.0,0.0,0.8,1.6,0.0,0.0,0.0,0.0,0.0,0.0,0.0,0.0,0.0,0.0,0.0,0.0,0.0,2.4,11.8,42.8,28.4,16.2,4.0,6.8,20.8,0.2,0.0,0.0,135.8
Lençóis,83242,Lençóis,Lençóis - 83242,-12.5575,-41.388889,Chapada Diamantina,RPGA do Rio Paraguaçu,0.0,0.0,0.0,2.2,0.3,4.5,0.7,3.6,0.0,0.0,0.0,0.0,0.0,0.0,0.0,0.0,0.0,0.0,0.0,0.0,11.8,0.6,48.3,30.6,41.5,18.4,0.0,9.0,0.0,0.0,2.2,173.7
Morro do Chapéu,83184,Morro do Chapéu,Morro do Chapéu - 83184,-11.216667,-41.216667,Chapada Diamantina,RPGA do Rio Salitre,0.0,0.0,0.0,0.0,0.0,0.0,0.0,0.0,0.0,0.0,0.0,0.0,0.2,0.0,0.0,0.0,0.0,0.0,0.0,0.0,5.9,3.6,49.0,7.4,0.4,10.6,0.2,2.2,0.0,0.0,0.0,79.51
Piatã,A430,Piatã,Piatã - A430,-13.155681,-41.774125,Chapada Diamantina,RPGA do Rio de Contas,0.0,0.0,0.0,0.0,0.0,0.0,0.0,0.0,0.0,0.0,0.0,0.0,0.0,0.0,0.0,0.0,0.0,0.0,0.0,5.2,34.4,12.4,18.2,2.6,60.6,12.4,0.0,9.6,0.2,0.0,0.0,155.6
Livramento de Nossa Senhora,291950401U,Livramento de Nossa Senhora,Livramento de Nossa Senhora - 291950401U,-13.682872,-41.841236,Chapada Diamantina,RPGA do Rio de Contas,0.0,0.0,0.0,0.0,0.4,0.0,0.0,0.0,0.0,0.0,0.0,0.0,0.0,0.0,0.0,0.0,0.0,0.0,0.0,1.2,141.4,12.4,25.4,26.0,19.2,2.6,14.8,0.2,0.0,0.0,0.0,243.6
Iaçu,51280000,Iaçu,Iaçu - 51280000,-12.7622,-40.2136,Chapada Diamantina,RPGA do Rio Paraguaçu,0.0,0.0,0.0,0.0,0.0,1.0,0.0,0.0,0.0,0.0,0.0,0.0,0.0,0.0,0.0,0.0,0.0,0.0,0.0,0.0,20.4,0.0,23.4,35.0,0.0,2.6,0.0,0.0,0.0,1.2,0.0,83.6
Lençóis,A425,Lençóis,Lençóis - A425,-12.557854,-41.388808,Chapada Diamantina,RPGA do Rio Paraguaçu,0.0,0.0,0.0,2.2,0.2,4.6,0.8,3.4,0.0,0.0,0.0,0.0,0.0,0.0,0.0,0.0,0.0,0.0,0.0,0.0,12.6,0.6,45.8,30.2,41.2,18.6,0.0,9.0,0.0,0.0,2.4,171.6
Itaetê,,Itaetê,Itaetê,-12.991944,-40.960833,Chapada Diamantina,RPGA do Rio Paraguaçu,0.0,0.0,0.0,0.0,5.4,12.2,0.0,0.0,0.0,0.0,0.0,0.0,0.0,0.0,0.0,0.0,0.0,0.0,0.0,0.0,41.6,23.4,2.6,2.2,0.8,1.4,1.2,0.6,0.2,0.2,0.0,91.8
Lagoa Bonita,PG-PR-15,Iacú,Iacú (Lagoa Bonita) - PG-PR-15,-12.931506,-40.226468,Chapada Diamantina,RPGA do Rio Paraguaçu,0.0,0.0,0.0,1.2,1.2,0.8,0.0,0.6,0.0,0.0,0.0,0.0,0.0,0.0,0.0,0.0,0.0,0.0,0.0,0.0,44.0,0.2,53.2,72.6,1.2,13.4,0.4,0.0,0.0,0.2,0.0,189.0
João Amaro,PG-PR-16,Iaçu,Iaçu (João Amaro) - PG-PR-16,-12.800391,-40.363139,Chapada Diamantina,RPGA do Rio Paraguaçu,0.0,0.0,0.0,0.0,0.0,3.0,0.0,0.0,0.0,0.0,0.0,0.0,0.0,0.0,0.0,0.0,0.0,0.0,0.0,0.0,15.2,0.2,36.6,57.2,0.6,12.2,0.0,0.0,0.0,0.0,0.0,125.0
Ruy Barbosa,PG-PR-18,Ruy Barbosa,Ruy Barbosa - PG-PR-18,-12.285653,-40.513698,Chapada Diamantina,RPGA do Rio Paraguaçu,0.0,0.0,0.0,0.2,0.0,2.8,0.0,0.2,0.0,0.0,0.0,0.0,0.0,0.0,0.0,0.0,0.0,0.0,0.0,0.0,21.0,10.4,4.8,12.4,12.8,0.0,0.0,9.6,0.0,0.0,0.0,74.2
Machado Portela,PG-PR-26,Marcionílio Souza,Marcionílio Souza (Machado Portela) - PG-PR-26,-13.153732,-40.768155,Chapada Diamantina,RPGA do Rio Paraguaçu,0.0,0.0,0.0,0.0,0.0,22.8,0.0,0.0,0.0,0.0,0.0,0.0,0.0,0.0,0.0,0.0,0.0,0.0,0.0,0.0,16.6,1.0,70.4,57.6,16.2,0.0,3.4,0.2,0.0,0.0,0.0,188.2
Mulungu do Morro,,Mulungu do Morro,Mulungu do Morro,-11.980363,-41.619012,Chapada Diamantina,RPGA do Rio Paraguaçu,0.0,0.0,0.0,0.0,0.0,0.4,0.0,0.0,0.0,0.0,0.0,0.0,0.0,0.0,0.0,0.0,0.0,0.0,0.0,0.0,1.4,1.4,11.8,29.6,3.2,9.6,0.0,2.0,0.0,0.0,0.0,59.41
Rio do Pires,PM-CL-04,Rio do Pires,Rio do Pires - PM-CL-04,-13.11695,-42.28411,Chapada Diamantina,RPGA dos Rios Paramirim e Santo Onofre,0.0,0.0,0.2,0.0,0.0,1.8,0.0,0.0,0.0,0.8,1.8,0.0,0.0,16.4,0.8,0.0,0.0,0.0,0.0,52.6,8.4,5.6,55.4,0.0,50.8,18.4,16.6,0.4,0.0,0.0,0.0,230.01
Seabra,PG-CL-09,Seabra,Seabra - PG-CL-09,-12.39971,-41.78893,Chapada Diamantina,RPGA do Rio Paraguaçu,0.0,0.0,0.0,0.0,0.0,0.0,0.0,0.0,0.0,0.0,0.0,0.0,0.0,0.0,0.0,0.0,0.0,0.0,0.0,0.0,0.2,5.2,56.2,25.2,22.4,7.2,0.0,3.4,0.0,0.0,0.0,119.8
Canarana,,Canarana,Canarana,-11.69541,-41.78921,Chapada Diamantina,RPGA dos Rios Verde e Jacaré,0.0,5.2,0.0,0.0,0.0,0.0,0.0,0.0,0.0,0.0,0.0,0.0,0.0,0.0,0.0,0.0,0.0,0.0,0.0,0.0,0.0,20.4,0.2,97.0,3.2,5.4,0.2,1.0,0.0,0.0,0.0,132.6
Iaçu,PG-CL-05,Iaçu,Iaçu - PG-CL-05,-12.9114,-40.03177,Chapada Diamantina,RPGA do Rio Paraguaçu,0.0,0.0,0.0,0.0,5.2,4.2,0.0,0.0,0.0,0.0,0.0,0.0,0.0,0.0,0.0,0.0,0.0,0.0,0.0,0.0,11.4,0.2,74.2,34.2,0.0,4.4,0.0,0.0,0.0,0.0,0.0,133.8
Barra dos Mendes,,Barra dos Mendes,Barra dos Mendes,-11.805077,-42.05708,Chapada Diamantina,RPGA dos Rios Verde e Jacaré,0.0,0.0,0.0,0.0,0.0,2.0,0.0,0.0,0.0,0.0,0.0,0.0,0.0,0.0,0.0,0.0,0.0,0.0,0.0,0.0,0.0,1.4,47.8,34.4,11.0,30.6,0.2,0.0,0.0,0.0,0.0,127.4
Olho D'Água do Francisco,,Olho D'Água do Francisco,Olho D'Água do Francisco,-12.307034,-42.079028,Chapada Diamantina,RPGA dos Rios Verde e Jacaré,0.0,0.0,0.0,0.0,0.0,0.0,0.0,0.0,0.0,0.0,0.0,0.0,0.0,0.0,0.0,0.0,0.0,0.0,0.0,0.0,16.6,3.2,25.6,35.0,42.6,21.0,0.0,0.2,0.0,0.0,0.0,144.2
Ibiaporã,PG-CL-01,Mundo Novo,Mundo Novo (Ibiaporã) - PG-CL-01,-12.05379,-40.83722,Chapada Diamantina,RPGA do Rio Paraguaçu,0.0,0.0,0.0,2.4,0.0,0.2,0.6,0.0,0.0,0.0,0.0,0.0,0.0,0.0,0.0,0.0,0.0,0.0,0.0,0.0,25.8,18.8,13.4,35.2,3.2,0.2,15.4,2.0,0.0,0.0,0.0,117.21
Marcionílio Souza,PG-CL-03,Marcionílio Souza,Marcionílio Souza - PG-CL-03,-13.00021,-40.537783,Chapada Diamantina,RPGA do Rio Paraguaçu,0.0,0.0,0.0,0.0,5.0,0.0,0.0,8.8,0.0,3.6,0.0,0.0,0.0,0.0,0.0,0.0,0.0,0.0,0.0,0.0,60.8,0.6,33.8,78.0,6.0,4.0,0.4,0.0,0.2,0.2,0.0,201.4
Seabra,PG-PR-01,Seabra,Seabra - PG-PR-01,-12.428149,-41.770409,Chapada Diamantina,RPGA do Rio Paraguaçu,0.0,0.0,0.0,0.0,0.0,0.0,0.0,0.0,0.0,0.0,0.0,0.0,0.0,0.0,0.0,0.0,0.0,0.0,0.0,0.0,9.8,2.4,55.4,28.2,9.0,3.6,0.0,1.2,0.2,0.0,0.0,109.8
Piritiba,PG-PR-07,Piritiba,Piritiba - PG-PR-07,-11.733137,-40.562306,Chapada Diamantina,RPGA do Rio Paraguaçu,0.0,0.0,0.0,0.0,0.0,11.8,0.2,0.0,0.0,0.0,0.0,0.0,0.0,0.0,0.0,0.0,0.0,0.0,0.0,0.0,38.6,46.8,20.8,46.4,10.2,2.6,0.0,2.6,0.0,0.0,0.0,180.0
Baixa Grande,PG-PR-08,Baixa Grande,Baixa Grande - PG-PR-08,-11.908701,-40.183683,Chapada Diamantina,RPGA do Rio Paraguaçu,0.0,0.0,0.0,0.0,0.0,5.0,0.0,0.0,0.0,0.0,0.0,0.0,0.0,0.0,0.0,0.0,0.0,0.0,0.0,0.0,37.0,5.0,41.0,43.0,111.8,0.0,0.6,12.0,0.0,0.0,1.6,257.0
Ventura,PG-PR-10,Morro do Chapéu,Morro do Chapéu (Ventura) - PG-PR-10,-11.650911,-40.951765,Chapada Diamantina,RPGA do Rio Paraguaçu,0.0,0.0,0.0,0.2,0.0,0.2,0.0,0.0,0.0,0.0,0.0,0.0,2.2,0.0,0.0,0.0,0.0,0.0,0.0,0.0,39.0,11.2,15.6,32.6,0.2,3.8,3.2,11.6,0.0,0.0,0.0,119.8
Bonito,PG-PR-11,Bonito,Bonito - PG-PR-11,-11.98993,-41.25429,Chapada Diamantina,RPGA do Rio Paraguaçu,0.0,0.0,0.0,0.0,0.0,14.4,1.0,0.2,0.0,0.0,0.0,0.0,0.0,0.0,0.0,0.0,0.0,0.0,0.0,0.0,1.8,37.0,1.8,38.0,6.8,15.8,2.6,6.2,0.0,0.0,0.0,125.6
Piatã,CO-CL-04,Piatã,Piatã - CO-CL-04,-13.164166,-41.770833,Chapada Diamantina,RPGA do Rio de Contas,0.0,0.0,0.0,0.0,0.0,0.0,0.0,0.1,0.0,0.0,0.0,0.0,0.0,0.0,0.0,0.0,0.0,0.0,0.0,7.3,13.25,29.0,29.0,6.75,62.5,18.25,0.25,14.5,0.0,0.0,0.0,180.9
Souto Soares,PG-CL-04,Souto Soares,Souto Soares - PG-CL-04,-12.08538,-41.64815,Chapada Diamantina,RPGA do Rio Paraguaçu,0.0,0.0,0.0,0.0,0.0,0.2,0.0,0.0,0.0,0.0,0.0,0.0,0.0,0.0,0.0,0.0,0.0,0.0,0.0,0.0,0.0,0.0,15.0,5.4,0.8,0.4,0.0,5.4,0.0,0.2,0.3,27.71
Utinga,293280401C,Utinga,Utinga - 293280401C,-12.0756,-41.102466,Chapada Diamantina,RPGA do Rio Paraguaçu,0.0,0.0,0.0,0.0,0.0,1.0,0.0,0.0,0.0,0.0,0.0,0.0,0.0,0.0,0.0,0.0,0.0,0.0,0.0,0.0,8.6,28.4,6.0,18.0,31.2,2.8,5.8,6.8,0.0,0.0,0.0,108.6
Barro Alto,290323501C,Barro Alto,Barro Alto - 290323501C,-11.811728,-41.901164,Chapada Diamantina,RPGA dos Rios Verde e Jacaré,0.0,0.0,0.0,0.0,0.0,0.0,0.0,0.0,0.0,0.0,0.0,0.0,0.0,0.0,0.0,0.0,0.0,0.0,0.0,0.0,0.0,12.2,26.8,22.2,3.2,25.2,0.0,2.8,0.0,0.0,0.0,92.4
Ibicoara,291220201C,Ibicoara,Ibicoara - 291220201C,-13.446389,-41.297933,Chapada Diamantina,RPGA do Rio de Contas,0.0,0.0,0.0,0.0,0.0,2.6,0.0,0.0,0.0,4.2,0.0,0.0,0.0,0.0,0.0,0.0,0.0,0.0,0.0,1.4,73.8,8.4,17.2,7.2,10.6,1.2,0.0,17.0,0.0,0.0,0.2,143.8
Curaçá,A448,Curaçá,Curaçá - A448,-9.0013,-39.9124,Nordeste,RPGA dos Rios Macururé e Curaçá,0.0,0.0,0.0,0.0,0.0,0.0,0.0,0.0,0.0,0.0,0.0,0.0,0.0,0.0,0.0,0.0,0.0,0.0,0.0,0.0,0.0,0.0,0.0,0.2,0.0,0.0,0.0,0.0,0.0,0.0,0.0,0.2
Chorrochó,290770701C,Chorrochó,Chorrochó - 290770701C,-8.98354,-39.11837,Nordeste,RPGA dos Rios Macururé e Curaçá,0.0,0.0,0.0,0.0,5.6,0.0,0.0,0.0,0.0,0.0,0.0,0.0,2.2,0.2,8.8,0.0,0.0,0.0,0.0,0.0,0.0,0.8,0.0,16.4,2.0,0.0,0.0,4.4,0.0,0.0,1.2,41.6
Rodelas,292710101C,Rodelas,Rodelas - 292710101C,-8.85236,-38.76462,Nordeste,RPGA dos Rios Macururé e Curaçá,0.6,0.0,0.0,7.0,2.0,3.2,1.2,0.2,0.0,0.0,0.0,0.0,0.0,1.2,0.0,0.0,0.0,0.0,0.0,0.0,0.0,0.0,0.6,3.8,2.2,2.2,2.0,1.6,1.4,1.0,0.8,31.0
Nova Fátima,292273001C,Nova Fátima,Nova Fátima - 292273001C,-11.696805,-39.656722,Nordeste,RPGA do Rio Paraguaçu,0.0,0.0,0.0,0.0,0.0,0.2,0.0,0.0,0.0,0.0,0.0,0.0,0.0,0.0,0.0,0.0,0.0,0.0,0.0,0.0,0.0,26.2,76.0,10.0,2.8,6.6,1.6,9.6,0.2,3.6,0.0,136.8
Cipó,83192,Cipó,Cipó - 83192,-11.083333,-38.516667,Nordeste,RPGA do Rio Itapicuru,0.0,0.0,0.0,0.0,6.2,0.0,6.6,0.0,0.0,0.0,0.0,0.0,5.8,41.0,4.2,0.0,0.0,0.0,0.0,0.0,0.0,0.0,31.2,0.0,29.6,0.0,9.6,4.4,0.6,4.8,3.8,147.8
Jacobina,83186,Jacobina,Jacobina - 83186,-11.172778,-40.534167,Nordeste,RPGA do Rio Itapicuru,0.0,0.0,0.0,0.0,8.6,3.4,0.0,0.0,0.0,0.0,0.0,0.0,4.5,0.0,0.0,0.0,0.0,0.0,0.0,0.0,2.9,0.0,14.8,0.2,29.2,4.0,35.0,3.4,0.0,0.0,1.7,107.71
Ladeira Vermelha,291750801A,Jacobina,Jacobina (Ladeira Vermelha) - 291750801A,-11.161707,-40.554213,Nordeste,RPGA do Rio Itapicuru,0.0,0.0,0.6,0.2,0.6,3.0,0.0,0.0,0.0,0.0,0.0,0.0,6.2,0.0,0.0,0.0,0.0,0.0,0.0,0.0,1.2,0.0,7.6,4.0,32.0,1.6,23.4,1.6,0.0,0.0,4.8,86.8
Monte Santo,83090,Monte Santo,Monte Santo - 83090,-10.4425,-39.331111,Nordeste,RPGA do Rio Itapicuru,0.0,0.0,0.0,0.0,9.4,0.0,1.0,0.0,0.0,0.0,0.0,0.0,0.0,0.9,0.0,0.0,0.0,0.0,0.0,0.0,19.2,4.2,6.0,0.0,24.9,0.3,0.0,0.0,0.0,0.0,0.0,65.9
Feliz Tomaz,291750802A,Jacobina,Jacobina (Feliz Tomaz) - 291750802A,-11.174316,-40.517837,Nordeste,RPGA do Rio Itapicuru,0.0,0.0,0.0,1.2,15.6,5.0,0.0,0.0,0.0,0.0,0.0,0.0,5.4,0.0,0.0,0.0,0.0,0.0,0.0,0.0,0.6,0.0,21.2,1.2,36.0,9.0,33.4,4.8,0.0,0.2,0.8,134.4
Serrinha,83190,Serrinha,Serrinha - 83190,-11.633333,-38.966667,Nordeste,RPGA do Recôncavo Norte,0.0,0.0,0.8,0.0,0.0,0.0,0.5,0.0,15.1,0.0,0.0,0.0,0.0,0.0,0.0,0.0,0.0,0.0,0.0,0.0,0.0,0.0,47.9,0.0,29.2,0.0,0.5,11.8,0.0,0.7,11.1,117.6
Conde,A431,Conde,Conde - A431,-12.03622,-37.68322,Nordeste,RPGA do Rio Itapicuru,0.0,0.0,8.4,12.0,14.2,17.8,1.4,0.2,0.0,0.0,0.0,0.0,0.0,1.4,16.0,0.0,0.0,0.0,0.0,0.0,0.0,0.0,19.2,0.2,12.2,0.0,52.2,8.6,8.2,1.2,43.8,217.0
Euclides da Cunha,A442,Euclides da Cunha,Euclides da Cunha - A442,-10.537233,-38.996605,Nordeste,RPGA do Rio Itapicuru,0.0,0.0,0.0,0.2,0.0,0.0,4.6,0.0,0.0,0.0,0.0,0.0,0.0,0.0,3.8,0.4,0.0,0.0,0.0,0.0,1.0,0.8,74.2,1.4,0.0,0.0,6.0,1.2,0.0,0.2,6.4,100.21
Queimadas,A436,Queimadas,Queimadas - A436,-10.984645,-39.617009,Nordeste,RPGA do Rio Itapicuru,0.0,0.0,0.0,0.2,0.6,0.0,3.4,0.0,0.0,0.0,0.0,0.0,0.0,0.0,0.0,0.0,0.0,0.0,0.0,2.0,4.8,0.2,1.4,9.0,36.8,6.8,0.2,27.8,0.0,0.0,0.4,93.61
Jacobina,A440,Jacobina,Jacobina - A440,-11.205136,-40.464979,Nordeste,RPGA do Rio Itapicuru,0.0,0.0,0.0,0.0,0.0,0.0,0.0,0.0,0.0,0.0,0.0,0.0,0.0,0.0,0.0,0.0,0.0,0.0,0.0,0.0,0.0,0.0,24.6,27.0,89.8,11.6,21.2,4.0,0.0,0.4,2.4,181.0
Heliópolis,291185701C,Heliópolis,Heliópolis - 291185701C,-10.67348,-38.32726,Nordeste,RPGA do Rio Real,0.0,1.6,0.0,0.0,11.6,0.0,0.8,0.0,0.0,0.0,0.0,0.0,0.0,31.8,2.2,0.0,0.0,0.0,0.0,0.0,0.0,0.2,15.4,0.0,0.0,0.0,1.0,7.8,2.0,2.8,1.2,78.4
Serrinha,A441,Serrinha,Serrinha - A441,-11.664586,-39.022946,Nordeste,RPGA do Rio Paraguaçu,0.0,0.0,0.6,0.0,0.0,0.0,0.0,0.0,7.2,0.0,0.0,0.0,0.0,0.0,0.6,0.0,0.0,0.0,0.0,0.0,0.0,0.0,110.4,0.0,31.2,0.0,0.2,22.4,1.8,0.2,6.8,181.4
Coronel João Sá,290920801C,Coronel João Sá,Coronel João Sá - 290920801C,-10.31827,-37.94009,Nordeste,RPGA do Rio Vaza-Barris,0.0,0.0,0.0,4.0,26.6,0.0,0.0,0.0,0.0,0.0,0.0,0.0,0.0,9.4,0.0,0.0,0.0,0.0,0.0,0.0,0.0,17.2,7.6,40.4,0.0,0.0,38.8,0.0,0.0,0.0,4.8,148.8
Sítio do Quinto,293076601C,Sítio do Quinto,Sítio do Quinto - 293076601C,-10.32337,-38.662054,Nordeste,RPGA do Rio Vaza-Barris,0.0,0.0,0.0,7.0,2.4,0.0,0.0,0.0,0.0,0.0,0.0,0.0,0.0,11.2,0.6,0.0,0.0,0.0,0.0,0.0,0.0,21.6,42.8,5.2,16.6,0.2,10.6,6.2,0.0,0.0,12.0,136.4
Senhor do Bonfim,A428,Senhor do Bonfim,Senhor do Bonfim - A428,-10.443072,-40.148244,Nordeste,RPGA do Rio Itapicuru,0.0,0.0,0.0,0.0,0.4,0.0,0.0,0.0,0.0,0.0,0.0,0.0,0.0,0.0,0.0,0.0,0.0,0.0,0.0,0.0,14.0,0.0,46.4,2.2,11.8,0.0,11.4,14.8,0.0,0.0,4.8,105.8
Pedras Altas,50430000,Capim Grosso,Capim Grosso (Pedras Altas) - 50430000,-11.18288,-40.04725,Nordeste,RPGA do Rio Itapicuru,0.0,0.0,0.0,0.2,0.4,0.0,0.0,0.0,0.0,0.0,0.0,0.0,0.0,0.0,0.0,0.0,0.0,0.0,0.0,0.0,0.0,4.4,40.4,0.0,13.0,5.6,0.2,4.4,0.0,0.0,0.0,68.61
Ponto Novo,50380000,Ponto Novo,Ponto Novo - 50380000,-10.845,-40.1128,Nordeste,RPGA do Rio Itapicuru,0.0,0.0,0.0,0.0,0.4,0.0,0.0,0.0,0.0,0.0,0.0,0.0,0.0,0.0,0.0,1.8,0.0,0.0,0.0,0.0,4.4,0.2,51.2,26.2,77.6,0.2,0.0,34.8,0.0,0.0,0.4,197.21
Capim Grosso,IT-CL-03,Capim Grosso,Capim Grosso - IT-CL-03,-11.36833,-40.03417,Nordeste,RPGA do Rio Itapicuru,0.0,0.0,0.0,0.2,1.4,0.4,0.2,0.0,0.0,0.0,0.0,0.0,3.6,1.4,0.0,0.0,0.0,0.0,0.4,0.0,0.0,9.8,37.4,1.2,5.2,3.8,13.0,7.6,0.0,0.0,0.0,85.6
Aporá,IT-CL-01,Aporá,Aporá - IT-CL-01,-11.67082,-38.17485,Nordeste,RPGA do Rio Itapicuru,0.0,0.0,0.0,0.6,0.4,0.0,0.4,0.0,0.0,0.0,0.0,0.0,0.0,0.0,29.6,0.0,0.4,0.0,0.0,0.0,35.8,0.0,31.4,0.0,29.8,0.2,18.2,1.4,1.4,4.8,8.4,162.8
Pé de Serra,PG-CL-07,Pé de Serra,Pé de Serra - PG-CL-07,-11.83676,-39.65905,Nordeste,RPGA do Rio Paraguaçu,0.0,0.0,0.0,0.0,0.0,6.4,0.0,0.0,0.0,0.0,0.0,0.0,0.0,0.0,0.0,0.0,0.0,0.0,0.0,0.0,0.0,13.6,63.0,46.0,67.2,13.0,3.2,0.0,0.0,0.0,0.0,212.4
Caldas do Jorro,IT-CL-05,Tucano,Tucano (Caldas do Jorro) - IT-CL-05,-11.03477,-38.80386,Nordeste,RPGA do Rio Itapicuru,0.0,0.0,0.0,0.0,0.0,0.0,1.6,0.0,0.0,0.0,0.0,0.0,0.0,2.2,15.2,0.0,0.0,0.0,0.0,0.0,0.2,0.0,10.0,10.6,12.0,0.0,0.0,0.2,0.0,0.8,2.2,55.0
Saúde,IT-CL-04,Saúde,Saúde - IT-CL-04,-10.95669,-40.38329,Nordeste,RPGA do Rio Itapicuru,0.0,0.0,0.0,0.0,0.2,6.8,0.0,0.0,0.0,0.0,0.0,0.0,0.0,0.0,0.0,0.6,0.0,0.0,0.0,0.0,4.4,0.0,31.0,6.2,24.8,0.2,2.0,11.8,0.0,0.0,0.4,88.4
Lajinha,IT-CL-06,Várzea do Poço,Várzea do Poço (Lajinha) - IT-CL-06,-11.4964,-40.34474,Nordeste,RPGA do Rio Itapicuru,0.0,0.0,0.0,0.0,4.6,18.8,0.0,0.0,0.0,0.0,0.0,0.0,0.0,0.2,0.0,0.0,0.0,0.0,0.0,0.0,0.0,0.6,38.2,13.6,50.2,0.8,1.2,15.2,0.0,0.4,0.0,143.8
Ipirá,PG-CL-02,Ipirá,Ipirá - PG-CL-02,-12.14986,-39.76454,Nordeste,RPGA do Rio Paraguaçu,0.0,0.0,0.0,0.2,0.0,0.2,0.0,0.0,0.0,0.0,0.0,0.0,0.0,0.0,0.0,0.0,0.0,0.0,0.0,0.0,16.6,4.8,96.6,54.2,12.2,12.2,6.8,0.0,0.0,1.8,0.2,205.8
Cipó,IT-FR-24,Cipó,Cipó - IT-FR-24,-11.0975,-38.5125,Nordeste,RPGA do Rio Itapicuru,0.0,0.0,0.0,0.0,1.6,0.0,7.4,0.0,0.0,0.0,0.0,0.0,2.0,45.0,3.4,0.0,0.0,0.0,0.0,0.0,0.0,0.0,42.8,0.0,39.6,0.0,12.0,5.6,0.0,5.2,2.0,166.6
Serrinha,RN-CL-02,Serrinha,Serrinha - RN-CL-02,-11.648333,-38.982777,Nordeste,RPGA do Recôncavo Norte,0.0,0.0,0.0,0.0,0.0,0.0,1.75,0.4,33.75,0.0,0.0,0.0,0.0,0.0,0.5,0.0,0.0,0.0,0.0,0.0,0.0,0.0,94.75,0.0,38.75,0.0,0.0,23.0,0.25,0.0,14.25,207.4
Pé de Serra,PG-PR-06,Pé de Serra,Pé de Serra - PG-PR-06,-11.833423,-39.623663,Nordeste,RPGA do Rio Paraguaçu,0.0,0.0,0.0,0.2,3.4,0.8,0.0,0.0,0.0,0.0,0.0,0.0,0.0,0.0,0.0,0.0,0.0,0.0,0.0,0.0,0.2,6.2,73.4,32.0,7.0,9.4,0.4,0.0,0.0,0.0,1.2,134.2
Centro,293010501A,Senhor do Bonfim,Senhor do Bonfim (Centro) - 293010501A,-10.464,-40.19,Nordeste,RPGA do Rio Itapicuru,0.0,0.0,0.0,0.0,8.85,0.0,0.0,0.0,0.0,0.0,0.0,0.0,0.0,0.0,0.0,2.17,0.0,0.0,0.0,0.0,3.15,0.59,27.37,4.16,11.41,0.2,1.78,6.52,0.2,0.0,3.56,69.97
Itapeipu,IT-PR-34,Jacobina,Jacobina (Itapeipu) - IT-PR-34,-11.315629,-40.356742,Nordeste,RPGA do Rio Itapicuru,0.0,0.0,0.0,0.0,4.8,3.2,0.0,0.0,0.0,0.0,0.0,0.0,0.8,0.0,0.0,0.0,0.0,0.0,0.0,0.0,7.4,0.0,19.6,16.6,38.2,28.2,1.0,15.2,0.0,0.0,0.0,135.0
Caém,IT-PR-35,Caém,Caém - IT-PR-35,-11.093399,-40.437579,Nordeste,RPGA do Rio Itapicuru,0.0,0.0,0.0,1.0,5.4,0.2,0.4,0.0,0.0,0.0,0.0,0.0,2.4,0.0,0.0,0.0,0.0,0.0,0.0,0.0,0.0,0.0,40.4,43.8,103.0,0.4,9.0,25.2,0.0,0.0,1.4,232.6
Tombador Araújo,IT-PR-36,Jacobina,Jacobina (Tombador Araújo) - IT-PR-36,-11.168677,-40.670642,Nordeste,RPGA do Rio Itapicuru,0.0,0.0,6.0,0.0,1.4,6.4,0.0,0.0,0.0,0.0,0.0,0.0,3.8,0.0,0.0,0.0,0.0,0.0,0.0,0.0,46.0,10.6,8.8,40.8,6.2,2.0,3.0,7.6,0.0,0.0,0.2,142.8
Carrapichel,IT-PR-37,Senhor do Bonfim,Senhor do Bonfim (Carrapichel) - IT-PR-37,-10.388101,-40.220067,Nordeste,RPGA do Rio Itapicuru,0.0,0.0,0.0,0.0,5.6,0.0,0.0,0.0,0.0,0.0,0.0,0.0,0.0,0.0,0.0,0.0,0.0,0.0,0.0,0.0,12.0,15.8,19.8,19.0,6.0,3.8,3.6,25.2,0.0,0.0,4.8,115.6
Santaluz,IT-PR-17,Santaluz,Santaluz - IT-PR-17,-11.24831,-39.37563,Nordeste,RPGA do Rio Itapicuru,0.0,0.4,0.0,0.0,0.0,0.0,3.8,0.0,0.0,0.0,0.0,0.0,0.0,0.0,0.0,0.0,0.0,0.0,0.0,0.0,1.6,1.2,20.6,14.6,8.0,0.0,0.0,2.2,0.0,0.2,0.8,53.41
Ambrósio,IT-PR-19,Cansanção,Cansanção (Ambrósio) - IT-PR-19,-10.986458,-39.237813,Nordeste,RPGA do Rio Itapicuru,0.0,0.0,0.0,0.0,2.0,0.0,0.0,0.0,0.0,0.0,0.0,0.0,0.0,0.0,0.0,0.0,0.0,0.0,0.0,0.0,10.2,0.2,23.2,0.0,26.4,0.0,0.0,4.8,0.0,0.2,12.2,79.2
Cansanção,IT-PR-20,Cansanção,Cansanção - IT-PR-20,-10.702836,-39.543932,Nordeste,RPGA do Rio Itapicuru,0.0,0.0,0.0,0.4,0.0,0.0,0.0,0.0,0.0,0.0,0.0,0.0,0.0,0.0,7.8,0.0,0.0,0.0,0.0,0.0,29.8,1.4,29.8,0.4,50.6,15.0,0.0,0.0,0.0,1.0,3.8,140.01
Lamarão,291910801C,Lamarão,Lamarão - 291910801C,-11.8132,-38.87115,Nordeste,RPGA do Recôncavo Norte,0.0,0.0,0.0,0.0,0.0,0.0,0.0,0.0,0.4,0.0,0.0,0.0,0.0,0.0,10.4,0.2,0.0,0.0,0.0,0.0,0.0,0.0,21.0,1.8,22.4,0.6,1.8,10.4,1.4,0.0,8.6,79.0
Quijingue,IT-PR-25,Quijingue,Quijingue - IT-PR-25,-10.783951,-39.20809,Nordeste,RPGA do Rio Itapicuru,0.0,0.0,0.0,2.8,0.0,0.0,1.2,0.0,0.0,0.0,0.0,0.0,1.6,0.0,0.0,0.0,0.0,0.0,0.0,0.0,25.2,0.8,25.4,0.0,11.8,0.2,0.2,0.0,0.2,0.0,7.0,76.4
Curral Falso,IT-PR-01,Ribeira do Pombal,Ribeira do Pombal (Curral Falso) - IT-PR-01,-10.697843,-38.5714,Nordeste,RPGA do Rio Itapicuru,0.0,0.0,0.0,0.8,0.0,0.0,4.8,0.2,0.0,0.0,0.0,0.0,0.0,18.6,7.8,0.2,0.0,0.0,0.0,0.0,0.0,0.0,107.0,0.2,13.8,0.2,0.4,8.8,1.2,2.6,6.8,173.4
Aribicé,IT-PR-02,Euclides da Cunha,Euclides da Cunha (Aribicé) - IT-PR-02,-10.557835,-38.793352,Nordeste,RPGA do Rio Itapicuru,0.0,0.0,0.2,2.4,0.2,0.0,0.0,0.0,0.0,0.0,0.0,0.0,0.0,0.0,0.0,0.0,0.0,0.0,0.0,0.0,10.6,0.0,27.6,0.0,0.2,0.4,2.8,1.2,1.4,2.0,0.8,49.8
Ribeira do Pombal,IT-PR-04,Ribeira do Pombal,Ribeira do Pombal - IT-PR-04,-10.823399,-38.545844,Nordeste,RPGA do Rio Itapicuru,0.0,0.0,0.2,0.0,0.6,0.0,0.0,0.0,0.0,0.0,0.0,0.0,0.0,29.6,8.4,0.0,0.0,0.0,0.0,0.0,0.0,0.0,113.4,0.0,10.4,0.0,0.0,1.6,0.4,2.0,4.0,170.61
BR 116 E. Cunha / Tucano,IT-PR-05,Quijingue,Quijingue (BR 116 E. Cunha / Tucano) - IT-PR-05,-10.7105,-38.9227,Nordeste,RPGA do Rio Itapicuru,0.0,0.0,0.0,0.0,0.2,0.0,3.8,0.0,0.0,0.0,0.0,0.0,0.0,4.4,5.6,0.0,0.0,0.0,0.0,0.0,9.6,0.0,91.6,0.0,3.6,0.4,0.0,3.0,0.0,0.0,0.0,122.2
Fazenda Santo Antônio,IT-PR-06,Euclides da Cunha,Euclides da Cunha (Fazenda Santo Antônio) - IT-PR-06,-10.405331,-39.045582,Nordeste,RPGA do Rio Itapicuru,0.0,0.0,0.0,0.4,3.0,0.0,0.8,0.0,0.0,0.0,0.0,0.0,0.0,0.0,1.2,0.0,0.0,0.0,0.0,0.0,0.8,17.0,46.4,0.0,11.8,0.2,0.0,2.6,0.2,0.6,5.2,90.2
Fazenda Laranjeiras III,IT-PR-09,Araci,Araci (Fazenda Laranjeiras III) - IT-PR-09,-11.334248,-38.968638,Nordeste,RPGA do Rio Itapicuru,0.0,0.0,0.0,0.0,0.0,0.0,1.2,0.0,0.0,0.0,0.0,0.0,0.0,0.0,0.2,0.0,0.0,0.0,0.0,0.0,3.2,0.0,65.8,9.4,30.4,0.0,0.0,0.8,0.0,0.0,1.4,112.4
Estação Experimental,IT-PR-10,Nova Soure,Nova Soure (Estação Experimental) - IT-PR-10,-11.3083,-38.5361,Nordeste,RPGA do Rio Itapicuru,2.0,6.0,2.2,0.2,20.8,1.4,0.4,0.0,2.4,0.0,0.0,0.0,13.0,40.0,3.2,0.0,0.0,0.0,0.0,0.0,4.4,0.0,10.6,0.0,103.8,0.2,0.0,2.0,0.0,11.8,5.6,230.0
Olindina,IT-PR-11,Olindina,Olindina - IT-PR-11,-11.343693,-38.318892,Nordeste,RPGA do Rio Itapicuru,0.0,0.2,0.0,3.6,32.4,1.0,0.0,0.0,0.0,0.0,0.0,0.0,0.0,7.4,5.8,0.0,0.0,0.0,0.0,0.0,0.0,0.0,19.4,3.2,73.4,0.0,2.0,0.8,0.0,4.2,0.8,154.2
Itapicuru,IT-PR-12,Itapicuru,Itapicuru - IT-PR-12,-11.321193,-38.225003,Nordeste,RPGA do Rio Itapicuru,0.0,1.6,0.0,5.8,17.4,1.0,1.2,0.0,0.0,0.0,0.0,0.0,0.0,6.4,7.4,0.0,0.0,0.0,0.0,0.0,0.0,0.0,2.0,1.4,22.4,0.0,15.2,1.6,1.0,2.8,9.8,97.0
Boa Hora,IT-PR-13,Ribeira do Amparo,Ribeira do Amparo (Boa Hora) - IT-PR-13,-10.965,-38.5234,Nordeste,RPGA do Rio Itapicuru,0.0,0.0,0.0,0.0,14.2,0.2,0.0,0.0,15.0,0.0,0.0,0.0,0.0,24.4,5.8,0.0,0.0,0.0,0.0,0.0,0.0,0.0,58.4,0.0,24.6,0.0,0.0,3.4,0.2,5.0,1.8,153.0
Jeremoabo,A450,Jeremoabo,Jeremoabo - A450,-10.0807,-38.3459,Nordeste,RPGA do Rio Vaza-Barris,0.0,0.0,0.0,2.2,18.2,1.2,0.0,0.0,0.0,0.0,0.0,0.0,1.6,1.2,0.0,0.0,0.0,0.0,0.0,0.0,1.6,1.0,87.0,19.6,1.2,0.0,5.2,4.6,1.0,0.0,10.4,156.0
Itaberaba,291840701A,Juazeiro,Juazeiro (Itaberaba) - 291840701A,-9.44837,-40.48517,Norte,RPGA dos Rios Macururé e Curaçá,0.0,0.0,0.0,22.2,4.8,0.2,0.0,0.0,0.0,0.0,0.0,0.0,0.0,0.0,0.0,0.2,0.0,0.0,0.0,0.0,0.0,0.0,14.8,2.8,0.2,2.4,0.0,2.8,0.0,0.2,0.0,50.6
Maria Gorete,291840703A,Juazeiro,Juazeiro (Maria Gorete) - 291840703A,-9.42014,-40.49909,Norte,RPGA dos Rios Macururé e Curaçá,0.0,0.0,0.0,31.4,2.2,0.0,0.0,0.0,0.0,0.0,0.0,0.0,0.0,0.0,0.0,0.2,0.0,0.0,0.0,0.0,0.0,0.0,6.4,3.4,0.2,0.0,0.2,0.0,0.2,0.0,0.0,44.21
João Paulo II,291840704A,Juazeiro,Juazeiro (João Paulo II) - 291840704A,-9.47067,-40.49805,Norte,RPGA dos Rios Macururé e Curaçá,0.0,0.0,0.0,17.0,2.6,0.0,0.0,0.0,0.0,0.0,0.0,0.0,0.0,0.6,0.0,0.0,0.0,0.0,0.0,0.0,0.0,0.0,15.4,4.6,0.0,12.2,0.0,3.0,0.0,0.0,0.0,55.41
Lapão,291915701A,Lapão,Lapão - 291915701A,-11.38,-41.83,Norte,RPGA dos Rios Verde e Jacaré,0.0,0.0,0.0,0.0,0.0,16.2,0.0,0.0,0.0,0.0,0.0,0.0,0.0,0.0,0.0,0.0,0.0,0.0,0.0,0.8,0.0,1.6,17.2,4.4,25.2,32.2,0.0,0.6,0.0,0.0,0.0,98.2
Centro,290115501A,América Dourada,América Dourada (Centro) - 290115501A,-11.45011,-41.434004,Norte,RPGA dos Rios Verde e Jacaré,0.0,0.0,0.0,0.0,0.0,0.0,0.0,0.0,0.0,0.0,0.0,0.0,0.0,0.0,0.2,0.0,0.0,0.0,0.0,0.0,0.0,3.2,2.4,17.6,1.6,1.4,0.0,0.0,0.2,0.0,0.0,26.6
Irecê,83182,Irecê,Irecê - 83182,-11.3,-41.866667,Norte,RPGA dos Rios Verde e Jacaré,0.0,0.0,0.0,0.0,2.7,0.7,0.0,0.0,0.0,0.0,0.0,0.0,0.0,0.0,0.0,0.0,0.0,0.0,0.0,0.0,0.0,8.2,3.2,1.4,88.1,23.6,0.0,9.8,0.0,0.0,0.0,137.71
Remanso,82979,Remanso,Remanso - 82979,-9.633333,-42.1,Norte,RPGA do Lago de Sobradinho,46.8,0.5,0.0,0.0,0.6,0.0,0.0,0.0,0.0,0.0,0.0,0.0,0.3,0.0,0.0,0.0,0.0,0.0,0.0,0.0,1.1,0.0,12.2,6.0,13.2,23.0,0.3,2.8,0.0,0.0,0.0,106.8
Delfino,A443,Umburanas,Umburanas (Delfino) - A443,-10.45492,-41.206996,Norte,RPGA do Rio Salitre,0.2,0.0,0.2,0.0,0.0,0.2,0.0,0.0,0.0,0.0,0.0,0.0,0.0,0.0,0.0,0.0,0.0,0.0,0.0,0.0,2.0,10.4,4.4,10.0,8.2,5.6,0.0,34.4,0.0,0.0,0.0,75.6
Remanso,A423,Remanso,Remanso - A423,-9.625693,-42.077214,Norte,RPGA do Lago de Sobradinho,43.6,0.6,0.0,0.0,0.8,0.0,0.0,0.0,0.0,0.0,0.0,0.0,0.4,0.0,0.0,0.0,0.0,0.0,0.0,0.0,1.2,0.2,12.2,6.2,12.6,22.4,0.6,2.6,0.2,0.0,0.0,103.6
Irecê,A424,Irecê,Irecê - A424,-11.328998,-41.864504,Norte,RPGA dos Rios Verde e Jacaré,0.0,0.0,0.0,0.0,1.8,0.2,0.0,0.2,0.0,0.0,0.0,0.0,0.0,0.0,0.0,0.0,0.0,0.0,0.0,0.0,0.0,16.0,19.8,1.8,58.2,17.0,0.0,8.2,0.2,0.0,0.0,123.4
Várzea Nova,SA-CL-02,Várzea Nova,Várzea Nova - SA-CL-02,-11.23996,-40.935618,Norte,RPGA do Rio Salitre,0.0,0.0,0.0,0.0,0.0,10.2,0.0,0.0,0.0,0.0,0.0,0.0,0.0,0.0,0.0,0.0,0.0,0.0,0.0,0.0,4.2,0.0,17.0,0.4,6.8,0.0,6.6,5.6,0.0,0.0,0.0,50.8
Ibitibá,,Ibitibá,Ibitibá,-11.551736,-41.968187,Norte,RPGA dos Rios Verde e Jacaré,0.0,0.0,0.0,0.0,4.2,1.6,0.0,0.0,0.0,0.0,0.0,0.0,0.0,0.0,0.0,0.0,0.0,0.0,0.0,0.0,0.4,0.2,20.0,14.6,22.2,17.0,0.0,3.2,0.0,0.0,0.0,83.4
CODEVASF Salitre,MC-CL-01,Juazeiro,Juazeiro (CODEVASF Salitre) - MC-CL-01,-9.48778,-40.61333,Norte,RPGA dos Rios Macururé e Curaçá,0.0,0.0,0.0,18.6,2.0,0.0,0.0,0.0,0.0,0.0,0.0,0.0,0.0,0.0,0.0,17.4,0.0,0.0,0.0,0.0,11.4,0.0,4.4,3.2,0.2,0.0,0.0,3.0,0.0,0.0,0.0,60.2
Jussara,Arrecife,Jussara,Jussara - Arrecife,-11.065335,-41.974853,Norte,RPGA dos Rios Verde e Jacaré,0.0,0.8,0.0,0.0,23.6,0.2,0.0,0.0,0.0,0.0,0.0,0.0,0.0,0.0,0.0,0.0,0.0,0.0,0.0,0.0,0.0,15.4,5.0,13.2,0.0,4.4,0.2,1.2,0.0,0.0,0.0,64.0
Campo Formoso,IT-CL-02,Campo Formoso,Campo Formoso - IT-CL-02,-10.47062,-40.33412,Norte,RPGA do Rio Itapicuru,0.0,0.0,0.0,0.0,0.0,0.0,0.0,0.0,0.0,0.0,0.0,0.0,0.0,0.0,0.0,0.0,0.0,0.0,0.0,0.0,0.0,2.8,23.2,22.4,18.8,0.2,0.8,2.8,0.0,0.2,0.8,72.0
Sento Sé,SO-CL-01,Sento Sé,Sento Sé - SO-CL-01,-9.78228,-41.81872,Norte,RPGA do Lago de Sobradinho,0.0,0.0,0.0,3.6,2.4,0.0,0.0,0.0,0.0,0.0,0.0,0.0,0.0,0.0,0.0,0.0,0.0,0.0,0.0,0.0,0.0,2.2,0.0,17.8,9.0,15.0,0.2,1.6,0.0,0.0,0.0,51.81
Itaguaçu da Bahia,VJ-CL-03,Itaguaçu da Bahia,Itaguaçu da Bahia - VJ-CL-03,-10.9549,-42.3465,Norte,RPGA dos Rios Verde e Jacaré,9.2,0.0,0.0,0.0,0.0,0.0,0.0,0.0,0.0,0.0,0.0,0.0,0.0,0.0,0.0,0.0,0.0,0.0,0.0,0.0,0.0,0.0,0.2,15.8,4.4,8.6,0.0,19.2,0.2,0.0,0.0,57.61
Ibipeba,VJ-CL-02,Ibipeba,Ibipeba - VJ-CL-02,-11.62667,-42.06444,Norte,RPGA dos Rios Verde e Jacaré,0.0,0.0,0.0,0.0,0.0,0.0,0.0,0.0,0.0,0.0,0.0,0.0,0.0,0.0,0.0,0.0,0.0,0.0,0.0,0.0,0.0,34.8,0.2,29.2,11.8,9.0,0.0,14.8,0.0,0.0,0.0,99.8
Irecê,VJ-CL-01,Irecê,Irecê - VJ-CL-01,-11.289166,-41.894166,Norte,RPGA dos Rios Verde e Jacaré,0.0,0.0,0.0,0.0,6.25,0.5,0.0,0.2,0.0,0.0,0.0,0.0,0.0,0.0,0.0,0.0,0.0,0.0,0.0,3.25,0.0,16.75,19.0,2.5,62.75,26.25,0.0,5.0,0.0,0.0,0.0,142.45
Jaguarari,IT-PR-28,Jaguarari,Jaguarari - IT-PR-28,-10.269489,-40.200344,Norte,RPGA do Rio Itapicuru,0.0,0.0,0.0,0.0,0.0,0.0,0.2,0.2,0.0,0.0,0.0,0.0,0.0,0.0,0.0,0.0,0.0,0.0,0.0,0.0,8.0,2.8,41.6,23.4,7.0,0.8,1.4,15.0,0.0,0.0,2.8,103.2
Mirangaba,IT-PR-29,Mirangaba,Mirangaba - IT-PR-29,-10.954784,-40.574527,Norte,RPGA do Rio Itapicuru,0.0,0.0,0.0,1.2,0.0,6.4,0.0,0.0,0.0,0.0,0.0,0.0,1.2,0.0,0.0,0.0,0.0,0.0,0.0,0.0,86.6,0.0,5.2,15.2,10.2,0.0,1.4,32.2,0.0,0.0,0.4,160.01
Olho D'Água,,Olho D'Água,Olho D'Água,-10.700331,-40.601468,Norte,RPGA do Rio Salitre,0.0,0.0,0.0,0.0,0.0,0.0,0.0,0.0,0.0,0.0,0.0,0.0,0.0,0.0,0.0,0.0,0.0,0.0,0.0,0.0,0.0,0.0,0.0,0.0,0.0,0.0,0.0,0.0,0.0,0.0,0.0,0.0
Taquarendi,,Taquarendi,Taquarendi,-10.893669,-40.687028,Norte,RPGA do Rio Salitre,0.0,0.0,0.0,0.2,0.0,0.4,0.2,0.0,0.0,0.0,0.0,0.0,0.0,0.0,0.0,0.0,0.0,0.0,0.0,0.0,9.8,0.2,32.4,6.6,12.2,0.8,0.0,12.8,0.0,0.0,0.0,75.6
Fazenda Rio Brilhante,,Fazenda Rio Brilhante,Fazenda Rio Brilhante,-12.802859,-45.729985,Oeste,RPGA do Rio Grande,19.4,6.0,13.8,1.0,0.0,22.0,1.2,0.0,0.0,1.4,0.8,18.2,0.2,0.0,0.0,0.0,0.2,0.2,0.0,0.2,0.0,15.2,19.2,0.4,33.2,11.2,24.8,2.4,9.2,0.0,0.0,200.21
Fazenda Catarinense,,Fazenda Catarinense,Fazenda Catarinense,-13.286201,-46.028331,Oeste,RPGA do Rio Grande,2.4,4.0,20.8,0.0,0.0,27.4,0.2,0.2,0.0,0.6,0.0,11.8,0.0,0.2,0.2,1.4,0.0,4.2,0.2,0.0,0.0,0.0,12.2,0.8,7.8,1.6,1.4,0.2,0.0,0.0,0.0,97.61
Arrojolândia,,Arrojolândia,Arrojolândia,-13.741772,-45.466093,Oeste,"RPGA do Rio Corrente e Riachos do Ramalho, Serra Dourada e Brejo Velho",11.2,0.2,18.2,0.4,0.2,5.6,2.2,0.0,0.0,0.0,1.6,2.8,0.0,13.0,0.0,0.0,2.4,0.2,0.0,6.8,0.2,1.4,57.6,5.8,80.8,95.2,12.6,0.2,0.2,0.0,0.0,318.8
Fazenda Cachoeirinha,,Fazenda Cachoeirinha,Fazenda Cachoeirinha,-14.389284,-45.840279,Oeste,"RPGA do Rio Corrente e Riachos do Ramalho, Serra Dourada e Brejo Velho",21.4,0.4,28.0,5.4,10.0,41.0,1.2,0.0,7.4,0.0,0.4,0.0,0.0,19.6,0.2,2.4,23.0,0.2,0.0,1.0,0.0,8.6,14.0,0.2,15.0,17.8,20.2,0.2,0.2,0.8,0.0,238.6
Projeto Alto Formoso,,Projeto Alto Formoso,Projeto Alto Formoso,-14.260954,-45.27887,Oeste,"RPGA do Rio Corrente e Riachos do Ramalho, Serra Dourada e Brejo Velho",0.6,1.0,3.4,0.4,0.0,6.8,0.2,0.0,0.0,0.8,3.6,0.0,0.0,4.4,0.0,1.0,0.2,0.0,0.0,10.0,0.0,71.8,44.2,3.0,68.0,12.4,8.4,0.2,0.0,0.0,0.0,240.4
Ponte do Itaguari,CA-PR-02,Cocos,Cocos (Ponte do Itaguari) - CA-PR-02,-14.234011,-44.626902,Oeste,RPGA do Rio Carinhanha,0.8,0.0,15.4,0.0,13.6,2.8,0.8,0.0,0.2,0.0,4.4,1.6,0.0,0.0,7.4,0.0,3.0,0.0,0.0,0.0,0.0,17.6,11.2,22.6,155.0,9.6,28.6,0.0,0.0,0.0,0.0,294.6
Formosa do Rio Preto,A452,Formosa do Rio Preto,Formosa do Rio Preto - A452,-11.052163,-45.200769,Oeste,RPGA do Rio Grande,10.4,15.4,16.0,1.8,1.4,47.4,0.4,2.6,0.2,4.0,0.0,0.0,0.0,0.0,0.0,2.6,2.4,0.2,0.4,0.8,1.0,1.0,5.0,11.6,59.4,34.0,3.0,16.6,0.2,0.2,0.0,238.0
Nova Vida Montante,46590000,Barreiras,Barreiras (Nova Vida Montante) - 46590000,-11.867963,-45.084552,Oeste,RPGA do Rio Grande,7.8,24.0,33.6,4.2,7.8,30.0,0.0,1.0,2.4,6.4,0.2,0.0,0.0,0.0,0.0,3.0,1.0,0.0,85.2,2.8,0.0,17.0,0.8,2.4,71.2,33.6,0.6,44.6,0.0,0.0,0.0,379.61
Correntina,A416,Correntina,Correntina - A416,-13.332386,-44.617376,Oeste,"RPGA do Rio Corrente e Riachos do Ramalho, Serra Dourada e Brejo Velho",0.0,0.8,1.2,0.0,0.0,10.4,0.8,0.0,0.0,0.0,0.0,0.2,0.0,2.4,0.0,0.0,12.8,0.0,2.8,21.2,0.0,2.2,33.2,19.0,124.8,5.4,7.8,0.2,0.0,0.0,0.0,245.21
Barreiras,83236,Barreiras,Barreiras - 83236,-12.155556,-45.007778,Oeste,RPGA do Rio Grande,0.0,1.1,48.2,0.0,14.5,8.3,1.6,0.0,10.6,0.2,0.0,0.0,0.0,0.2,4.2,33.3,3.8,0.0,5.6,0.0,0.0,39.6,4.9,22.8,9.1,40.2,10.1,13.1,9.6,0.0,0.0,281.01
Correntina,83286,Correntina,Correntina - 83286,-13.332222,-44.617222,Oeste,"RPGA do Rio Corrente e Riachos do Ramalho, Serra Dourada e Brejo Velho",0.0,0.7,1.0,0.0,0.0,10.0,0.6,0.0,0.0,0.0,0.0,0.0,0.0,2.2,0.0,0.0,13.2,0.0,2.4,22.0,0.0,2.0,35.2,19.2,110.8,35.6,7.6,0.0,0.0,0.0,0.0,262.5
Derocal,46455000,São Desidério,São Desidério (Derocal) - 46455000,-12.412696,-45.121499,Oeste,RPGA do Rio Grande,3.6,5.2,50.8,0.2,4.4,14.2,0.0,0.0,1.4,4.8,13.0,5.8,5.8,1.2,0.0,6.8,6.8,0.0,0.0,0.0,0.0,4.2,33.4,2.6,76.8,42.2,0.0,4.8,1.2,0.0,0.0,289.2
Correntina,45590000,Correntina,Correntina - 45590000,-13.3406,-44.6386,Oeste,"RPGA do Rio Corrente e Riachos do Ramalho, Serra Dourada e Brejo Velho",0.0,0.0,2.0,0.0,0.0,19.2,0.6,0.0,0.0,1.2,0.4,1.8,0.0,5.6,0.2,0.0,3.0,0.0,18.2,6.2,0.0,0.2,42.4,15.0,122.0,1.4,6.4,0.2,0.0,0.0,0.0,246.0
Fazenda Redenção,46543000,Barreiras,Barreiras (Fazenda Redenção) - 46543000,-12.1358,-45.1033,Oeste,RPGA do Rio Grande,0.0,39.6,11.2,0.4,33.0,8.0,2.2,0.0,19.6,11.2,0.0,7.4,2.0,1.2,0.0,24.8,3.6,0.0,26.0,0.0,0.0,24.2,1.6,2.6,37.0,57.2,3.8,17.6,0.8,0.0,0.2,335.2
Fazenda Santa Luzia,CA-CL-01,Cocos,Cocos (Fazenda Santa Luzia) - CA-CL-01,-14.85528,-45.93583,Oeste,RPGA do Rio Carinhanha,8.6,0.8,0.4,0.0,9.0,11.4,5.6,0.0,0.0,0.0,7.6,0.2,0.0,0.0,0.0,51.4,66.4,0.2,0.0,0.6,0.0,62.2,18.0,1.4,27.6,17.4,24.0,0.0,0.0,0.0,0.0,312.8
Fazenda Porta do Céu,CT-CL-02,Jaborandi,Jaborandi (Fazenda Porta do Céu) - CT-CL-02,-14.11621,-45.84417,Oeste,"RPGA do Rio Corrente e Riachos do Ramalho, Serra Dourada e Brejo Velho",8.2,0.0,0.0,0.6,0.0,0.0,0.0,0.0,0.2,1.2,0.0,0.0,0.0,16.4,0.0,0.4,2.0,0.0,0.0,0.0,1.8,1.8,0.8,0.2,1.2,0.0,0.0,20.0,0.0,0.0,0.0,54.8
Fazenda Morinaga,CT-CL-01,Correntina,Correntina (Fazenda Morinaga) - CT-CL-01,-13.75194,-45.87028,Oeste,"RPGA do Rio Corrente e Riachos do Ramalho, Serra Dourada e Brejo Velho",0.0,0.2,0.0,0.0,0.0,0.0,0.2,0.0,0.0,0.0,0.6,1.2,0.2,5.2,2.2,0.4,0.2,0.4,0.2,0.0,0.2,0.0,0.0,0.2,0.2,0.0,0.2,0.0,0.2,0.0,0.2,12.2
Fazenda Madras,GR-CL-04,Riachão das Neves,Riachão das Neves (Fazenda Madras) - GR-CL-04,-11.63028,-44.84556,Oeste,RPGA do Rio Grande,37.8,4.4,13.6,0.0,0.0,12.6,0.8,0.6,0.0,1.6,0.4,0.2,0.0,0.0,0.0,41.8,0.4,0.0,59.6,1.6,0.0,32.4,31.0,0.0,7.0,49.4,26.2,26.6,0.0,0.0,0.0,348.0
Fazenda Barcelona,GR-CL-03,Formosa do Rio Preto,Formosa do Rio Preto (Fazenda Barcelona) - GR-CL-03,-11.59139,-46.02194,Oeste,RPGA do Rio Grande,15.8,11.8,14.2,0.2,3.6,10.6,16.4,0.0,0.0,37.2,5.2,5.8,0.0,1.2,0.2,0.0,5.8,1.8,0.0,27.4,0.0,10.4,9.6,10.2,81.0,36.0,11.4,1.0,0.0,0.0,0.0,316.8
Mocambo,45740001,Correntina,Correntina (Mocambo) - 45740001,-13.28572,-44.56284,Oeste,"RPGA do Rio Corrente e Riachos do Ramalho, Serra Dourada e Brejo Velho",0.0,0.6,0.2,0.0,0.0,3.0,0.0,0.0,0.0,0.2,0.4,0.0,0.0,0.8,0.0,0.0,8.0,0.0,1.6,0.4,0.2,11.2,29.2,17.2,39.8,17.6,19.6,0.4,0.2,0.2,0.0,150.8
PCH Pres. Goulart-J,45600000,Correntina,Correntina (PCH Pres. Goulart-J) - 45600000,-13.3344,-44.6208,Oeste,"RPGA do Rio Corrente e Riachos do Ramalho, Serra Dourada e Brejo Velho",0.0,0.0,2.0,0.0,0.0,13.75,1.0,0.0,0.0,0.0,0.0,0.25,0.0,2.5,0.0,0.0,11.75,0.0,5.25,26.25,0.0,2.25,46.75,21.0,171.0,6.75,9.0,0.25,0.0,0.0,0.0,319.75
PCH Pres. Goulart-M1,45588000,Correntina,Correntina (PCH Pres. Goulart-M1) - 45588000,-13.3408,-44.6414,Oeste,"RPGA do Rio Corrente e Riachos do Ramalho, Serra Dourada e Brejo Velho",0.0,0.75,4.0,0.0,0.0,21.5,0.75,0.0,0.0,2.0,0.5,1.75,0.0,12.25,0.0,0.0,4.0,0.0,21.5,5.0,0.0,0.25,55.0,20.0,147.25,1.75,7.75,0.0,0.0,0.0,0.0,306.0
PCH Sítio Grande-J,46453500,São Desidério,São Desidério (PCH Sítio Grande-J) - 46453500,-12.4286,-45.1528,Oeste,RPGA do Rio Grande,4.75,0.0,32.0,1.0,15.75,30.25,0.0,0.0,5.5,6.0,12.75,9.5,8.25,0.75,0.0,9.5,9.75,0.0,0.0,0.0,0.0,6.0,35.75,1.0,61.0,71.25,0.25,4.5,0.0,0.0,0.0,325.5
COACERAL,GR-CL-02,Formosa do Rio Preto,Formosa do Rio Preto (COACERAL) - GR-CL-02,-10.561944,-45.693333,Oeste,RPGA do Rio Grande,12.25,17.5,8.75,0.0,2.75,0.5,0.0,4.8,0.0,0.0,0.0,5.75,0.0,0.0,0.0,35.75,0.0,0.0,2.25,0.0,24.75,10.25,7.0,1.0,7.75,40.75,9.0,0.5,0.0,0.0,0.0,191.3
Barreiras,A402,Barreiras,Barreiras - A402,-12.124715,-45.027049,Oeste,RPGA do Rio Grande,0.4,3.0,19.2,0.2,25.8,4.4,0.0,0.0,6.2,0.2,0.0,0.4,1.6,4.0,0.0,23.4,6.4,0.0,15.6,0.0,0.0,32.0,23.4,11.0,31.6,62.8,2.4,9.8,0.0,0.0,0.0,283.8
Luís Eduardo Magalhães,A404,Luís Eduardo Magalhães,Luís Eduardo Magalhães - A404,-12.152394,-45.829745,Oeste,RPGA do Rio Grande,3.6,0.0,7.4,0.2,0.2,21.0,2.6,0.0,5.8,13.6,6.6,0.6,0.0,0.0,0.0,2.6,6.0,0.0,0.0,1.4,2.6,1.4,2.8,35.4,29.4,13.6,4.8,5.2,0.0,0.0,0.0,166.8
São Desidério,R. Velha - GR-CL-01,São Desidério,São Desidério - R. Velha - GR-CL-01,-12.898055,-46.157222,Oeste,RPGA do Rio Grande,15.0,9.5,22.5,0.0,28.5,2.5,6.5,5.8,1.25,1.25,1.0,1.25,1.25,1.0,0.25,2.5,0.0,0.0,0.0,0.0,0.0,0.25,40.25,0.0,9.25,12.75,15.25,0.75,17.5,0.0,0.0,196.05
J. Zoológico,A401,Salvador,Salvador (J. Zoológico) - A401,-13.005515,-38.50576,Recôncavo,RPGA do Recôncavo Norte,0.0,0.0,0.2,0.0,6.6,1.4,3.0,0.2,0.0,0.0,0.0,0.0,0.2,0.0,9.2,0.2,0.4,0.0,0.0,0.0,0.4,1.0,118.6,28.8,40.2,2.4,22.6,0.4,1.4,4.2,24.8,266.2
Cruz das Almas,A406,Cruz das Almas,Cruz das Almas - A406,-12.675422,-39.08958,Recôncavo,RPGA do Rio Paraguaçu,0.0,0.0,0.0,9.8,0.4,0.0,0.4,3.6,0.0,0.2,0.0,0.0,0.0,0.2,0.0,0.0,0.0,0.2,0.0,0.0,1.4,2.0,53.6,65.6,0.0,0.0,6.6,6.2,1.2,3.8,1.2,156.4
Feira de Santana,A413,Feira de Santana,Feira de Santana - A413,-12.1962,-38.967384,Recôncavo,RPGA do Recôncavo Norte,0.0,0.0,0.0,0.0,26.6,0.0,0.0,0.0,0.0,0.0,0.0,0.0,0.0,0.0,34.8,0.0,0.0,0.0,0.0,0.0,4.0,0.4,7.0,7.8,26.2,0.8,40.8,0.0,2.6,0.0,11.2,162.2
Periperi,292740820A,Salvador,Salvador (Periperi) - 292740820A,-12.867344,-38.458111,Recôncavo,RPGA do Recôncavo Norte,0.0,0.6,0.0,0.0,37.0,0.2,2.2,0.6,0.0,0.0,0.0,0.0,0.0,0.0,8.8,0.2,0.4,0.0,0.0,0.0,6.0,0.6,5.8,17.2,4.0,6.4,21.0,8.2,2.2,2.2,103.6,227.21
Alagoinhas,83249,Alagoinhas,Alagoinhas - 83249,-12.148333,-38.425556,Recôncavo,RPGA do Recôncavo Norte,0.0,3.8,0.0,0.0,0.4,0.0,0.7,0.0,0.0,0.0,0.0,0.0,0.0,0.0,18.8,0.0,0.0,0.0,0.0,0.0,15.2,0.0,49.6,0.0,40.5,1.3,1.2,22.4,3.0,2.1,5.9,164.9
Polivalente,292860401A,Santo Amaro,Santo Amaro (Polivalente) - 292860401A,-12.552863,-38.712504,Recôncavo,RPGA do Recôncavo Norte,0.0,14.4,0.0,0.0,3.2,6.8,0.6,0.0,0.0,0.0,0.0,0.0,0.0,0.0,1.0,0.0,0.0,0.0,0.0,0.0,0.8,0.0,0.0,28.6,134.0,4.8,0.2,38.4,0.4,5.8,28.8,267.8
Povoado de Pedras,292860402A,Santo Amaro,Santo Amaro (Povoado de Pedras) - 292860402A,-12.549625,-38.770999,Recôncavo,RPGA do Recôncavo Norte,0.0,0.2,0.0,36.6,20.0,0.6,2.6,0.0,0.0,0.0,0.0,0.0,0.0,0.0,0.0,0.0,0.0,0.0,0.0,0.0,0.6,0.0,0.0,27.8,58.4,7.0,0.0,29.0,10.6,2.6,49.8,245.8
Camaçari,Tiririca,Camaçari,Camaçari - Tiririca,-12.51246,-38.06769,Recôncavo,RPGA do Recôncavo Norte,0.0,0.2,16.0,4.4,7.0,2.8,1.4,0.2,0.2,0.0,0.0,0.0,0.0,0.0,34.8,0.0,0.2,0.2,0.0,0.0,0.0,0.0,21.2,0.4,30.2,0.4,5.0,3.8,1.6,21.0,33.6,184.61
Estação Rádio Marinha,A456,Salvador,Salvador (Estação Rádio Marinha) - A456,-12.808222,-38.495944,Recôncavo,RPGA do Recôncavo Norte,0.0,2.2,0.0,0.0,11.2,3.0,4.2,0.2,0.0,0.0,0.0,0.0,0.0,0.0,7.6,0.2,0.0,0.0,0.0,0.0,8.4,1.2,0.0,14.2,3.6,8.8,7.8,7.2,2.6,1.6,58.4,142.4
Cachoeira,290490201A,Cachoeira,Cachoeira - 290490201A,-12.607725,-38.960655,Recôncavo,RPGA do Rio Paraguaçu,0.0,0.8,0.0,3.4,12.0,0.8,1.0,0.2,0.0,0.0,0.0,0.0,0.0,0.0,0.0,0.0,0.0,0.0,0.0,0.0,22.6,12.2,5.6,36.2,0.2,4.8,0.0,19.0,6.6,1.2,27.4,154.0
Centro,291345701A,Igrapiúna,Igrapiúna (Centro) - 291345701A,-13.819025,-39.141885,Recôncavo,RPGA do Recôncavo Sul,0.0,4.6,0.6,0.0,7.4,12.4,7.4,1.8,0.0,0.6,0.0,0.2,9.0,0.0,0.0,0.0,0.0,0.0,0.0,0.6,12.0,2.4,15.6,2.2,3.6,0.6,3.0,10.6,0.0,0.6,0.0,95.2
São Félix,292900801A,São Félix,São Félix - 292900801A,-12.606591,-38.969939,Recôncavo,RPGA do Rio Paraguaçu,0.0,0.6,0.0,5.4,11.6,0.8,0.6,0.0,0.0,0.0,0.0,0.0,0.0,0.0,0.0,0.0,0.0,0.0,0.0,0.0,15.8,14.0,6.8,36.8,0.0,3.0,0.0,16.4,4.6,0.6,28.6,145.6
Góes Calmon,293070901A,Simões Filho,Simões Filho (Góes Calmon) - 293070901A,-12.780101,-38.353331,Recôncavo,RPGA do Recôncavo Norte,0.0,0.0,0.0,0.0,29.0,2.4,5.6,0.0,0.0,0.0,0.0,0.0,0.0,0.0,21.0,0.0,0.0,0.0,0.0,0.0,42.4,0.2,34.2,3.6,18.8,0.8,20.6,4.8,3.8,2.4,64.0,253.61
Centro,293070903A,Simões Filho,Simões Filho (Centro) - 293070903A,-12.788344,-38.396864,Recôncavo,RPGA do Recôncavo Norte,0.0,0.0,0.0,0.0,41.6,3.4,9.4,0.0,0.0,0.0,0.0,0.0,0.0,0.0,30.4,0.0,0.0,0.0,0.0,0.0,19.6,0.2,0.0,3.2,6.4,0.8,25.6,9.0,1.0,0.0,31.8,182.41
Amargosa,A434,Amargosa,Amargosa - A434,-13.009468,-39.616881,Recôncavo,RPGA do Recôncavo Sul,0.0,0.0,0.0,8.6,0.0,8.4,1.6,0.0,0.0,0.0,0.0,0.0,0.0,0.0,0.0,0.0,0.0,0.0,0.0,0.0,33.6,0.4,104.4,82.2,0.0,0.0,1.8,0.2,1.0,1.2,0.0,243.4
Valença,A444,Valença,Valença - A444,-13.34361,-39.12667,Recôncavo,RPGA do Recôncavo Sul,0.0,1.4,0.8,2.8,14.4,16.2,1.2,1.6,0.0,0.2,0.0,0.0,0.8,0.2,0.0,0.0,0.2,0.0,0.0,0.0,3.2,1.2,6.2,30.2,0.2,0.2,18.6,0.4,2.0,3.8,2.6,108.41
Ondina,83229,Salvador,Salvador (Ondina) - 83229,-13.005278,-38.505833,Recôncavo,RPGA do Recôncavo Norte,0.0,0.0,0.0,0.0,7.0,1.4,3.3,0.2,0.0,0.0,0.0,0.0,0.2,0.0,9.7,0.0,2.3,0.0,0.0,0.0,0.4,1.2,121.0,30.0,42.6,2.8,24.4,0.6,1.6,4.4,28.1,281.2
Feira de Santana,PG-PR-13,Feira de Santana,Feira de Santana - PG-PR-13,-12.268161,-38.96642,Recôncavo,RPGA do Rio Paraguaçu,0.0,0.0,0.0,0.0,12.2,4.6,0.0,0.0,0.0,0.0,0.0,0.0,0.0,0.0,16.4,0.2,0.0,0.0,0.0,0.0,2.2,0.0,6.4,6.4,34.8,1.4,8.2,4.8,0.0,0.6,10.2,108.4
Maragogipe,PG-CL-06,Maragogipe,Maragogipe - PG-CL-06,-12.85164,-38.94467,Recôncavo,RPGA do Rio Paraguaçu,0.0,0.0,0.0,0.2,0.0,1.2,7.4,0.0,0.0,0.0,0.0,0.0,0.0,0.0,0.0,0.0,10.6,0.0,0.0,0.0,12.2,10.8,82.2,22.8,0.0,0.4,15.0,2.8,4.0,21.0,1.6,192.21
Federação,292740803A,Salvador,Salvador (Federação) - 292740803A,-13.000791,-38.511056,Recôncavo,RPGA do Recôncavo Norte,0.0,0.0,0.79,0.0,6.88,0.79,2.16,0.0,0.0,0.0,0.0,0.0,0.0,0.0,4.14,0.0,0.0,0.0,0.0,0.0,0.0,0.99,100.56,1.98,35.02,2.97,26.41,0.78,1.78,5.32,24.28,214.85
Cabula,292740810A,Salvador,Salvador (Cabula) - 292740810A,-12.961347,-38.460778,Recôncavo,RPGA do Recôncavo Norte,0.0,0.0,0.0,0.0,0.79,8.85,7.87,1.79,0.0,0.0,0.0,0.0,0.0,0.0,4.33,0.0,0.0,0.0,0.0,0.0,3.94,2.75,64.06,13.98,24.04,0.0,44.86,11.16,0.79,0.2,17.1,206.51
Santo Estevão,PG-CL-08,Santo Estevão,Santo Estevão - PG-CL-08,-12.43521,-39.21209,Recôncavo,RPGA do Rio Paraguaçu,0.0,0.0,0.0,0.4,11.0,0.2,0.0,0.0,0.0,0.0,0.0,0.0,0.0,0.0,0.0,0.0,0.0,0.0,0.0,0.0,29.0,10.6,6.4,39.8,1.0,0.0,0.0,9.6,0.4,2.2,0.0,110.61
Nova Esperança,292740818A,Salvador,Salvador (Nova Esperança) - 292740818A,-12.861,-38.368,Recôncavo,RPGA do Recôncavo Norte,0.0,0.0,0.0,1.18,6.88,2.17,0.98,1.38,0.0,0.0,0.0,0.0,0.59,0.0,7.28,0.0,1.58,0.0,0.0,0.0,27.05,0.2,3.73,3.16,3.78,0.8,4.16,2.75,3.16,0.4,32.97,104.2
Alto do Peru,292740812A,Salvador,Salvador (Alto do Peru) - 292740812A,-12.939122,-38.486334,Recôncavo,RPGA do Recôncavo Norte,0.0,0.0,0.0,0.0,2.56,15.6,9.49,0.4,0.0,0.0,0.0,0.0,0.0,0.0,6.12,0.0,0.0,0.0,0.0,0.0,1.58,0.8,30.04,8.27,19.52,1.0,38.36,15.59,0.59,0.59,36.89,187.4
CAB,292740811A,Salvador,Salvador (CAB) - 292740811A,-12.943354,-38.421264,Recôncavo,RPGA do Recôncavo Norte,0.0,0.0,0.0,0.0,1.59,1.77,7.58,1.97,0.0,0.0,0.0,0.0,0.0,0.0,13.39,0.0,0.0,0.0,0.0,0.0,28.52,0.99,32.88,13.56,16.0,0.2,24.77,3.34,2.16,2.17,17.2,168.09
Cosme de Farias,292740816A,Salvador,Salvador (Cosme de Farias) - 292740816A,-12.979402,-38.4855,Recôncavo,RPGA do Recôncavo Norte,0.0,0.0,0.0,0.0,3.94,2.76,16.39,0.59,0.0,0.0,0.0,0.0,0.0,0.0,0.79,0.0,0.0,0.0,0.0,0.0,1.77,0.6,46.99,3.75,57.88,1.19,48.1,0.6,3.15,0.0,26.21,214.71
São Caetano,292740814A,Salvador,Salvador (São Caetano) - 292740814A,-12.939678,-38.474667,Recôncavo,RPGA do Recôncavo Norte,0.0,0.0,0.0,0.0,1.78,6.54,0.6,0.4,0.2,0.0,0.0,0.0,0.0,0.0,7.3,0.4,0.0,0.0,0.0,0.0,1.19,1.98,7.13,0.6,0.4,0.4,0.4,0.4,0.6,0.2,0.4,30.92
Rio Sena,292740805A,Salvador,Salvador (Rio Sena) - 292740805A,-12.891344,-38.470778,Recôncavo,RPGA do Recôncavo Norte,0.0,0.0,0.0,0.0,25.64,0.0,0.39,0.59,0.0,0.0,0.0,0.0,0.0,0.0,8.26,0.0,0.0,0.0,0.0,0.0,2.56,1.78,2.96,11.4,13.01,2.38,32.69,4.93,7.68,0.79,78.57,193.63
Monte Serrat,292740804A,Salvador,Salvador (Monte Serrat) - 292740804A,-12.930789,-38.517167,Recôncavo,RPGA do Recôncavo Norte,0.0,0.0,0.0,0.0,2.96,11.26,6.68,0.2,0.0,0.0,0.0,0.0,0.0,0.0,25.29,0.0,0.0,0.0,0.0,0.0,0.79,0.4,29.99,6.11,60.67,4.37,27.52,9.85,6.8,0.0,40.22,233.11
Centro,290650101A,Candeias,Candeias (Centro) - 290650101A,-12.670229,-38.544112,Recôncavo,RPGA do Recôncavo Norte,0.0,0.0,0.0,2.75,0.0,1.58,0.6,0.0,0.0,0.0,0.0,0.0,0.0,0.0,9.47,0.0,0.0,0.0,0.0,0.0,53.3,0.4,0.0,7.66,3.96,13.57,2.0,0.8,0.6,0.8,4.8,102.29
Areia Branca,291920706A,Lauro de Freitas,Lauro de Freitas (Areia Branca) - 291920706A,-12.841,-38.337,Recôncavo,RPGA do Recôncavo Norte,0.0,0.0,0.0,0.0,18.33,3.37,4.73,1.58,0.2,0.2,0.0,0.0,1.58,0.0,9.85,0.0,0.2,0.0,0.0,0.0,22.82,0.2,23.2,15.15,46.27,0.0,9.5,1.39,0.0,5.13,47.44,211.14
Itinga 02,291920704A,Lauro de Freitas,Lauro de Freitas (Itinga 02) - 291920704A,-12.89,-38.353,Recôncavo,RPGA do Recôncavo Norte,0.0,0.0,0.0,0.0,1.2,0.0,0.0,0.4,0.0,0.0,0.0,0.0,0.0,0.0,0.4,0.0,0.0,0.0,0.0,0.0,9.23,0.2,0.6,0.0,0.0,0.0,1.97,0.0,0.0,0.0,0.0,14.0
Muritiba,PG-PR-12,Muritiba,Muritiba - PG-PR-12,-12.617895,-39.005591,Recôncavo,RPGA do Rio Paraguaçu,0.0,0.6,0.0,8.0,7.4,2.6,1.0,0.0,0.0,0.0,0.0,0.0,0.0,0.0,0.0,0.0,0.0,0.0,0.0,0.0,11.0,17.2,39.6,43.6,0.0,0.0,0.8,0.0,2.0,3.0,22.0,158.8
Dois de Julho,291120401A,Gandú,Gandú (Dois de Julho) - 291120401A,-13.741357,-39.48303,Recôncavo,RPGA do Recôncavo Sul,0.0,0.0,0.0,0.0,0.0,12.21,3.18,1.38,0.0,0.0,0.0,0.0,0.0,0.0,0.0,0.0,0.0,0.0,0.0,0.0,29.73,4.01,8.64,26.8,14.22,0.2,3.73,4.74,0.0,0.2,0.59,109.64
PC Fazenda Jurema,51346050,Rafael Jambeiro,Rafael Jambeiro (PC Fazenda Jurema) - 51346050,-12.4881,-39.6981,Recôncavo,RPGA do Rio Paraguaçu,0.0,0.4,0.0,3.0,0.4,4.0,0.0,0.0,0.0,0.0,0.0,0.0,0.0,0.0,0.0,0.0,0.0,0.0,0.0,0.0,3.6,0.0,22.0,13.2,0.4,0.0,0.0,1.4,0.0,0.0,0.0,48.4
PC Argoim,51351000,Rafael Jambeiro,Rafael Jambeiro (PC Argoim) - 51351000,-12.5867,-39.5217,Recôncavo,RPGA do Rio Paraguaçu,0.0,0.0,0.0,0.0,0.0,0.0,0.0,0.0,0.0,0.0,0.0,0.0,0.0,0.0,0.0,0.0,0.0,0.0,0.0,0.0,0.0,0.0,0.0,0.0,0.0,0.0,0.0,0.0,0.0,0.0,0.0,0.0
Feira de Santana,PC Rio Branco,Feira de Santana,Feira de Santana - PC Rio Branco,-12.2331,-39.0461,Recôncavo,RPGA do Rio Paraguaçu,0.0,0.0,0.0,0.0,0.6,0.0,0.0,0.0,0.0,0.0,0.0,0.0,0.0,0.0,9.0,0.0,0.0,0.0,0.0,0.0,0.0,0.0,3.6,3.4,12.4,0.2,9.2,0.2,0.2,0.4,4.4,43.6
Antônio Cardoso,290170001C,Antônio Cardoso,Antônio Cardoso - 290170001C,-12.35093,-39.1648,Recôncavo,RPGA do Rio Paraguaçu,0.0,0.0,0.0,0.0,2.6,0.0,0.0,0.0,0.0,0.0,0.0,0.0,0.0,0.0,0.4,0.0,0.0,0.0,0.0,0.0,11.6,9.0,24.8,69.6,9.2,0.0,0.0,4.8,0.2,0.0,0.0,132.2
Cabaceiras do Paraguaçu,290485201C,Cabaceiras do Paraguaçu,Cabaceiras do Paraguaçu - 290485201C,-12.6226,-39.23243,Recôncavo,RPGA do Rio Paraguaçu,0.0,0.0,0.0,0.0,0.2,0.2,2.0,0.0,0.0,0.0,0.0,0.0,0.0,0.0,0.0,0.0,0.0,0.0,0.0,0.0,13.0,35.2,44.2,43.2,0.0,0.0,1.2,9.6,10.0,3.4,2.4,164.6
Abaeté,RN-PR-01,Salvador,Salvador (Abaeté) - RN-PR-01,-12.945407,-38.361404,Recôncavo,RPGA do Recôncavo Norte,0.0,0.0,0.0,0.0,4.7,13.1,2.1,0.0,2.0,0.0,0.0,0.0,0.0,0.0,0.0,0.0,0.2,0.0,0.0,0.0,18.2,0.0,6.0,7.5,6.0,0.5,7.2,7.0,0.0,9.2,2.6,86.3
Lajedo do Tabocal,291905801C,Lajedo do Tabocal,Lajedo do Tabocal - 291905801C,-13.429464,-40.238969,Sudoeste,RPGA do Recôncavo Sul,0.0,0.2,0.0,0.0,14.2,0.4,0.8,0.2,0.0,0.0,0.0,0.0,0.0,0.0,0.0,0.0,0.0,0.0,0.0,0.0,16.8,0.0,31.4,60.4,27.0,3.0,0.0,1.2,0.2,0.0,0.0,155.8
Cândido Sales,53620000,Cândido Sales,Cândido Sales - 53620000,-15.512891,-41.236629,Sudoeste,RPGA do Rio Pardo,0.2,0.0,0.0,0.0,0.0,2.8,0.0,0.0,0.0,0.0,0.0,0.0,0.0,0.0,0.0,0.0,0.0,0.0,0.0,7.0,0.2,3.6,4.2,0.0,1.4,0.2,9.4,0.2,0.0,4.0,0.0,33.2
Itiruçu,A407,Itiruçu,Itiruçu - A407,-13.52629,-40.12055,Sudoeste,RPGA do Recôncavo Sul,0.0,0.0,0.0,0.6,2.0,2.0,0.6,1.0,0.0,0.0,0.0,0.0,0.0,0.0,0.0,0.0,0.0,0.0,0.0,0.0,94.6,0.2,47.8,18.0,16.4,0.0,0.0,12.0,0.0,0.0,0.0,195.21
Vitória da Conquista,A414,Vitória da Conquista,Vitória da Conquista - A414,-14.886428,-40.80133,Sudoeste,RPGA do Rio Pardo,2.4,0.0,0.0,0.0,0.0,3.6,0.0,0.0,0.0,0.0,0.0,0.0,0.0,0.0,0.0,0.0,0.0,0.0,0.0,1.4,7.2,6.4,2.2,2.2,5.4,16.6,12.4,0.0,0.8,0.2,0.0,60.8
Ituaçu,83292,Ituaçu,Ituaçu - 83292,-13.812778,-41.3,Sudoeste,RPGA do Rio de Contas,0.0,0.0,0.0,0.0,0.0,0.0,0.0,0.0,0.0,0.0,0.0,0.0,0.0,0.0,0.0,0.0,0.0,0.0,0.0,0.0,82.3,7.9,1.5,0.0,56.7,12.2,0.0,16.8,0.0,0.0,0.0,177.4
Lagoa,291760701A,Jaguaquara,Jaguaquara (Lagoa) - 291760701A,-13.523228,-39.968685,Sudoeste,RPGA do Recôncavo Sul,0.0,0.0,0.0,0.0,0.0,3.0,1.0,0.0,0.0,0.0,0.0,0.0,0.0,0.0,0.0,0.0,0.0,0.0,0.0,0.0,44.8,0.2,21.8,33.2,21.0,2.8,0.0,0.8,0.2,0.0,0.0,128.8
Entroncamento,291760702A,Jaguaquara,Jaguaquara (Entroncamento) - 291760702A,-13.509869,-40.05461,Sudoeste,RPGA do Recôncavo Sul,0.0,0.0,0.0,0.0,0.0,1.4,0.6,0.2,0.0,0.0,0.0,0.0,0.0,0.0,0.0,0.0,0.0,0.0,0.0,0.0,31.8,0.2,95.4,89.0,21.8,6.4,0.4,2.6,0.0,0.0,0.0,249.81
Vitória da Conquista,83344,Vitória da Conquista,Vitória da Conquista - 83344,-14.883333,-40.8,Sudoeste,RPGA do Rio Pardo,2.4,0.0,0.0,0.0,0.0,3.6,0.0,0.0,0.0,0.0,0.0,0.0,0.0,0.0,0.0,0.0,0.0,0.0,0.0,1.5,6.7,11.6,2.2,2.2,5.4,16.8,12.8,0.0,0.8,0.2,0.0,66.2
Brumado,A433,Brumado,Brumado - A433,-14.181886,-41.672281,Sudoeste,RPGA do Rio de Contas,0.0,0.0,0.0,0.0,0.0,0.0,0.0,0.0,0.0,0.2,0.0,0.0,0.0,0.0,0.0,0.0,0.0,0.0,0.0,0.2,74.0,38.2,2.8,9.2,16.4,0.2,0.0,0.8,0.2,0.0,0.0,142.2
Ipiaú,A445,Ipiaú,Ipiaú - A445,-14.171304,-39.692502,Sudoeste,RPGA do Rio de Contas,0.0,0.0,0.0,0.0,0.2,2.4,0.0,0.0,0.0,0.0,0.0,0.0,0.0,0.0,0.0,0.0,0.0,0.0,0.0,1.2,3.4,0.6,0.2,6.2,4.4,5.0,2.8,2.0,4.2,3.0,3.0,38.6
Itapetinga,A446,Itapetinga,Itapetinga - A446,-15.24462,-40.22955,Sudoeste,RPGA do Rio Pardo,0.0,0.0,0.0,0.0,0.0,0.0,0.6,0.0,0.0,0.0,0.0,0.0,0.0,0.0,0.0,0.0,0.0,0.0,0.0,4.4,14.0,13.2,9.2,0.0,5.6,2.2,2.4,6.0,1.8,0.0,0.0,59.41
Anagé,CO-CL-01,Anagé,Anagé - CO-CL-01,-14.618055,-41.149722,Sudoeste,RPGA do Rio de Contas,0.0,0.75,0.0,0.0,0.0,0.0,0.0,0.4,0.0,0.0,0.0,0.0,0.0,0.0,0.0,0.0,0.0,0.0,0.0,0.0,10.5,11.75,49.5,0.5,21.0,1.75,1.25,9.5,0.0,0.0,0.0,106.9
Vitória da Conquista,Inhobim (ANA),Vitória da Conquista,Vitória da Conquista - Inhobim (ANA),-15.340228,-40.933566,Sudoeste,RPGA do Rio Pardo,0.0,0.0,0.0,0.0,0.0,0.0,0.0,0.0,0.0,0.0,0.0,0.0,0.0,0.0,0.0,0.0,0.0,0.0,0.0,0.0,0.0,3.0,11.0,0.0,9.6,17.0,22.6,4.0,0.2,2.2,0.0,69.61
Centro,293330701A,Vitória da Conquista,Vitória da Conquista (Centro) - 293330701A,-14.852,-40.839,Sudoeste,RPGA do Rio Pardo,0.2,0.0,0.0,0.0,0.0,1.8,0.0,0.0,0.0,0.0,0.0,0.0,0.0,0.0,0.0,0.0,0.0,0.0,0.0,5.15,5.11,3.19,1.99,1.19,4.16,22.83,0.2,2.37,0.0,0.0,0.0,48.2
Centro,291710201A,Itororó,Itororó (Centro) - 291710201A,-15.119,-40.065,Sudoeste,RPGA do Leste,0.0,0.0,0.0,0.0,0.0,0.0,0.0,0.0,6.11,0.0,0.0,0.0,0.0,0.0,0.0,0.0,0.0,0.0,0.0,23.23,24.62,2.59,16.97,0.0,2.37,11.23,0.0,3.75,2.39,6.31,0.0,99.58
Clerolândia,291640101A,Itapetinga,Itapetinga (Clerolândia) - 291640101A,-15.243,-40.221,Sudoeste,RPGA do Rio Pardo,0.0,0.0,0.0,0.0,0.0,0.0,0.0,0.0,0.0,0.0,0.0,0.0,0.0,0.0,0.0,0.0,0.0,0.0,0.0,0.0,0.0,0.0,3.44,0.0,0.0,1.19,0.2,0.39,0.4,0.0,0.0,5.62
Recreio,293330702A,Vitória da Conquista,Vitória da Conquista (Recreio) - 293330702A,-14.861,-40.841,Sudoeste,RPGA do Rio Pardo,0.2,0.0,0.0,0.0,0.0,2.17,0.0,0.0,0.0,0.0,0.0,0.0,0.0,0.0,0.0,0.0,0.0,0.0,0.0,2.58,5.74,2.97,1.38,1.0,4.18,32.97,0.4,0.0,0.0,0.0,0.0,53.59
Patagônia,293330704A,Vitória da Conquista,Vitória da Conquista (Patagônia) - 293330704A,-14.87,-40.863,Sudoeste,RPGA do Rio Pardo,1.19,0.0,0.0,0.0,0.0,12.66,0.0,0.0,0.0,0.0,0.0,0.0,0.0,0.0,0.0,0.0,0.0,0.0,0.0,4.56,1.8,2.97,2.56,0.82,5.75,26.06,21.46,0.2,0.59,0.0,0.0,80.63
Barcelar,293330705A,Vitória da Conquista,Vitória da Conquista (Barcelar) - 293330705A,-14.838,-40.856,Sudoeste,RPGA do Rio Pardo,4.34,0.0,0.0,0.0,0.0,2.17,0.2,0.0,0.0,0.0,0.0,0.0,0.0,0.0,0.0,0.0,0.0,0.0,0.0,7.33,5.11,5.36,6.15,1.2,2.64,10.04,5.31,2.56,0.0,0.0,0.0,52.41
Jaguaquara,RS-CL-01,Jaguaquara,Jaguaquara - RS-CL-01,-13.573055,-39.940833,Sudoeste,RPGA do Recôncavo Sul,0.0,0.0,0.0,0.0,0.0,1.5,1.25,0.4,0.0,0.0,0.2,0.0,0.0,0.0,0.0,0.0,0.0,0.0,0.0,0.0,33.5,0.25,14.75,60.0,17.5,2.0,0.0,5.25,0.0,0.0,0.0,136.6
Jequié,CO-CL-03,Jequié,Jequié - CO-CL-03,-13.873055,-40.071944,Sudoeste,RPGA do Rio de Contas,0.0,0.0,0.0,0.0,0.0,0.0,1.2,0.4,0.0,0.0,0.0,0.0,0.0,0.0,0.0,0.0,0.0,0.0,0.0,0.5,10.5,0.5,4.5,92.0,57.75,0.0,0.0,1.0,0.0,0.0,0.0,168.35
Vitória da Conquista,PA-CL-01,Vitória da Conquista,Vitória da Conquista - PA-CL-01,-14.886111,-40.800833,Sudoeste,RPGA do Rio Pardo,2.25,0.0,0.0,0.0,0.0,3.0,0.0,0.6,0.0,0.0,0.0,0.0,0.0,0.0,0.0,0.0,0.0,0.0,0.0,10.3,6.75,6.0,1.75,1.75,0.5,18.0,12.75,0.0,0.0,0.0,0.0,63.65
Nova Canaã,292270601C,Nova Canaã,Nova Canaã - 292270601C,-14.662641,-40.274647,Sudoeste,RPGA do Rio de Contas,0.0,0.0,0.0,0.4,0.0,0.0,9.4,0.2,1.2,0.0,0.0,0.0,0.0,0.0,0.0,0.0,0.0,0.0,0.0,2.8,10.8,1.2,41.8,0.4,3.2,78.4,0.0,25.8,0.0,0.4,0.0,176.01
Caculé,290500801C,Caculé,Caculé - 290500801C,-14.498111,-42.259611,Sudoeste,RPGA do Rio de Contas,0.0,0.0,0.0,0.0,0.0,0.0,0.0,0.0,0.0,0.0,0.0,0.0,0.0,0.0,0.0,0.0,0.0,0.0,0.0,34.8,2.2,11.0,12.8,0.2,46.2,2.0,25.8,0.0,0.0,0.2,0.0,135.2
Piripá,292470201C,Piripá,Piripá - 292470201C,-15.009277,-41.735333,Sudoeste,RPGA do Rio de Contas,0.0,0.0,0.0,0.0,0.0,0.0,0.0,0.0,0.0,0.0,0.0,0.0,0.0,0.0,0.0,0.0,0.0,0.0,0.0,6.6,0.4,2.8,2.0,0.0,23.2,51.8,0.8,0.0,0.0,2.4,0.0,90.0
Caraíbas,290689901C,Caraíbas,Caraíbas - 290689901C,-14.725138,-41.276972,Sudoeste,RPGA do Rio de Contas,0.0,0.0,0.0,0.0,0.0,0.0,0.0,0.0,0.0,0.0,0.0,0.0,0.0,0.0,0.0,0.0,0.0,0.0,0.0,0.0,5.4,30.0,7.6,0.2,2.4,12.4,0.2,0.4,0.8,0.0,0.0,59.4
PCH Cach. da Lixa M,55354000,Jucuruçu,Jucuruçu (PCH Cach. da Lixa M) - 55354000,-17.06703,-40.068619,Sul,"RPGA dos Rios Peruípe, Itanhém e Jucuruçu",0.0,0.0,0.0,0.0,7.4,19.4,2.2,2.6,0.0,0.2,0.0,0.0,0.0,0.0,0.0,0.0,0.0,0.0,0.0,6.4,1.4,51.6,13.0,19.4,0.4,1.2,6.4,0.0,5.0,13.6,2.0,152.2
Caravelas,A405,Caravelas,Caravelas - A405,-17.739413,-39.258617,Sul,"RPGA dos Rios Peruípe, Itanhém e Jucuruçu",0.2,0.0,0.0,1.2,6.0,2.0,0.0,0.2,0.0,21.4,0.0,0.4,0.0,0.0,0.0,0.0,0.0,0.0,0.0,3.4,0.2,68.2,36.6,25.6,2.4,0.0,0.2,0.2,5.2,0.0,1.6,175.0
Ilhéus,A410,Ilhéus,Ilhéus - A410,-14.658803,-39.181438,Sul,RPGA do Leste,0.2,0.2,0.0,0.0,0.4,6.4,3.4,0.2,0.2,0.8,0.0,0.0,3.8,0.6,0.0,0.2,0.0,0.0,0.0,0.0,98.6,10.6,1.6,0.2,30.0,10.0,7.2,8.2,0.0,0.0,0.0,182.8
Itamaraju,A455,Itamaraju,Itamaraju - A455,-17.17103,-39.58819,Sul,"RPGA dos Rios Peruípe, Itanhém e Jucuruçu",0.0,0.0,0.0,0.2,0.2,13.0,0.0,0.8,0.0,0.0,0.0,0.0,0.0,0.0,0.0,0.0,0.0,0.0,0.0,0.0,0.0,34.4,8.8,27.4,0.4,2.4,2.0,0.0,20.8,5.6,0.6,116.61
Itajuípe,,Itajuípe,Itajuípe,-14.6744,-39.3769,Sul,RPGA do Leste,0.0,0.0,0.0,0.0,0.8,2.2,0.2,0.2,0.0,0.0,0.2,0.0,0.0,0.0,0.0,0.2,0.0,0.0,0.0,0.0,71.8,5.0,7.0,0.0,0.2,2.0,7.0,1.6,0.0,0.0,0.2,98.6
Canavieiras,83398,Canavieiras,Canavieiras - 83398,-15.666667,-38.95,Sul,RPGA do Rio Pardo,0.0,0.0,0.0,0.0,0.0,0.0,0.0,0.0,0.0,0.0,0.0,0.0,0.0,0.0,0.0,0.0,0.0,0.0,0.0,0.0,4.8,3.8,15.1,0.0,21.3,2.1,14.1,0.0,0.0,7.9,0.0,69.11
Caravelas,83498,Caravelas,Caravelas - 83498,-17.739167,-39.258333,Sul,"RPGA dos Rios Peruípe, Itanhém e Jucuruçu",0.2,0.0,0.0,0.7,5.5,1.6,0.0,0.0,0.0,14.0,4.9,0.2,0.0,0.0,0.0,0.0,0.0,0.0,0.0,2.9,0.1,62.1,37.3,25.8,2.2,0.0,0.0,0.0,5.2,0.0,1.2,163.9
Barra do Rocha,290310201A,Barra do Rocha,Barra do Rocha - 290310201A,-14.208644,-39.598562,Sul,RPGA do Rio de Contas,0.0,0.0,0.0,0.0,0.0,5.2,0.0,0.0,0.2,0.0,0.0,0.0,0.0,0.0,0.0,0.0,0.0,0.0,0.0,0.0,13.8,3.2,46.0,0.0,35.4,4.2,2.4,5.0,0.2,0.0,0.0,115.61
Guaratinga,83446,Guaratinga,Guaratinga - 83446,-16.58,-39.78,Sul,"RPGA dos Rios dos Frades, Buranhém e Santo Antônio",0.0,0.0,0.0,0.2,0.0,10.4,0.0,2.2,0.0,0.0,0.0,0.0,0.0,0.0,0.0,0.0,0.0,0.0,0.0,2.8,1.4,36.5,0.0,0.2,0.0,4.8,0.4,2.7,1.6,1.0,0.0,64.2
Centro,290580001A,Camamu,Camamu (Centro) - 290580001A,-13.943506,-39.10251,Sul,RPGA do Recôncavo Sul,0.0,0.0,0.0,0.0,0.8,3.6,14.0,0.4,0.0,0.0,0.0,0.0,5.2,0.0,0.0,0.0,0.0,0.0,0.0,0.6,20.6,3.6,4.4,4.4,3.4,0.0,14.2,11.6,0.0,0.2,0.0,87.0
Palmeiras,290690701A,Caravelas,Caravelas (Palmeiras) - 290690701A,-17.730921,-39.26635,Sul,"RPGA dos Rios Peruípe, Itanhém e Jucuruçu",0.4,0.0,0.0,14.6,3.8,4.4,21.4,0.0,0.0,10.2,0.2,3.0,0.0,0.0,0.0,0.0,0.0,0.0,0.0,1.6,0.4,58.0,37.4,23.8,0.0,0.2,0.0,0.0,2.6,0.0,0.0,182.0
Novo Horizonte,291180801A,Guaratinga,Guaratinga (Novo Horizonte) - 291180801A,-16.582916,-39.780555,Sul,"RPGA dos Rios dos Frades, Buranhém e Santo Antônio",0.0,0.0,0.0,0.0,0.0,13.8,0.0,1.6,0.0,0.0,0.0,0.0,0.0,0.0,0.0,0.0,0.0,0.0,0.0,4.2,0.4,43.4,0.4,0.4,0.2,4.8,0.8,2.6,2.0,1.6,0.0,76.2
Passagem,291490101A,Itacaré,Itacaré (Passagem) - 291490101A,-14.280609,-39.002952,Sul,RPGA do Rio de Contas,0.4,0.8,0.0,0.0,5.0,6.8,17.2,1.8,0.2,5.8,0.0,0.0,4.4,2.8,0.0,0.0,0.0,0.0,0.0,0.0,4.4,34.0,3.2,1.8,5.2,0.0,0.0,18.4,0.0,6.8,0.2,119.2
Pau Brasil,292390201A,Pau Brasil,Pau Brasil - 292390201A,-15.46122,-39.65225,Sul,RPGA do Rio Pardo,0.0,0.0,0.0,0.0,0.0,2.8,0.0,0.0,0.0,0.0,0.0,0.0,0.0,0.0,0.0,0.0,0.0,0.0,0.0,3.6,0.0,0.4,12.4,0.0,7.2,2.4,2.4,4.8,0.2,0.0,0.0,36.2
Centro,292805901A,Santa Luzia,Santa Luzia (Centro) - 292805901A,-15.42976,-39.332759,Sul,RPGA do Leste,0.0,0.0,0.0,0.0,5.2,0.2,0.4,10.4,0.2,0.4,0.0,0.0,0.0,0.0,0.0,0.0,0.0,0.0,0.0,0.0,6.2,2.8,4.0,0.0,2.6,7.6,1.2,12.8,15.0,0.2,1.0,70.2
Maraú,A438,Maraú,Maraú - A438,-13.90694,-38.97222,Sul,RPGA do Recôncavo Sul,1.6,0.0,0.0,0.8,13.0,27.2,3.6,4.6,0.0,0.0,0.0,0.2,24.6,0.0,0.0,0.0,0.0,0.0,0.0,0.0,7.2,4.6,34.8,7.4,0.2,0.0,50.6,3.0,0.0,2.2,0.8,186.4
Una,A437,Una,Una - A437,-15.280215,-39.09127,Sul,RPGA do Leste,0.0,0.8,0.6,0.0,7.8,1.4,3.8,0.6,0.0,0.0,0.0,0.0,0.2,0.0,0.0,0.0,0.0,0.0,0.0,2.0,0.0,0.4,8.0,0.0,0.0,16.4,0.0,5.0,10.0,4.8,0.0,61.8
Porto Seguro,A427,Porto Seguro,Porto Seguro - A427,-16.388977,-39.182389,Sul,"RPGA dos Rios dos Frades, Buranhém e Santo Antônio",0.0,0.0,0.0,0.8,0.0,12.6,14.0,0.0,0.2,1.4,0.0,0.0,0.0,0.0,0.0,0.0,0.0,0.0,0.0,0.8,1.2,60.8,1.6,19.0,22.4,20.2,0.0,0.0,0.0,0.4,14.4,169.8
Abrolhos,A422,Caravelas,Caravelas (Abrolhos) - A422,-17.79052,-39.22789,Sul,"RPGA dos Rios Peruípe, Itanhém e Jucuruçu",0.0,0.0,0.0,0.0,0.8,0.6,0.2,0.0,0.0,0.0,2.4,1.2,0.0,4.0,0.0,0.4,0.0,0.0,0.0,0.0,0.0,58.8,28.2,37.6,1.4,0.0,0.0,0.0,0.0,0.0,4.2,139.8
Belmonte,A447,Belmonte,Belmonte - A447,-16.08487,-39.21726,Sul,"RPGA dos Rios dos Frades, Buranhém e Santo Antônio",0.0,0.0,0.0,1.6,0.2,25.6,8.2,0.4,0.0,0.0,0.0,0.0,0.0,0.0,0.0,0.0,0.0,0.0,0.0,0.0,0.0,0.0,0.0,0.0,0.0,0.0,0.0,0.0,0.0,0.0,0.0,36.0
Mascote,53950000,Mascote,Mascote - 53950000,-15.565561,-39.302756,Sul,RPGA do Rio Pardo,0.0,0.0,0.0,0.0,5.8,0.0,4.2,1.8,0.0,0.0,0.0,0.0,0.0,0.0,0.0,0.0,0.0,0.0,0.0,4.2,1.8,32.0,4.4,0.2,1.8,54.0,7.4,35.4,1.2,0.2,0.0,154.4
PCH Colino I J,55357000,Jucuruçu,Jucuruçu (PCH Colino I J) - 55357000,-17.0822,-40.0772,Sul,"RPGA dos Rios Peruípe, Itanhém e Jucuruçu",0.0,0.0,0.0,0.25,4.5,25.25,3.25,5.25,0.0,2.75,0.0,0.0,0.0,0.0,0.0,0.0,0.0,0.0,0.0,15.75,0.25,49.0,8.25,16.5,0.0,3.25,18.25,0.0,3.0,18.25,1.75,175.5
Eunápolis,FB-CL-01,Eunápolis,Eunápolis - FB-CL-01,-16.290555,-39.579722,Sul,"RPGA dos Rios dos Frades, Buranhém e Santo Antônio",0.0,0.0,0.0,0.0,0.0,13.25,8.25,0.8,0.0,0.5,0.0,0.0,0.0,0.0,0.0,0.0,0.0,0.0,0.0,0.0,13.75,86.0,0.25,0.25,2.5,1.25,0.0,0.25,4.0,2.0,2.75,135.8
Centro,290560201A,Camacan,Camacan (Centro) - 290560201A,-15.422225,-39.494984,Sul,RPGA do Rio Pardo,0.0,0.0,0.0,0.0,0.0,1.59,0.4,0.0,0.0,0.0,0.0,0.0,0.0,0.0,0.0,0.0,0.0,0.0,0.0,0.0,1.18,2.78,12.72,0.0,2.2,3.8,0.6,1.4,4.4,1.6,0.0,32.67
Teixeira de Freitas,PJ-CL-01,Teixeira de Freitas,Teixeira de Freitas - PJ-CL-01,-17.575555,-39.732777,Sul,"RPGA dos Rios Peruípe, Itanhém e Jucuruçu",0.0,0.0,0.0,2.75,2.25,12.25,0.0,0.3,0.0,0.0,0.0,0.0,0.0,0.0,0.0,0.0,0.0,0.0,0.0,0.0,0.0,44.25,5.5,16.75,0.0,0.0,0.0,0.0,10.5,0.0,0.5,95.05
Itabuna,Fazenda Barra,Itabuna,Itabuna - Fazenda Barra,-14.8997,-39.3686,Sul,RPGA do Leste,0.0,0.0,0.2,0.2,0.4,2.0,1.2,0.4,0.2,0.2,0.0,0.0,0.0,0.0,0.0,0.0,0.0,0.0,0.0,0.0,9.6,4.6,6.8,0.2,0.0,7.8,9.2,0.4,0.0,0.0,0.0,43.4
Centro,290340901A,Belmonte,Belmonte (Centro) - 290340901A,-15.859179,-38.878025,Sul,RPGA do Rio Jequitinhonha,0.0,0.0,0.0,11.22,2.17,0.6,0.6,0.0,0.59,0.0,0.0,0.0,0.0,0.0,0.0,0.0,0.0,0.0,0.0,2.37,16.73,3.35,1.39,0.4,8.09,1.79,6.5,25.8,6.88,0.6,0.0,89.08
Centro,290560203A,Camacan,Camacan (Centro) - 290560203A,-15.416389,-39.493873,Sul,RPGA do Rio Pardo,0.0,0.0,0.0,0.0,0.0,2.76,0.79,0.0,0.0,0.0,0.0,0.0,0.0,0.0,0.0,0.0,0.0,0.0,0.0,0.0,2.36,2.76,17.51,0.0,3.17,3.96,0.2,1.18,5.51,0.2,0.0,40.41
Conquista,291360601A,Ilhéus,Ilhéus (Conquista) - 291360601A,-14.797213,-39.04608,Sul,RPGA do Leste,0.0,4.33,0.0,0.0,0.0,19.27,1.77,0.0,0.0,0.0,0.0,0.0,0.0,0.0,0.0,0.0,0.0,0.0,0.0,0.0,103.28,13.58,0.2,0.0,0.2,0.0,0.41,7.87,0.0,0.0,0.59,151.5
Malhado,291360602A,Ilhéus,Ilhéus (Malhado) - 291360602A,-14.789158,-39.048858,Sul,RPGA do Leste,0.0,1.77,0.0,0.0,0.0,18.58,4.92,0.81,0.0,0.0,0.0,0.0,0.0,0.0,0.2,0.0,0.0,0.0,0.0,0.0,96.73,12.45,0.0,0.0,0.0,0.0,0.99,7.88,0.0,0.0,0.0,144.33
São Caetano,291480202A,Itabuna,Itabuna (São Caetano) - 291480202A,-14.80638,-39.27803,Sul,RPGA do Leste,0.0,0.0,0.0,0.0,5.52,4.33,0.61,0.0,0.0,0.0,0.0,0.0,0.0,0.0,0.0,0.0,0.0,0.0,0.0,0.0,37.41,7.26,0.6,0.0,0.0,0.0,12.23,4.13,10.83,0.0,0.0,82.92
Posto da Mata,292300103A,Nova Viçosa,Nova Viçosa (Posto da Mata) - 292300103A,-17.896,-39.37,Sul,"RPGA dos Rios Peruípe, Itanhém e Jucuruçu",0.0,0.0,0.0,3.35,5.54,0.2,2.95,0.0,0.0,0.0,0.0,2.57,10.44,0.0,0.0,0.0,0.0,0.0,0.0,2.16,0.59,114.53,38.18,27.58,3.96,0.2,0.0,0.2,0.2,2.56,0.99,216.2
Paraguai,292530302A,Porto Seguro,Porto Seguro (Paraguai) - 292530302A,-16.41,-39.08,Sul,"RPGA dos Rios dos Frades, Buranhém e Santo Antônio",0.0,0.0,0.0,1.2,0.0,4.78,11.4,1.2,0.0,0.0,0.0,0.0,0.0,0.0,0.0,0.0,0.0,0.0,0.0,3.4,7.8,3.2,4.4,6.2,14.4,25.33,20.18,6.0,0.0,0.0,0.8,110.29
Trancoso,292530303A,Porto Seguro,Porto Seguro (Trancoso) - 292530303A,-16.595,-39.109,Sul,"RPGA dos Rios dos Frades, Buranhém e Santo Antônio",0.0,0.0,0.0,10.86,0.79,0.0,8.85,0.2,4.72,0.2,0.0,0.0,0.0,0.0,0.0,0.0,0.0,0.0,0.0,16.14,0.0,19.32,14.06,33.96,20.5,26.01,0.2,0.0,4.15,0.0,4.75,164.71
BR367km4,292770501A,Santa Cruz Cabrália,Santa Cruz Cabrália (BR367km4) - 292770501A,-16.321,-39.023,Sul,"RPGA dos Rios dos Frades, Buranhém e Santo Antônio",0.0,0.0,0.0,0.0,0.0,2.17,14.41,0.0,0.0,0.0,0.0,0.0,0.0,0.0,0.0,0.0,0.0,0.0,0.0,0.0,0.0,0.62,8.28,18.11,24.56,23.26,0.0,0.0,0.98,0.0,2.75,95.14
Estádio Municipal,291530401A,Itagimirim,Itagimirim (Estádio Municipal) - 291530401A,-16.089181,-39.615546,Sul,RPGA do Rio Jequitinhonha,0.0,0.0,0.0,0.0,0.0,0.0,4.14,3.57,0.2,14.31,0.0,0.0,0.0,0.0,0.0,0.0,0.0,0.0,0.0,5.17,0.2,22.14,0.0,0.59,10.9,7.51,0.0,0.0,4.14,0.4,1.78,75.06
Jusante,54945000,Itapebi,Itapebi (Jusante) - 54945000,-15.949206,-39.5225,Sul,RPGA do Rio Jequitinhonha,0.0,0.0,0.0,0.0,0.0,14.4,5.2,0.0,0.0,0.8,0.0,0.0,0.0,0.0,0.0,0.0,0.0,0.0,0.0,31.4,0.2,12.2,0.8,2.8,13.6,39.4,0.0,5.8,2.0,0.0,1.0,129.6
Morpará,46360000,Morpará,Morpará - 46360000,-11.5583,-43.2825,São Francisco,RPGA dos Rios Paramirim e Santo Onofre,0.0,0.0,0.0,0.0,0.0,2.4,0.2,0.0,0.0,0.0,0.0,0.0,0.0,0.0,0.0,0.0,0.2,0.2,0.0,0.0,0.0,9.6,1.8,19.8,0.2,0.2,13.0,7.2,0.0,0.0,0.0,54.81
Santa Rita de Cássia,A415,Santa Rita de Cássia,Santa Rita de Cássia - A415,-11.002768,-44.524965,São Francisco,RPGA do Rio Grande,0.0,0.0,0.0,0.0,0.0,0.0,0.0,0.0,0.0,0.0,0.0,0.0,0.0,0.0,0.0,0.0,0.0,0.0,0.0,0.0,0.0,0.0,0.0,0.0,0.0,0.0,0.0,0.0,0.0,0.0,0.0,0.0
Pilão Arcado,A449,Pilão Arcado,Pilão Arcado - A449,-10.003519,-42.474785,São Francisco,RPGA do Lago de Sobradinho,0.0,0.8,0.0,1.2,0.2,0.0,1.2,0.0,0.0,0.0,0.0,0.0,0.0,0.0,0.0,0.0,0.0,0.0,0.0,0.0,13.6,0.0,0.0,12.0,8.4,9.0,8.4,12.4,0.0,0.0,0.0,67.2
Bom Jesus da Lapa,83288,Bom Jesus da Lapa,Bom Jesus da Lapa - 83288,-13.251389,-43.405278,São Francisco,RPGA do Rio Carnaíba de Dentro,0.0,0.0,0.0,0.0,0.0,0.0,1.0,0.0,0.0,0.0,1.0,0.0,0.0,0.0,0.0,3.7,0.0,0.0,19.0,0.7,22.5,0.7,25.8,9.0,38.0,47.4,9.9,0.0,0.0,0.0,0.0,178.71
Caetité,83339,Caetité,Caetité - 83339,-14.066667,-42.483333,São Francisco,RPGA do Rio de Contas,1.0,0.0,0.0,0.0,0.0,0.0,0.0,0.0,0.0,0.0,0.0,0.0,0.0,0.0,0.0,0.0,0.0,0.0,0.0,28.8,64.2,3.0,0.0,0.4,16.0,1.8,1.0,1.2,0.0,0.0,0.0,117.4
Santa Rita de Cássia,83076,Santa Rita de Cássia,Santa Rita de Cássia - 83076,-11.016667,-44.516667,São Francisco,RPGA do Rio Grande,13.0,9.7,5.9,5.0,8.0,20.2,0.0,0.0,0.0,2.8,0.0,0.0,0.0,0.0,0.0,5.0,6.0,0.0,0.0,0.0,0.6,23.4,1.2,7.8,16.0,15.0,5.4,39.0,0.0,0.0,0.0,184.0
Guanambí,A426,Guanambí,Guanambí - A426,-14.208123,-42.749647,São Francisco,RPGA do Rio Carnaíba de Dentro,13.0,0.0,0.0,0.0,0.0,0.0,0.0,0.0,0.0,0.0,0.0,0.0,0.0,0.0,0.0,0.0,0.0,0.0,0.0,4.4,3.8,1.2,2.4,0.2,21.0,7.4,20.0,0.0,0.0,0.0,0.0,73.4
Paratinga,292370401U,Paratinga,Paratinga - 292370401U,-12.678908,-43.180266,São Francisco,RPGA do Rio Carnaíba de Dentro,0.2,0.0,0.0,1.2,2.2,0.0,0.0,0.0,0.0,0.0,0.0,0.0,0.0,7.6,0.0,0.0,0.2,0.0,6.4,88.0,0.0,26.0,62.4,52.0,3.4,4.4,9.8,3.4,0.0,0.0,0.0,267.2
Barra,A429,Barra,Barra - A429,-11.084858,-43.138998,São Francisco,RPGA do Rio Grande,0.0,0.0,3.2,0.0,0.0,0.0,0.0,0.0,0.0,0.0,0.0,0.0,0.0,0.0,0.0,0.0,0.0,0.0,0.0,0.4,0.2,9.0,38.0,5.4,2.6,3.4,4.6,16.6,0.2,0.0,0.0,83.61
Ibotirama,A439,Ibotirama,Ibotirama - A439,-12.19306,-43.21342,São Francisco,RPGA dos Rios Paramirim e Santo Onofre,10.8,9.8,0.0,0.6,1.4,0.0,0.0,0.0,0.0,0.0,0.0,0.0,0.0,0.2,0.0,0.2,0.0,0.0,9.6,0.0,0.0,4.2,15.4,22.4,34.4,4.2,15.4,10.0,0.0,0.0,0.0,138.6
Macaúbas,PM-CL-02,Macaúbas,Macaúbas - PM-CL-02,-13.07953,-42.6957,São Francisco,RPGA dos Rios Paramirim e Santo Onofre,0.0,0.0,0.0,0.0,0.0,0.2,0.4,0.0,0.0,0.0,0.8,0.0,0.0,0.0,0.0,0.0,0.0,0.0,0.0,27.0,21.4,45.8,22.0,10.2,4.8,21.8,2.4,1.6,0.0,0.0,0.0,158.4
Faz. Macambira,46675000,Cotegipe,Cotegipe (Faz. Macambira) - 46675000,-11.6106,-44.1567,São Francisco,RPGA do Rio Grande,0.4,0.8,23.6,0.0,0.6,3.2,0.2,0.0,0.0,0.2,0.0,0.0,0.0,2.0,0.0,0.0,15.8,0.0,0.0,0.0,0.0,15.8,3.2,0.0,2.2,17.8,9.2,2.2,0.0,0.0,1.8,99.0
Fz.P. Limpo,46870000,Mansidão,Mansidão (Fz.P. Limpo) - 46870000,-11.236845,-43.950633,São Francisco,RPGA do Rio Grande,0.6,0.2,31.6,0.0,24.4,13.0,0.2,0.0,0.0,0.0,0.0,0.0,0.0,0.0,0.0,0.4,3.2,0.2,3.2,0.0,0.0,20.4,0.2,0.6,7.6,57.6,2.6,25.4,0.2,0.0,0.0,191.6
Fazenda Caraíbas,,Fazenda Caraíbas,Fazenda Caraíbas,-12.571486,-42.074028,São Francisco,RPGA dos Rios Paramirim e Santo Onofre,0.0,0.0,0.0,0.0,0.0,0.0,0.0,0.0,0.0,0.0,0.0,0.0,0.0,0.0,0.0,0.0,0.0,0.0,0.0,0.0,0.0,23.2,46.2,24.2,46.2,2.4,7.4,0.6,0.2,0.0,0.0,150.4
Santa Maria da Vitória,45910001,Santa Maria da Vitória,Santa Maria da Vitória - 45910001,-13.4006,-44.1989,São Francisco,"RPGA do Rio Corrente e Riachos do Ramalho, Serra Dourada e Brejo Velho",0.0,42.8,0.0,0.0,0.0,0.0,0.0,0.0,0.0,0.0,0.0,0.0,0.0,0.0,0.0,0.8,0.0,0.0,2.0,110.8,4.2,0.6,36.4,64.2,0.4,8.4,5.8,0.2,0.0,0.0,0.0,276.6
Caetité,CD-CL-01,Caetité,Caetité - CD-CL-01,-13.96659,-42.60482,São Francisco,RPGA do Rio Carnaíba de Dentro,12.0,0.0,1.25,0.0,0.0,0.0,0.0,0.2,0.0,0.0,8.75,0.0,0.0,0.0,0.0,0.0,0.0,0.0,0.0,8.25,69.75,19.0,5.0,0.0,20.25,0.25,3.5,1.75,0.0,0.0,0.0,149.95
Barra,46998000,Barra,Barra - 46998000,-11.0928,-43.1403,São Francisco,RPGA do Rio Grande,0.0,0.0,1.0,0.0,0.0,0.0,0.0,0.0,0.0,0.0,0.0,0.0,0.0,0.0,0.0,0.0,0.0,0.0,0.0,0.4,0.0,14.8,24.4,3.2,1.4,3.0,2.4,16.2,0.0,0.0,0.0,66.8
Boqueirão,46902000,Mansidão,Mansidão (Boqueirão) - 46902000,-11.345255,-43.826056,São Francisco,RPGA do Rio Grande,5.0,0.0,9.8,0.0,7.8,5.2,0.0,0.0,0.0,0.0,0.0,0.0,0.0,0.0,0.0,0.0,1.8,0.0,3.0,0.0,0.0,1.2,8.8,11.4,1.0,12.8,0.8,1.2,0.6,0.0,0.0,70.4
Boquira,PM-PR-05,Boquira,Boquira - PM-PR-05,-12.81037,-42.71849,São Francisco,RPGA dos Rios Paramirim e Santo Onofre,0.0,0.0,0.0,0.2,1.6,0.0,0.0,1.6,0.0,2.2,0.0,0.0,0.0,0.0,0.0,0.0,0.4,0.0,0.0,2.6,0.0,24.2,42.0,64.6,45.4,31.2,28.6,16.6,0.0,0.0,0.0,261.2
Volta da Serra,CD-CL-02,Paratinga,Paratinga (Volta da Serra) - CD-CL-02,-12.57591,-43.12782,São Francisco,RPGA do Rio Carnaíba de Dentro,1.2,0.0,0.0,0.0,0.0,1.6,0.0,0.0,0.0,0.0,4.0,0.0,0.0,0.2,0.0,0.0,0.0,0.0,9.8,32.0,0.0,11.6,40.6,35.8,7.4,26.2,16.8,3.2,0.0,0.0,0.0,190.4
