nome_estacao,codigo,municipio,estacao,latitude,longitude,regiao,rpga,01_12_18,02_12_18,03_12_18,04_12_18,05_12_18,06_12_18,07_12_18,08_12_18,09_12_18,10_12_18,11_12_18,12_12_18,13_12_18,14_12_18,15_12_18,16_12_18,17_12_18,18_12_18,19_12_18,20_12_18,21_12_18,22_12_18,23_12_18,24_12_18,25_12_18,26_12_18,27_12_18,28_12_18,29_12_18,30_12_18,31_12_18,total
Itaberaba,A408,Itaberaba,Itaberaba - A408,-12.524062,-40.299714,Chapada Diamantina,RPGA do Rio Paraguaçu,0.0,3.6,3.0,62.6,0.4,7.2,0.0,0.0,0.4,13.0,1.0,0.4,0.2,0.2,0.2,0.0,0.2,0.2,0.0,0.2,0.0,0.0,0.0,0.0,0.0,0.0,0.0,0.0,0.0,0.0,0.0,92.81
Macajuba,A412,Macajuba,Macajuba - A412,-12.131694,-40.354222,Chapada Diamantina,RPGA do Rio Paraguaçu,0.0,0.0,0.0,0.0,0.2,0.0,5.2,0.4,0.0,11.6,8.4,2.8,3.2,0.0,0.2,0.4,0.0,0.0,0.0,0.0,0.2,0.0,0.0,0.0,0.0,0.0,0.0,0.0,0.0,0.0,0.0,32.6
Itaberaba,83244,Itaberaba,Itaberaba - 83244,-12.516667,-40.283333,Chapada Diamantina,RPGA do Rio Paraguaçu,0.0,3.7,2.8,65.0,0.1,7.6,0.0,0.0,0.3,14.3,2.8,0.1,7.0,0.0,0.5,3.4,0.2,0.0,0.0,0.0,0.0,0.0,0.0,0.0,0.0,0.0,0.0,0.0,0.0,0.0,0.0,107.8
Lençóis,83242,Lençóis,Lençóis - 83242,-12.5575,-41.388889,Chapada Diamantina,RPGA do Rio Paraguaçu,0.8,4.1,7.4,75.3,24.1,27.1,0.1,0.0,11.8,12.4,27.4,0.0,0.0,0.0,0.0,3.8,0.7,0.0,0.0,0.0,0.0,0.0,0.0,0.0,0.0,0.0,0.0,0.0,0.0,0.0,0.0,195.0
Morro do Chapéu,83184,Morro do Chapéu,Morro do Chapéu - 83184,-11.216667,-41.216667,Chapada Diamantina,RPGA do Rio Salitre,1.3,1.2,13.2,31.1,13.0,27.0,1.0,0.0,0.4,0.8,4.0,0.0,0.0,0.0,0.0,0.0,0.0,0.0,0.0,0.0,0.0,0.0,0.0,0.0,0.0,0.0,0.0,0.0,0.0,0.0,0.0,93.0
Piatã,A430,Piatã,Piatã - A430,-13.155681,-41.774125,Chapada Diamantina,RPGA do Rio de Contas,14.4,12.6,21.8,18.6,0.6,15.2,1.0,29.2,23.0,26.0,59.8,0.8,0.0,0.0,0.0,0.0,7.8,0.0,0.0,0.0,0.0,0.0,0.0,41.0,0.6,2.4,0.2,0.0,0.0,0.0,0.4,275.4
Livramento de Nossa Senhora,291950401U,Livramento de Nossa Senhora,Livramento de Nossa Senhora - 291950401U,-13.682872,-41.841236,Chapada Diamantina,RPGA do Rio de Contas,0.0,23.6,46.0,41.4,1.0,35.4,8.2,0.0,7.8,29.6,10.0,0.8,0.0,0.0,0.0,0.0,0.0,0.0,0.0,0.0,0.0,0.0,0.0,0.0,17.0,0.0,0.0,0.0,0.6,0.0,5.0,226.4
Iaçu,51280000,Iaçu,Iaçu - 51280000,-12.7622,-40.2136,Chapada Diamantina,RPGA do Rio Paraguaçu,0.0,8.0,3.6,33.4,3.4,10.4,0.2,0.0,0.0,0.0,0.0,0.0,0.6,0.0,0.0,1.8,0.8,0.0,0.0,0.0,0.0,0.0,0.0,0.0,0.0,0.0,0.0,0.0,0.0,0.0,0.0,62.2
Lençóis,A425,Lençóis,Lençóis - A425,-12.557854,-41.388808,Chapada Diamantina,RPGA do Rio Paraguaçu,0.8,4.0,7.2,75.4,23.0,24.8,0.2,0.0,11.4,12.0,26.4,0.0,0.0,0.0,0.0,3.6,0.6,0.0,0.0,0.0,0.0,0.0,0.0,0.0,0.0,0.0,0.0,0.0,0.0,0.0,0.0,189.4
Itaetê,,Itaetê,Itaetê,-12.991944,-40.960833,Chapada Diamantina,RPGA do Rio Paraguaçu,0.0,5.4,20.2,33.8,7.0,52.4,0.0,0.0,0.8,4.6,17.2,0.0,0.0,0.0,0.0,0.4,6.4,0.0,0.0,0.0,0.0,0.0,0.0,0.0,0.0,0.0,0.0,0.0,0.0,0.0,0.0,148.21
Mulungu do Morro,,Mulungu do Morro,Mulungu do Morro,-11.980363,-41.619012,Chapada Diamantina,RPGA do Rio Paraguaçu,3.2,6.2,18.2,63.8,8.8,41.2,0.2,0.2,6.0,0.2,0.8,0.0,2.8,2.2,0.0,0.8,0.0,0.0,0.0,0.0,0.0,0.0,0.0,0.0,0.2,0.0,0.0,0.0,0.0,0.0,0.0,154.8
Rio do Pires,PM-CL-04,Rio do Pires,Rio do Pires - PM-CL-04,-13.11695,-42.28411,Chapada Diamantina,RPGA dos Rios Paramirim e Santo Onofre,0.0,30.6,5.8,10.2,5.8,4.4,0.0,2.2,3.2,4.4,0.0,0.0,0.0,0.0,0.0,0.0,0.0,0.0,0.0,0.0,0.0,0.0,3.2,0.0,0.0,0.0,1.4,0.0,0.0,0.4,0.0,71.61
Seabra,PG-CL-09,Seabra,Seabra - PG-CL-09,-12.39971,-41.78893,Chapada Diamantina,RPGA do Rio Paraguaçu,5.2,2.4,12.4,50.6,20.8,18.6,0.4,0.0,2.6,11.2,4.6,0.2,0.0,0.2,0.0,1.0,0.0,0.0,0.0,0.0,0.0,0.0,0.0,0.0,0.0,0.0,0.0,0.0,0.0,0.0,0.0,130.2
Canarana,,Canarana,Canarana,-11.69541,-41.78921,Chapada Diamantina,RPGA dos Rios Verde e Jacaré,13.6,10.8,36.6,66.0,19.0,55.4,2.6,0.0,40.8,0.2,0.0,0.0,0.0,0.2,0.0,0.0,0.0,0.0,0.0,0.0,0.0,0.0,0.0,0.0,0.0,0.0,0.0,0.0,0.0,0.0,0.0,245.2
Iaçu,PG-CL-05,Iaçu,Iaçu - PG-CL-05,-12.9114,-40.03177,Chapada Diamantina,RPGA do Rio Paraguaçu,1.4,10.0,0.2,51.2,0.0,16.4,0.0,0.0,0.0,0.4,1.2,0.0,0.2,0.0,0.0,1.8,0.6,0.0,0.0,0.0,0.0,0.0,0.0,0.0,0.0,0.0,0.0,0.0,0.0,0.0,0.0,83.4
Barra dos Mendes,,Barra dos Mendes,Barra dos Mendes,-11.805077,-42.05708,Chapada Diamantina,RPGA dos Rios Verde e Jacaré,0.0,9.0,49.8,39.0,51.6,72.6,5.0,0.6,17.2,7.2,0.4,0.0,0.0,0.0,0.0,0.0,0.0,0.0,0.0,0.0,0.0,0.0,0.0,0.0,0.0,0.0,0.0,0.6,0.2,0.0,0.0,253.2
Olho D'Água do Francisco,,Olho D'Água do Francisco,Olho D'Água do Francisco,-12.307034,-42.079028,Chapada Diamantina,RPGA dos Rios Verde e Jacaré,0.0,4.0,42.2,77.8,14.4,14.2,0.6,0.0,24.0,3.6,0.0,0.0,0.0,0.0,0.0,0.8,0.2,0.0,0.0,0.0,0.0,0.0,0.0,2.8,0.0,0.0,0.0,0.0,0.0,0.0,0.0,184.6
Cafarnaum,,Cafarnaum,Cafarnaum,-11.676688,-41.470143,Chapada Diamantina,RPGA dos Rios Verde e Jacaré,46.4,2.0,30.0,29.0,0.8,54.8,0.2,2.0,5.6,0.0,0.0,0.6,0.2,0.2,0.0,0.0,0.0,0.0,0.0,0.0,0.0,0.0,0.0,0.0,0.0,0.0,0.0,0.0,0.0,0.0,0.0,171.8
Ibiaporã,PG-CL-01,Mundo Novo,Mundo Novo (Ibiaporã) - PG-CL-01,-12.05379,-40.83722,Chapada Diamantina,RPGA do Rio Paraguaçu,0.0,22.2,33.6,41.2,33.6,13.2,0.0,0.0,0.0,4.4,11.6,2.0,4.8,0.6,0.0,0.0,0.8,0.0,0.0,0.0,0.0,0.0,0.0,0.0,0.0,0.0,0.0,0.0,0.0,0.0,0.0,168.0
Marcionílio Souza,PG-CL-03,Marcionílio Souza,Marcionílio Souza - PG-CL-03,-13.00021,-40.537783,Chapada Diamantina,RPGA do Rio Paraguaçu,0.0,15.6,2.6,25.2,5.8,28.8,0.0,0.0,1.0,3.2,7.8,0.2,0.0,0.0,0.0,3.0,5.0,0.0,0.0,0.0,0.0,0.0,0.0,0.0,0.0,0.0,0.0,0.0,0.0,0.0,0.0,98.2
Piatã,CO-CL-04,Piatã,Piatã - CO-CL-04,-13.164166,-41.770833,Chapada Diamantina,RPGA do Rio de Contas,15.45,12.5,30.5,23.1,23.4,9.4,2.6,4.0,12.5,10.25,4.1,0.8,0.1,0.0,0.0,0.0,1.75,0.1,0.1,0.0,0.0,0.0,0.0,34.5,0.0,7.75,0.0,1.25,0.0,2.75,0.0,196.9
Souto Soares,PG-CL-04,Souto Soares,Souto Soares - PG-CL-04,-12.08538,-41.64815,Chapada Diamantina,RPGA do Rio Paraguaçu,0.0,5.6,31.6,67.0,3.2,28.0,0.0,3.6,5.8,0.4,6.4,0.0,0.6,1.2,0.0,0.2,0.0,0.0,0.0,0.0,0.0,0.0,0.0,0.0,0.2,0.0,0.0,0.0,0.0,0.0,0.0,153.8
PC Ponte Rio Capivari,51326200,Itaberaba,Itaberaba (PC Ponte Rio Capivari) - 51326200,-12.51429,-39.93422,Chapada Diamantina,RPGA do Rio Paraguaçu,0.0,0.8,0.0,17.0,0.2,2.2,0.0,0.0,0.0,0.6,1.0,0.2,3.0,0.0,0.0,3.8,0.2,0.0,0.0,0.0,0.0,0.0,0.0,0.0,0.0,0.0,0.0,0.0,0.0,0.0,0.0,29.0
Itaberaba,291470301C,Itaberaba,Itaberaba - 291470301C,-12.457663,-40.201519,Chapada Diamantina,RPGA do Rio Paraguaçu,0.0,1.6,4.6,77.6,0.8,12.6,0.0,0.0,0.0,1.6,0.2,0.0,2.4,0.0,0.0,0.2,7.8,0.0,0.0,0.0,0.0,0.0,0.0,0.0,0.0,0.0,0.0,0.0,0.0,0.0,0.0,109.4
Ibicoara,291220201C,Ibicoara,Ibicoara - 291220201C,-13.446389,-41.297933,Chapada Diamantina,RPGA do Rio de Contas,0.0,11.6,28.4,36.4,0.4,38.2,45.2,0.0,14.0,32.0,0.8,1.4,0.0,0.2,0.0,0.2,6.0,0.0,0.0,0.0,0.0,0.0,0.0,0.0,0.0,0.0,0.0,0.0,0.0,0.0,0.0,214.8
Curaçá,A448,Curaçá,Curaçá - A448,-9.0013,-39.9124,Nordeste,RPGA dos Rios Macururé e Curaçá,0.0,1.2,0.4,0.0,89.6,8.4,0.2,0.6,6.8,2.6,4.0,0.0,0.0,2.0,0.0,0.0,0.0,5.2,0.0,0.0,0.0,0.0,0.0,0.0,0.0,0.0,0.2,0.0,0.0,0.0,0.2,121.4
Rodelas,292710101C,Rodelas,Rodelas - 292710101C,-8.85236,-38.76462,Nordeste,RPGA dos Rios Macururé e Curaçá,0.0,50.6,0.2,2.8,5.0,28.2,0.0,0.0,9.4,0.0,0.0,0.0,0.0,0.0,0.0,0.0,0.0,0.2,0.0,0.0,0.0,0.0,0.0,0.0,0.0,0.0,0.0,0.0,0.0,0.0,0.0,96.4
Nova Fátima,292273001C,Nova Fátima,Nova Fátima - 292273001C,-11.696805,-39.656722,Nordeste,RPGA do Rio Paraguaçu,0.0,14.2,0.0,36.2,3.4,18.2,0.0,0.0,2.4,12.4,3.0,0.0,1.0,1.0,0.0,0.0,0.0,0.0,0.0,0.0,0.0,0.0,0.0,0.0,0.0,0.0,0.0,0.0,0.0,0.0,0.0,91.81
Cipó,83192,Cipó,Cipó - 83192,-11.083333,-38.516667,Nordeste,RPGA do Rio Itapicuru,0.0,0.0,9.7,4.6,5.6,0.0,0.0,0.0,0.8,4.1,0.0,0.0,0.0,0.0,0.0,0.0,0.0,0.0,0.0,0.0,0.0,0.0,0.0,0.0,0.0,4.3,0.0,0.0,0.0,0.0,0.0,29.1
Jacobina,83186,Jacobina,Jacobina - 83186,-11.172778,-40.534167,Nordeste,RPGA do Rio Itapicuru,0.0,9.1,11.0,10.2,0.8,20.4,0.0,0.0,67.8,26.8,16.4,0.0,0.0,0.0,0.0,0.2,0.0,0.0,0.0,0.0,0.0,0.0,0.0,0.0,0.0,0.0,0.0,0.0,0.0,0.0,0.0,162.7
Ladeira Vermelha,291750801A,Jacobina,Jacobina (Ladeira Vermelha) - 291750801A,-11.161707,-40.554213,Nordeste,RPGA do Rio Itapicuru,0.0,12.0,20.0,10.0,0.8,13.8,0.0,0.0,18.2,32.6,6.8,0.0,0.0,0.0,0.0,0.2,0.0,0.0,0.0,0.0,0.0,0.0,0.0,0.0,0.0,0.0,0.0,0.0,0.0,0.0,0.0,114.4
Monte Santo,83090,Monte Santo,Monte Santo - 83090,-10.4425,-39.331111,Nordeste,RPGA do Rio Itapicuru,0.0,27.9,0.0,38.3,1.1,12.5,0.5,0.0,8.7,0.0,2.0,0.0,1.0,0.0,0.0,0.0,0.0,0.8,0.0,0.0,0.0,0.0,0.0,0.0,0.0,0.0,0.0,0.0,0.0,0.0,0.0,92.8
Feliz Tomaz,291750802A,Jacobina,Jacobina (Feliz Tomaz) - 291750802A,-11.174316,-40.517837,Nordeste,RPGA do Rio Itapicuru,0.0,11.2,7.2,11.0,1.0,25.4,0.2,0.0,82.2,22.2,20.6,0.2,0.0,0.0,0.0,0.6,0.2,0.0,0.0,0.0,0.0,0.0,0.0,0.0,0.0,0.0,0.0,0.0,0.0,0.0,0.0,182.0
Serrinha,83190,Serrinha,Serrinha - 83190,-11.633333,-38.966667,Nordeste,RPGA do Recôncavo Norte,0.0,15.1,20.4,34.8,0.0,1.9,0.0,0.0,0.0,0.8,1.5,0.0,2.6,0.0,0.0,0.0,0.0,0.0,0.0,0.0,0.0,0.0,0.0,0.0,0.0,0.0,0.0,0.0,0.0,0.0,23.2,100.3
Conde,A431,Conde,Conde - A431,-12.03622,-37.68322,Nordeste,RPGA do Rio Itapicuru,0.0,0.0,1.2,0.8,4.2,0.0,0.0,0.0,0.0,0.0,5.8,3.4,0.0,0.0,0.0,0.0,0.0,1.2,0.0,0.0,0.0,0.0,0.0,0.0,0.0,0.0,0.0,0.0,0.0,0.0,0.0,16.6
Uauá,A435,Uauá,Uauá - A435,-9.833617,-39.495631,Nordeste,RPGA do Rio Vaza-Barris,0.0,5.0,0.0,5.8,28.8,13.6,0.0,0.0,8.4,0.8,19.6,0.0,0.0,0.0,0.0,0.0,0.0,0.4,0.0,0.0,0.0,0.0,0.0,0.0,0.0,0.0,0.0,0.0,0.0,0.0,0.0,82.4
Euclides da Cunha,A442,Euclides da Cunha,Euclides da Cunha - A442,-10.537233,-38.996605,Nordeste,RPGA do Rio Itapicuru,0.0,8.0,0.2,4.8,8.6,14.4,5.6,0.0,0.4,0.8,2.4,0.0,7.4,0.2,0.0,0.0,0.0,0.8,0.0,0.0,0.0,0.0,0.0,0.0,0.0,0.0,0.0,0.0,0.0,0.0,0.0,53.6
Queimadas,A436,Queimadas,Queimadas - A436,-10.984645,-39.617009,Nordeste,RPGA do Rio Itapicuru,0.0,23.0,0.2,11.6,17.6,47.6,0.0,0.0,2.0,0.6,3.0,0.0,0.0,0.0,0.0,0.0,0.0,0.0,2.4,0.0,0.0,0.0,0.0,0.0,0.0,0.0,0.0,0.0,0.0,0.0,0.0,108.0
Jacobina,A440,Jacobina,Jacobina - A440,-11.205136,-40.464979,Nordeste,RPGA do Rio Itapicuru,0.0,2.0,0.8,22.2,2.8,49.8,0.6,0.0,40.6,16.0,22.8,0.0,0.0,0.0,0.0,0.6,0.0,0.0,0.0,0.0,0.0,0.0,0.0,0.0,0.0,0.0,0.0,0.0,0.0,0.0,0.0,158.2
Serrinha,A441,Serrinha,Serrinha - A441,-11.664586,-39.022946,Nordeste,RPGA do Rio Paraguaçu,0.0,20.0,18.4,38.6,0.0,2.0,0.0,0.0,0.0,1.4,2.4,0.0,2.2,0.0,0.0,0.0,0.0,0.0,0.0,0.0,0.0,0.0,0.0,0.0,0.0,0.0,0.0,0.0,0.0,0.0,0.0,85.01
Coronel João Sá,290920801C,Coronel João Sá,Coronel João Sá - 290920801C,-10.31827,-37.94009,Nordeste,RPGA do Rio Vaza-Barris,0.0,0.0,34.2,0.0,0.8,16.8,0.0,0.0,24.8,0.0,0.0,0.0,0.0,0.0,0.0,0.0,0.0,7.0,0.0,0.0,0.0,0.0,0.0,0.0,0.0,0.0,0.0,0.0,0.0,0.0,0.0,83.6
Senhor do Bonfim,A428,Senhor do Bonfim,Senhor do Bonfim - A428,-10.443072,-40.148244,Nordeste,RPGA do Rio Itapicuru,0.0,2.8,2.8,11.2,15.2,3.2,0.2,0.0,32.2,8.8,10.6,0.2,0.8,0.2,0.0,0.0,0.0,0.6,0.0,0.0,0.0,0.0,0.0,0.0,0.0,0.0,0.0,0.0,0.0,0.0,0.0,88.8
Pedras Altas,50430000,Capim Grosso,Capim Grosso (Pedras Altas) - 50430000,-11.18288,-40.04725,Nordeste,RPGA do Rio Itapicuru,0.0,39.6,0.6,17.2,26.6,8.6,0.2,0.0,0.0,40.4,4.0,0.0,0.0,0.0,0.0,0.0,0.0,0.0,0.0,0.0,0.0,0.0,0.0,0.0,0.0,0.0,0.0,0.0,0.0,0.0,0.0,137.2
Ponto Novo,50380000,Ponto Novo,Ponto Novo - 50380000,-10.845,-40.1128,Nordeste,RPGA do Rio Itapicuru,0.0,29.8,0.6,21.8,11.0,6.8,0.0,0.0,73.0,47.0,9.6,0.2,0.0,0.0,0.0,0.0,0.0,0.0,0.0,0.0,0.0,0.0,0.0,0.0,0.0,0.0,0.0,0.0,0.0,0.0,0.0,199.8
Capim Grosso,IT-CL-03,Capim Grosso,Capim Grosso - IT-CL-03,-11.36833,-40.03417,Nordeste,RPGA do Rio Itapicuru,0.0,15.6,0.0,22.2,3.0,8.2,0.0,0.0,1.8,18.8,10.2,0.0,0.0,0.0,0.0,0.0,0.0,0.0,0.0,0.0,0.0,0.0,0.0,0.0,0.0,0.0,0.0,0.0,0.0,0.0,0.0,79.8
Aporá,IT-CL-01,Aporá,Aporá - IT-CL-01,-11.67082,-38.17485,Nordeste,RPGA do Rio Itapicuru,0.0,0.0,0.0,0.0,0.0,0.0,0.0,0.0,0.0,0.0,0.0,0.0,0.0,0.0,0.0,0.0,0.0,0.0,0.0,0.0,0.0,0.0,0.0,0.0,0.0,0.0,0.0,0.0,0.0,0.0,0.0,0.0
Pé de Serra,PG-CL-07,Pé de Serra,Pé de Serra - PG-CL-07,-11.83676,-39.65905,Nordeste,RPGA do Rio Paraguaçu,0.0,19.4,0.0,50.2,0.0,31.8,0.0,0.0,0.0,20.2,27.2,0.2,0.4,0.0,0.0,0.0,0.0,0.0,0.0,0.0,0.0,0.0,0.0,0.0,0.0,0.0,0.0,0.0,0.0,0.0,0.0,149.4
Caldas do Jorro,IT-CL-05,Tucano,Tucano (Caldas do Jorro) - IT-CL-05,-11.03477,-38.80386,Nordeste,RPGA do Rio Itapicuru,0.0,0.0,7.8,6.6,0.6,1.2,0.0,0.0,0.8,1.4,0.0,0.0,0.4,0.0,0.0,0.0,0.0,0.0,0.0,0.0,0.0,0.0,0.0,0.0,0.0,0.0,0.0,0.0,0.0,0.0,0.0,18.8
Saúde,IT-CL-04,Saúde,Saúde - IT-CL-04,-10.95669,-40.38329,Nordeste,RPGA do Rio Itapicuru,0.0,0.4,3.2,23.0,1.2,28.6,0.0,0.0,16.2,57.8,2.0,0.0,0.0,0.0,0.0,0.0,0.0,0.0,0.0,0.0,0.0,0.0,0.0,0.0,0.6,0.0,0.0,0.0,0.0,0.0,0.0,133.0
Lajinha,IT-CL-06,Várzea do Poço,Várzea do Poço (Lajinha) - IT-CL-06,-11.4964,-40.34474,Nordeste,RPGA do Rio Itapicuru,0.0,2.4,0.4,9.0,0.4,41.2,0.0,0.0,0.2,37.2,24.6,0.0,0.0,0.0,0.0,0.0,0.0,0.0,0.0,0.0,0.0,0.0,0.0,0.0,0.0,0.0,0.0,0.0,0.0,0.0,0.0,115.4
Ipirá,PG-CL-02,Ipirá,Ipirá - PG-CL-02,-12.14986,-39.76454,Nordeste,RPGA do Rio Paraguaçu,0.0,26.8,0.0,23.0,3.4,25.2,0.0,0.0,0.0,8.6,7.6,0.0,0.2,0.0,0.0,0.0,0.0,0.0,0.0,0.0,0.0,0.0,0.0,0.0,0.0,0.0,0.0,0.0,0.0,0.0,0.0,94.8
Cipó,IT-FR-24,Cipó,Cipó - IT-FR-24,-11.0975,-38.5125,Nordeste,RPGA do Rio Itapicuru,0.0,0.0,20.0,4.0,4.6,0.2,0.0,0.0,0.8,3.8,0.0,0.0,0.0,0.0,0.0,0.0,0.0,0.0,0.0,0.0,0.0,0.0,0.0,0.0,0.0,5.6,0.0,0.0,0.0,0.0,0.0,39.0
Centro,293010501A,Senhor do Bonfim,Senhor do Bonfim (Centro) - 293010501A,-10.464,-40.19,Nordeste,RPGA do Rio Itapicuru,0.0,0.0,9.44,6.16,6.11,1.0,0.0,0.0,47.56,8.87,1.58,0.0,0.0,0.0,0.0,0.0,0.0,0.2,0.0,0.0,0.0,0.0,0.0,0.0,0.0,0.0,0.0,0.0,0.0,0.0,0.0,80.93
Carrapichel,IT-PR-37,Senhor do Bonfim,Senhor do Bonfim (Carrapichel) - IT-PR-37,-10.388101,-40.220067,Nordeste,RPGA do Rio Itapicuru,0.0,1.2,14.0,7.0,7.0,2.8,0.0,0.0,60.8,3.8,3.4,0.0,0.8,0.0,0.0,0.0,0.0,0.8,0.2,0.0,0.0,0.0,0.0,0.0,0.2,0.0,0.0,0.0,0.0,0.0,0.0,102.0
Fazenda Boa Vista,IT-PR-18,Uauá,Uauá (Fazenda Boa Vista) - IT-PR-18,-10.05893,-39.706158,Nordeste,RPGA do Rio Itapicuru,0.0,0.2,0.0,34.2,0.2,10.6,1.0,0.0,29.2,2.6,0.6,0.0,0.0,0.0,0.0,0.0,0.0,0.4,0.0,0.0,0.0,0.0,0.0,0.0,0.0,0.0,0.0,0.0,0.0,0.0,0.0,79.0
Ambrósio,IT-PR-19,Cansanção,Cansanção (Ambrósio) - IT-PR-19,-10.986458,-39.237813,Nordeste,RPGA do Rio Itapicuru,0.0,24.6,0.2,27.2,12.0,2.0,2.4,0.0,0.2,3.4,10.6,0.2,0.0,0.0,0.0,0.0,0.0,0.0,3.6,0.0,0.0,0.0,0.0,0.0,0.0,0.0,0.0,0.0,0.0,0.0,0.0,86.4
Cansanção,IT-PR-20,Cansanção,Cansanção - IT-PR-20,-10.702836,-39.543932,Nordeste,RPGA do Rio Itapicuru,0.0,30.0,0.0,53.4,0.2,61.4,0.2,0.0,1.2,9.0,15.0,0.0,0.0,0.0,0.0,0.0,0.0,0.0,0.0,0.0,0.0,0.0,0.0,0.0,0.0,0.0,0.0,0.0,0.0,0.0,0.0,170.4
BR 116 E. Cunha / Tucano,IT-PR-05,Quijingue,Quijingue (BR 116 E. Cunha / Tucano) - IT-PR-05,-10.7105,-38.9227,Nordeste,RPGA do Rio Itapicuru,0.0,4.8,6.8,16.4,6.4,17.2,6.8,0.0,6.6,7.8,7.0,0.0,0.0,0.0,0.0,0.0,0.0,0.8,0.0,0.0,0.0,0.0,0.0,0.0,0.0,0.0,0.0,0.0,0.0,0.0,0.0,80.6
Fazenda Santo Antônio,IT-PR-06,Euclides da Cunha,Euclides da Cunha (Fazenda Santo Antônio) - IT-PR-06,-10.405331,-39.045582,Nordeste,RPGA do Rio Itapicuru,0.0,15.4,4.8,17.6,15.6,15.4,5.4,0.0,5.6,0.0,6.0,0.0,4.0,0.0,0.0,0.0,0.0,0.4,0.0,0.0,0.0,0.0,0.0,0.0,0.0,0.0,0.0,0.0,0.0,0.0,0.0,90.2
Jeremoabo,A450,Jeremoabo,Jeremoabo - A450,-10.0807,-38.3459,Nordeste,RPGA do Rio Vaza-Barris,0.0,0.0,45.4,3.0,0.8,12.2,1.8,0.0,8.2,1.8,0.0,0.0,0.4,0.4,0.0,0.0,0.0,0.2,0.0,0.0,0.0,0.0,0.0,0.0,0.0,0.0,0.0,0.0,0.0,0.0,0.0,74.2
Capela do Alto Alegre,290685701C,Capela do Alto Alegre,Capela do Alto Alegre - 290685701C,-11.64746,-39.7681,Nordeste,RPGA do Rio Paraguaçu,0.4,0.4,0.4,0.4,0.2,0.2,0.2,0.0,0.2,0.0,0.0,0.2,0.0,0.2,0.0,0.0,0.0,0.0,0.0,0.0,0.0,0.0,0.0,0.0,0.0,0.0,0.0,0.0,0.0,0.0,0.0,2.81
Itaberaba,291840701A,Juazeiro,Juazeiro (Itaberaba) - 291840701A,-9.44837,-40.48517,Norte,RPGA dos Rios Macururé e Curaçá,10.0,0.2,17.6,7.6,7.6,0.2,0.6,0.0,1.6,1.4,0.0,0.0,0.0,0.0,0.0,0.0,0.0,0.0,0.0,0.0,0.0,0.0,0.0,0.0,0.0,0.0,0.0,0.0,0.0,0.0,0.0,46.81
Maria Gorete,291840703A,Juazeiro,Juazeiro (Maria Gorete) - 291840703A,-9.42014,-40.49909,Norte,RPGA dos Rios Macururé e Curaçá,0.0,2.2,24.2,12.6,1.6,0.0,0.0,0.0,1.6,1.0,0.0,0.0,0.0,0.0,0.0,0.0,0.0,0.0,0.0,0.0,0.0,0.0,0.0,0.0,0.0,0.0,0.0,0.0,0.0,0.0,0.0,43.2
João Paulo II,291840704A,Juazeiro,Juazeiro (João Paulo II) - 291840704A,-9.47067,-40.49805,Norte,RPGA dos Rios Macururé e Curaçá,9.6,0.4,8.2,12.2,2.2,0.0,0.2,0.0,1.4,2.0,1.0,0.0,0.0,0.0,0.0,0.0,0.0,0.0,0.0,0.0,0.0,0.0,0.0,0.0,0.0,0.0,0.0,0.0,0.0,0.0,0.0,37.2
Lapão,291915701A,Lapão,Lapão - 291915701A,-11.38,-41.83,Norte,RPGA dos Rios Verde e Jacaré,6.2,4.8,12.8,86.2,16.4,26.8,3.8,0.0,26.8,0.0,0.0,0.0,0.0,0.0,0.0,0.0,0.0,0.0,0.0,0.0,0.0,0.0,0.0,0.4,0.0,0.0,0.0,0.0,0.0,0.0,0.8,185.01
Centro,290115501A,América Dourada,América Dourada (Centro) - 290115501A,-11.45011,-41.434004,Norte,RPGA dos Rios Verde e Jacaré,0.0,1.4,1.6,72.6,11.6,74.0,0.4,0.0,46.2,0.6,0.0,0.0,0.0,0.0,0.0,0.0,0.0,0.0,0.0,0.0,0.0,0.0,0.0,0.0,2.6,0.0,0.0,0.0,0.0,0.0,0.0,211.0
Irecê,83182,Irecê,Irecê - 83182,-11.3,-41.866667,Norte,RPGA dos Rios Verde e Jacaré,5.2,1.6,9.5,84.4,26.2,19.0,2.6,0.0,19.2,2.0,5.7,0.0,0.0,0.0,0.0,0.0,0.0,0.0,0.0,0.0,0.0,0.0,0.0,0.0,0.0,0.0,0.0,0.0,0.0,0.0,23.2,198.6
Delfino,A443,Umburanas,Umburanas (Delfino) - A443,-10.45492,-41.206996,Norte,RPGA do Rio Salitre,17.8,15.2,10.2,44.6,20.8,21.4,0.0,0.2,51.8,11.2,0.6,0.0,0.0,0.0,0.0,0.0,0.0,0.0,0.0,0.0,0.0,0.0,0.0,0.0,0.0,0.0,0.0,0.0,0.0,0.0,0.0,193.8
Remanso,A423,Remanso,Remanso - A423,-9.625693,-42.077214,Norte,RPGA do Lago de Sobradinho,12.4,1.2,20.2,20.2,16.4,18.8,2.6,6.8,34.8,10.4,0.0,0.0,0.0,0.0,0.0,0.0,0.0,0.0,0.0,0.0,0.0,0.0,0.0,0.0,1.8,0.0,0.0,0.0,0.0,0.0,0.0,145.6
Irecê,A424,Irecê,Irecê - A424,-11.328998,-41.864504,Norte,RPGA dos Rios Verde e Jacaré,3.2,8.4,12.2,60.0,15.0,15.0,2.8,0.0,16.0,0.2,1.2,0.0,0.0,0.0,0.0,0.0,0.0,0.0,0.0,0.0,0.0,0.0,0.0,0.0,0.0,0.0,0.0,0.0,0.0,0.0,2.8,136.8
Várzea Grande,VJ-PR-04,Itaguaçu da Bahia,Itaguaçu da Bahia (Várzea Grande) - VJ-PR-04,-10.908939,-42.516536,Norte,RPGA dos Rios Verde e Jacaré,0.0,0.0,0.0,0.0,0.0,0.0,0.0,0.0,0.0,0.0,0.0,0.0,0.0,0.0,0.0,0.0,0.0,0.0,0.0,0.0,0.0,0.0,0.0,0.0,0.0,0.0,0.0,0.0,0.0,0.0,0.0,0.0
Várzea Nova,SA-CL-02,Várzea Nova,Várzea Nova - SA-CL-02,-11.23996,-40.935618,Norte,RPGA do Rio Salitre,0.0,6.8,3.6,16.8,8.0,16.0,0.0,0.0,0.0,4.6,4.0,0.0,0.0,0.0,0.0,0.0,0.0,0.0,0.0,0.0,0.0,0.0,0.0,0.0,0.0,0.0,0.0,0.0,0.0,0.0,0.0,59.81
Ibitibá,,Ibitibá,Ibitibá,-11.551736,-41.968187,Norte,RPGA dos Rios Verde e Jacaré,6.0,7.8,45.4,75.8,59.2,36.6,3.6,2.8,27.6,0.0,0.2,0.0,0.0,0.0,0.0,0.0,0.0,0.0,0.0,0.0,0.0,0.0,0.0,0.0,0.0,0.0,0.0,0.0,0.0,0.0,0.0,265.0
CODEVASF Salitre,MC-CL-01,Juazeiro,Juazeiro (CODEVASF Salitre) - MC-CL-01,-9.48778,-40.61333,Norte,RPGA dos Rios Macururé e Curaçá,0.1,1.6,2.2,30.9,4.6,12.9,0.8,0.1,0.6,0.4,3.3,0.4,0.2,0.2,0.3,0.0,1.2,7.3,0.0,0.0,0.0,0.0,0.0,13.0,0.0,0.0,0.0,0.0,0.0,0.0,0.0,80.1
Jussara,Arrecife,Jussara,Jussara - Arrecife,-11.065335,-41.974853,Norte,RPGA dos Rios Verde e Jacaré,15.4,27.2,3.8,47.6,46.8,19.2,1.2,0.0,26.4,36.2,0.0,0.0,0.0,0.0,0.0,0.0,0.0,0.0,0.0,0.0,0.0,0.0,0.0,0.0,0.0,0.0,0.0,0.0,0.0,0.0,0.0,223.8
Campo Formoso,IT-CL-02,Campo Formoso,Campo Formoso - IT-CL-02,-10.47062,-40.33412,Norte,RPGA do Rio Itapicuru,0.0,5.6,42.2,30.2,0.2,12.2,0.2,0.2,103.4,5.2,1.6,0.0,0.0,0.0,0.0,0.0,0.0,0.6,0.4,0.0,0.0,0.0,0.0,0.0,0.0,0.0,0.0,0.0,0.0,0.0,0.4,202.4
Sento Sé,SO-CL-01,Sento Sé,Sento Sé - SO-CL-01,-9.78228,-41.81872,Norte,RPGA do Lago de Sobradinho,21.4,0.0,2.2,18.0,34.6,28.4,0.0,0.0,8.4,18.8,0.0,0.0,0.0,0.0,0.0,0.0,0.0,0.0,0.0,0.0,0.0,0.0,0.0,0.0,0.0,0.0,0.0,0.0,0.0,0.0,0.0,131.8
Itaguaçu da Bahia,VJ-CL-03,Itaguaçu da Bahia,Itaguaçu da Bahia - VJ-CL-03,-10.9549,-42.3465,Norte,RPGA dos Rios Verde e Jacaré,0.0,0.0,0.0,0.0,0.0,0.0,0.0,0.0,0.0,0.0,0.0,0.0,0.0,0.0,0.0,0.0,0.0,0.0,0.0,0.0,0.0,0.0,0.0,0.0,0.0,0.0,0.0,0.0,0.0,0.0,0.0,0.0
Ibipeba,VJ-CL-02,Ibipeba,Ibipeba - VJ-CL-02,-11.62667,-42.06444,Norte,RPGA dos Rios Verde e Jacaré,5.2,20.2,55.6,72.0,27.4,44.2,3.2,0.0,25.8,0.0,4.2,0.0,0.0,0.0,0.0,0.0,0.0,0.0,0.0,0.0,0.0,0.0,0.0,0.0,0.0,0.0,0.0,0.0,0.0,0.0,0.0,257.8
Uibai,,Uibai,Uibai,-11.294784,-42.14208,Norte,RPGA dos Rios Verde e Jacaré,0.0,0.2,17.6,35.2,17.2,45.8,2.0,0.4,1.0,16.8,8.6,0.0,0.0,0.0,0.0,0.0,0.0,0.0,0.0,0.0,0.0,0.0,0.0,0.0,0.0,0.0,0.0,0.0,0.0,0.0,0.0,144.8
Irecê,VJ-CL-01,Irecê,Irecê - VJ-CL-01,-11.289166,-41.894166,Norte,RPGA dos Rios Verde e Jacaré,8.25,10.25,9.6,44.0,11.0,10.6,0.9,0.0,7.75,6.25,6.75,0.0,0.0,0.0,0.0,0.0,0.0,0.0,0.0,0.0,0.0,0.0,0.0,0.0,0.0,0.0,0.0,0.0,0.0,0.0,0.75,116.1
Olho D'Água,,Olho D'Água,Olho D'Água,-10.700331,-40.601468,Norte,RPGA do Rio Salitre,0.0,0.0,0.0,0.0,0.0,0.0,0.0,0.0,0.0,0.0,0.0,0.0,0.0,0.0,0.0,0.0,0.0,0.0,0.0,0.0,0.0,0.0,0.0,0.0,0.0,0.0,0.0,0.0,0.0,0.0,0.0,0.0
Taquarendi,,Taquarendi,Taquarendi,-10.893669,-40.687028,Norte,RPGA do Rio Salitre,0.0,12.4,2.6,25.8,1.2,17.8,0.2,0.0,4.4,17.4,3.8,0.2,0.0,0.0,0.0,0.0,0.0,0.0,0.0,0.0,0.0,0.0,0.0,0.0,0.0,0.0,0.0,0.0,0.0,0.0,0.0,85.81
Fazenda Vila Verde,,Fazenda Vila Verde,Fazenda Vila Verde,-12.032839,-46.054434,Oeste,RPGA do Rio Grande,1.0,14.2,0.4,1.0,21.8,34.4,4.2,0.6,0.0,22.6,6.4,0.2,0.0,0.0,0.0,0.0,1.0,0.0,0.0,0.0,0.0,0.0,0.0,1.2,0.0,3.2,10.0,11.8,0.0,0.0,0.0,134.01
Limoeiro,GR-PR-18,Barreiras,Barreiras (Limoeiro) - GR-PR-18,-12.293403,-45.544421,Oeste,RPGA do Rio Grande,0.2,17.4,0.2,10.0,17.6,14.6,5.4,0.2,22.8,13.6,0.0,0.0,0.0,0.0,0.0,0.0,0.0,0.0,0.0,0.0,0.0,0.0,0.0,2.0,0.0,13.4,18.2,3.0,8.0,0.0,0.0,146.6
Rosário,CT-PR-03,Correntina,Correntina (Rosário) - CT-PR-03,-13.940105,-46.188064,Oeste,"RPGA do Rio Corrente e Riachos do Ramalho, Serra Dourada e Brejo Velho",2.6,1.4,0.6,0.8,0.6,0.6,0.4,0.6,0.4,0.4,0.6,0.6,0.4,0.2,0.4,0.2,0.0,0.0,0.0,0.0,0.0,0.0,0.0,5.6,1.0,0.6,0.4,0.6,0.4,0.6,0.4,20.4
Ponte do Itaguari,CA-PR-02,Cocos,Cocos (Ponte do Itaguari) - CA-PR-02,-14.234011,-44.626902,Oeste,RPGA do Rio Carinhanha,0.0,63.8,7.4,2.2,9.2,6.6,0.2,0.0,94.8,14.8,1.4,0.0,0.0,0.0,0.0,0.0,0.0,0.0,0.0,0.0,0.0,0.0,0.0,2.4,0.6,0.0,9.4,11.6,8.0,12.8,0.4,245.61
Formosa do Rio Preto,A452,Formosa do Rio Preto,Formosa do Rio Preto - A452,-11.052163,-45.200769,Oeste,RPGA do Rio Grande,0.0,6.4,0.6,18.0,10.4,15.2,62.2,0.0,6.6,2.0,0.0,0.0,0.0,0.0,0.0,0.0,0.0,0.0,0.0,0.0,0.0,0.0,0.0,2.2,42.0,0.0,0.0,6.6,0.0,9.6,1.8,183.6
Nova Vida Montante,46590000,Barreiras,Barreiras (Nova Vida Montante) - 46590000,-11.867963,-45.084552,Oeste,RPGA do Rio Grande,0.0,35.6,1.6,44.6,10.2,28.2,3.4,2.6,24.2,1.2,0.0,0.0,0.0,0.0,0.0,0.0,0.0,0.0,0.0,0.0,0.0,0.0,0.0,3.2,9.4,0.0,0.4,9.6,0.0,0.2,4.8,179.2
Correntina,A416,Correntina,Correntina - A416,-13.332386,-44.617376,Oeste,"RPGA do Rio Corrente e Riachos do Ramalho, Serra Dourada e Brejo Velho",0.0,5.0,0.0,1.8,37.0,55.6,1.4,0.0,16.8,20.2,3.4,0.0,0.0,0.0,0.0,0.0,0.0,0.0,0.2,0.0,0.0,0.0,0.0,0.0,0.4,0.0,0.4,19.0,3.6,0.0,0.0,164.8
Correntina,83286,Correntina,Correntina - 83286,-13.332222,-44.617222,Oeste,"RPGA do Rio Corrente e Riachos do Ramalho, Serra Dourada e Brejo Velho",0.0,0.0,0.0,1.4,38.6,58.8,1.0,0.0,16.8,20.9,2.9,0.0,0.0,0.0,0.0,0.0,0.0,0.0,0.0,0.0,0.0,0.0,0.0,0.0,0.0,0.0,0.0,21.4,3.3,0.0,0.0,165.11
Derocal,46455000,São Desidério,São Desidério (Derocal) - 46455000,-12.412696,-45.121499,Oeste,RPGA do Rio Grande,0.0,53.8,6.8,45.8,14.8,80.4,20.6,0.0,21.4,8.6,0.2,0.0,0.0,0.0,0.0,0.0,0.0,0.0,0.0,0.0,0.0,0.0,0.0,0.0,14.4,0.0,0.0,3.0,21.4,2.4,1.2,294.8
Arrojado,45770000,Correntina,Correntina (Arrojado) - 45770000,-13.4528,-44.5689,Oeste,"RPGA do Rio Corrente e Riachos do Ramalho, Serra Dourada e Brejo Velho",0.0,20.0,2.6,9.4,32.8,36.6,0.2,0.0,38.0,27.2,4.0,0.2,0.0,0.0,0.0,0.0,0.2,0.0,0.0,0.0,0.0,0.0,0.0,0.0,0.0,0.0,1.6,4.8,7.0,0.2,0.0,184.8
Correntina,45590000,Correntina,Correntina - 45590000,-13.3406,-44.6386,Oeste,"RPGA do Rio Corrente e Riachos do Ramalho, Serra Dourada e Brejo Velho",0.0,11.6,0.2,0.8,27.0,64.0,0.8,0.0,25.4,19.6,2.2,0.2,0.0,0.0,0.0,0.0,0.0,0.0,0.0,0.0,0.0,0.0,0.0,0.0,0.0,0.0,0.0,7.4,7.6,0.0,0.0,166.8
Fazenda Santa Luzia,CA-CL-01,Cocos,Cocos (Fazenda Santa Luzia) - CA-CL-01,-14.85528,-45.93583,Oeste,RPGA do Rio Carinhanha,0.0,2.6,1.8,7.6,1.8,39.6,0.0,0.0,56.4,1.8,0.2,0.0,0.0,0.0,0.0,0.0,0.0,0.0,0.0,0.0,0.0,0.0,9.6,7.2,0.0,1.8,27.6,4.6,1.0,41.0,2.0,206.6
Fazenda Porta do Céu,CT-CL-02,Jaborandi,Jaborandi (Fazenda Porta do Céu) - CT-CL-02,-14.11621,-45.84417,Oeste,"RPGA do Rio Corrente e Riachos do Ramalho, Serra Dourada e Brejo Velho",0.0,2.0,4.4,3.2,0.0,0.0,0.0,0.0,0.0,0.0,0.0,0.0,0.0,0.0,0.0,0.0,0.0,0.0,0.0,0.0,0.0,0.0,0.0,2.2,0.0,0.2,3.4,1.6,0.0,0.2,0.0,17.2
Fazenda Morinaga,CT-CL-01,Correntina,Correntina (Fazenda Morinaga) - CT-CL-01,-13.75194,-45.87028,Oeste,"RPGA do Rio Corrente e Riachos do Ramalho, Serra Dourada e Brejo Velho",0.0,0.0,0.0,0.0,0.0,0.0,0.0,0.0,21.6,7.0,1.4,0.6,0.4,0.2,0.0,0.0,0.0,0.0,0.0,0.0,0.0,0.0,0.0,0.4,2.8,7.0,1.0,3.0,0.6,0.4,0.4,46.8
Fazenda Madras,GR-CL-04,Riachão das Neves,Riachão das Neves (Fazenda Madras) - GR-CL-04,-11.63028,-44.84556,Oeste,RPGA do Rio Grande,0.0,7.0,4.4,33.2,31.6,39.4,86.0,0.0,75.0,6.8,0.0,0.0,0.0,0.0,0.0,0.0,0.0,0.0,0.0,0.0,0.0,0.0,0.0,6.8,0.0,0.8,3.0,2.8,0.0,0.0,0.2,297.01
Fazenda Barcelona,GR-CL-03,Formosa do Rio Preto,Formosa do Rio Preto (Fazenda Barcelona) - GR-CL-03,-11.59139,-46.02194,Oeste,RPGA do Rio Grande,0.2,28.8,0.4,13.4,7.8,17.4,6.6,1.6,27.0,21.8,0.0,0.0,0.0,0.0,0.0,0.0,0.0,0.0,0.0,0.0,0.0,0.0,0.0,0.0,0.0,9.2,18.6,6.6,29.8,0.0,0.0,189.2
Mocambo,45740001,Correntina,Correntina (Mocambo) - 45740001,-13.28572,-44.56284,Oeste,"RPGA do Rio Corrente e Riachos do Ramalho, Serra Dourada e Brejo Velho",0.0,7.0,0.2,29.2,41.6,13.4,0.8,9.0,52.6,23.8,6.0,0.2,0.0,0.0,0.0,0.0,0.0,0.2,0.0,0.0,0.2,0.0,0.0,0.0,0.2,1.6,2.4,14.4,0.2,0.0,0.0,203.0
PCH Pres. Goulart-J,45600000,Correntina,Correntina (PCH Pres. Goulart-J) - 45600000,-13.3344,-44.6208,Oeste,"RPGA do Rio Corrente e Riachos do Ramalho, Serra Dourada e Brejo Velho",0.0,7.0,0.0,1.5,47.25,77.25,1.25,0.0,24.25,26.0,3.75,0.0,0.0,0.0,0.0,0.0,0.0,0.0,0.0,0.0,0.0,0.0,0.0,0.0,0.5,0.0,0.25,26.5,3.5,0.0,0.0,219.0
PCH Pres. Goulart-M1,45588000,Correntina,Correntina (PCH Pres. Goulart-M1) - 45588000,-13.3408,-44.6414,Oeste,"RPGA do Rio Corrente e Riachos do Ramalho, Serra Dourada e Brejo Velho",0.0,14.25,0.0,1.0,32.0,78.0,0.75,0.25,37.0,24.0,3.0,0.0,0.0,0.0,0.0,0.0,0.0,0.0,0.0,0.0,0.0,0.0,0.0,0.0,0.0,0.0,0.25,8.0,8.75,0.0,0.5,207.75
PCH Sítio Grande-J,46453500,São Desidério,São Desidério (PCH Sítio Grande-J) - 46453500,-12.4286,-45.1528,Oeste,RPGA do Rio Grande,0.25,20.5,5.5,24.25,37.0,110.25,12.75,0.0,11.25,12.75,0.5,0.0,0.0,0.0,0.0,0.0,0.0,0.0,0.0,0.0,0.0,0.0,0.0,0.0,10.75,0.5,1.0,1.75,57.0,2.25,0.25,308.5
Barreiras,A402,Barreiras,Barreiras - A402,-12.124715,-45.027049,Oeste,RPGA do Rio Grande,0.0,15.6,2.6,62.0,40.4,63.2,2.4,8.2,44.0,17.2,7.8,0.2,0.0,0.0,0.0,0.0,0.0,0.0,0.0,4.8,0.0,0.0,0.0,0.0,0.0,2.4,0.0,2.8,0.0,7.0,7.6,288.2
Luís Eduardo Magalhães,A404,Luís Eduardo Magalhães,Luís Eduardo Magalhães - A404,-12.152394,-45.829745,Oeste,RPGA do Rio Grande,3.4,46.0,1.2,10.8,8.6,39.4,80.8,2.6,6.6,15.4,7.4,0.0,0.0,0.0,0.0,0.0,1.0,0.2,0.0,0.0,0.0,0.0,0.0,5.0,0.0,19.2,1.2,4.4,30.0,0.0,1.4,284.6
São Desidério,R. Velha - GR-CL-01,São Desidério,São Desidério - R. Velha - GR-CL-01,-12.898055,-46.157222,Oeste,RPGA do Rio Grande,7.25,12.5,5.7,7.7,8.8,9.2,14.6,0.0,12.5,37.75,38.25,0.0,0.0,0.0,0.0,0.0,0.0,0.0,0.0,0.0,0.0,0.0,0.3,10.3,7.8,8.6,0.75,19.75,10.4,19.8,9.0,240.96
Fazenda Evandro,GR-PR-01,Formosa do Rio Preto,Formosa do Rio Preto (Fazenda Evandro) - GR-PR-01,-10.600581,-45.822752,Oeste,RPGA do Rio Grande,22.6,16.0,2.6,93.2,14.2,9.8,25.0,0.0,21.8,8.6,0.0,0.0,0.0,0.0,0.0,0.0,0.0,0.0,3.2,0.0,0.0,0.0,0.0,11.6,0.0,0.0,0.0,20.6,33.6,14.0,0.0,296.8
Fazenda Mingore,GR-PR-03,Formosa do Rio Preto,Formosa do Rio Preto (Fazenda Mingore) - GR-PR-03,-11.043367,-46.296104,Oeste,RPGA do Rio Grande,1.2,31.0,5.0,2.4,22.2,5.0,26.6,0.0,28.0,35.0,0.0,0.0,0.0,0.0,0.0,0.0,0.0,0.0,0.0,0.0,0.0,0.0,0.0,29.8,1.0,3.4,1.4,14.8,12.6,0.2,0.0,219.61
Garganta,GR-PR-04,Formosa do Rio Preto,Formosa do Rio Preto (Garganta) - GR-PR-04,-11.384764,-46.505001,Oeste,RPGA do Rio Grande,49.6,42.8,5.4,6.6,48.0,60.2,23.4,0.0,25.4,18.6,18.8,0.0,0.0,0.0,0.0,0.0,0.0,0.0,0.0,0.0,0.0,0.0,0.0,0.0,0.0,16.2,6.0,0.0,1.0,7.0,1.2,330.21
J. Zoológico,A401,Salvador,Salvador (J. Zoológico) - A401,-13.005515,-38.50576,Recôncavo,RPGA do Recôncavo Norte,0.0,7.6,8.4,7.4,0.0,0.0,0.0,0.0,79.0,6.0,3.2,0.2,4.0,0.8,0.4,1.4,0.0,0.0,0.0,0.0,0.0,0.0,0.0,0.0,23.8,0.0,0.0,0.0,0.0,0.0,0.0,142.21
Cruz das Almas,A406,Cruz das Almas,Cruz das Almas - A406,-12.675422,-39.08958,Recôncavo,RPGA do Rio Paraguaçu,0.0,19.4,19.8,37.4,1.4,14.8,0.4,0.0,4.6,2.8,2.8,0.8,11.4,0.0,0.4,0.4,1.0,0.0,0.0,0.2,0.0,0.0,0.2,0.0,0.6,0.0,0.0,0.0,0.0,0.0,0.0,118.4
Feira de Santana,A413,Feira de Santana,Feira de Santana - A413,-12.1962,-38.967384,Recôncavo,RPGA do Recôncavo Norte,0.0,12.6,36.2,45.8,0.0,9.4,0.0,0.0,1.2,0.0,3.0,2.8,3.8,0.0,0.0,0.0,0.0,0.0,0.0,0.0,0.0,0.0,0.0,0.0,0.2,0.0,0.0,0.0,0.0,0.0,0.0,115.0
Alagoinhas,83249,Alagoinhas,Alagoinhas - 83249,-12.148333,-38.425556,Recôncavo,RPGA do Recôncavo Norte,0.0,0.0,2.0,1.1,1.0,19.2,0.0,0.0,0.0,0.3,4.3,2.7,0.9,0.0,0.0,0.0,0.0,0.0,0.0,0.0,0.0,0.0,0.0,0.0,0.0,0.0,0.0,0.0,0.0,0.0,0.0,31.5
Polivalente,292860401A,Santo Amaro,Santo Amaro (Polivalente) - 292860401A,-12.552863,-38.712504,Recôncavo,RPGA do Recôncavo Norte,3.6,2.8,19.6,68.0,0.2,9.6,6.4,0.2,4.2,3.2,2.8,0.2,3.2,0.0,0.0,1.8,0.2,0.0,0.0,0.0,0.0,0.0,0.0,0.0,0.0,0.0,0.0,0.0,0.0,0.0,0.0,126.01
Povoado de Pedras,292860402A,Santo Amaro,Santo Amaro (Povoado de Pedras) - 292860402A,-12.549625,-38.770999,Recôncavo,RPGA do Recôncavo Norte,1.8,6.0,31.0,75.4,0.2,5.6,8.2,0.2,10.8,12.6,5.4,0.0,2.6,0.2,0.0,5.0,0.0,0.0,0.0,0.0,0.0,0.0,0.0,0.0,0.0,0.0,0.0,0.0,0.0,0.0,0.0,165.0
Camaçari,Tiririca,Camaçari,Camaçari - Tiririca,-12.51246,-38.06769,Recôncavo,RPGA do Recôncavo Norte,0.0,0.2,11.6,0.4,0.2,9.4,0.0,0.0,0.0,0.4,5.8,1.0,3.0,0.0,0.0,0.4,0.0,0.0,0.0,0.0,0.0,0.0,0.0,0.0,0.0,0.0,0.0,0.0,0.0,0.0,0.0,32.4
Estação Rádio Marinha,A456,Salvador,Salvador (Estação Rádio Marinha) - A456,-12.808222,-38.495944,Recôncavo,RPGA do Recôncavo Norte,0.0,0.2,22.6,52.2,0.2,0.2,0.0,0.0,5.0,6.0,4.6,5.8,6.8,0.0,0.0,3.6,0.4,0.0,0.0,0.0,0.0,0.0,0.0,0.0,0.0,0.4,0.0,0.0,0.0,0.0,0.0,108.0
Cruz das Almas,83222,Cruz das Almas,Cruz das Almas - 83222,-12.666667,-39.083333,Recôncavo,RPGA do Rio Paraguaçu,0.0,20.2,23.0,42.2,1.2,17.8,0.3,0.0,4.9,2.9,3.2,0.6,12.0,0.0,1.7,0.2,0.9,0.0,0.0,0.0,0.0,0.0,0.0,0.0,2.2,0.0,0.0,0.0,0.0,0.0,0.0,133.3
Cachoeira,290490201A,Cachoeira,Cachoeira - 290490201A,-12.607725,-38.960655,Recôncavo,RPGA do Rio Paraguaçu,0.0,13.8,31.4,35.2,1.0,3.6,47.4,0.0,4.4,0.8,12.4,0.8,2.4,0.0,0.0,6.8,0.0,0.0,0.0,0.0,0.0,0.0,0.0,0.0,0.0,0.0,0.0,0.0,0.0,0.0,0.0,160.01
Centro,291345701A,Igrapiúna,Igrapiúna (Centro) - 291345701A,-13.819025,-39.141885,Recôncavo,RPGA do Recôncavo Sul,1.0,2.2,0.0,13.6,1.2,1.4,0.0,0.0,0.0,0.2,8.8,2.6,0.2,3.8,0.6,21.0,0.2,0.6,0.2,0.0,0.0,0.0,0.0,0.0,0.0,0.0,0.0,0.0,0.0,0.0,0.0,57.61
São Félix,292900801A,São Félix,São Félix - 292900801A,-12.606591,-38.969939,Recôncavo,RPGA do Rio Paraguaçu,0.2,14.0,39.2,35.2,1.4,4.8,36.6,0.0,4.2,0.8,12.4,1.0,2.4,0.0,0.0,2.0,0.0,0.0,0.0,0.0,0.0,0.0,0.0,0.0,0.0,0.0,0.0,0.0,0.0,0.0,0.0,154.21
Góes Calmon,293070901A,Simões Filho,Simões Filho (Góes Calmon) - 293070901A,-12.780101,-38.353331,Recôncavo,RPGA do Recôncavo Norte,0.0,0.4,34.4,70.8,0.2,18.4,0.2,0.0,0.0,0.6,4.2,0.6,5.0,0.0,0.0,0.0,0.0,0.0,1.2,0.0,0.0,0.0,0.0,0.0,1.4,0.0,0.0,0.0,0.0,0.0,0.0,137.4
Centro,293070903A,Simões Filho,Simões Filho (Centro) - 293070903A,-12.788344,-38.396864,Recôncavo,RPGA do Recôncavo Norte,0.0,1.6,23.8,77.8,0.2,1.8,0.0,0.0,1.2,0.0,4.4,0.2,9.6,0.0,0.0,0.0,0.0,0.0,0.0,0.0,0.0,0.0,0.0,0.0,0.0,0.4,0.0,0.0,0.0,0.0,0.0,121.01
Amargosa,A434,Amargosa,Amargosa - A434,-13.009468,-39.616881,Recôncavo,RPGA do Recôncavo Sul,1.4,13.6,49.6,49.8,1.0,41.6,0.2,0.0,0.0,0.6,7.6,0.4,11.8,0.2,0.0,6.4,0.8,0.2,0.0,0.0,0.0,0.0,0.0,0.0,0.0,0.0,0.0,0.0,0.0,0.0,0.0,185.2
Valença,A444,Valença,Valença - A444,-13.34361,-39.12667,Recôncavo,RPGA do Recôncavo Sul,0.6,4.2,13.0,31.0,0.8,0.0,0.2,0.0,0.2,1.2,43.8,0.2,1.4,2.0,0.6,30.8,0.8,0.0,0.2,0.0,0.2,0.2,0.0,0.0,0.0,0.2,0.0,0.0,0.0,0.0,0.2,131.8
Ondina,83229,Salvador,Salvador (Ondina) - 83229,-13.005278,-38.505833,Recôncavo,RPGA do Recôncavo Norte,0.0,8.2,8.7,8.2,0.0,0.0,0.0,0.0,81.8,6.9,3.6,0.0,4.2,0.8,0.6,1.8,0.0,0.0,0.0,0.0,0.0,0.0,0.0,0.0,24.2,0.0,0.0,0.0,0.0,0.0,0.0,149.0
Maragogipe,PG-CL-06,Maragogipe,Maragogipe - PG-CL-06,-12.85164,-38.94467,Recôncavo,RPGA do Rio Paraguaçu,0.0,6.8,22.6,25.0,1.8,0.0,0.0,0.0,35.2,2.2,6.6,1.6,8.8,0.0,2.2,1.6,0.4,0.0,0.0,0.0,0.0,0.0,0.0,0.0,0.0,0.0,0.0,0.0,0.0,0.0,0.0,114.8
Centro,292740802A,Salvador,Salvador (Centro) - 292740802A,-12.97821,-38.515945,Recôncavo,RPGA do Recôncavo Norte,0.0,1.0,6.71,2.6,0.0,0.0,0.0,0.0,5.75,0.0,0.2,0.0,6.7,0.0,0.0,1.58,0.0,0.0,0.0,0.0,0.0,0.0,0.0,0.0,3.54,0.39,0.0,0.0,0.0,0.63,0.0,29.1
Federação,292740803A,Salvador,Salvador (Federação) - 292740803A,-13.000791,-38.511056,Recôncavo,RPGA do Recôncavo Norte,0.0,7.49,7.3,5.56,0.0,0.0,0.0,0.0,67.45,4.34,1.59,0.0,2.76,0.0,0.79,1.39,0.0,0.0,0.0,0.0,0.0,0.0,0.0,0.0,15.68,0.0,0.0,0.0,0.0,0.0,0.0,114.36
Cabula,292740810A,Salvador,Salvador (Cabula) - 292740810A,-12.961347,-38.460778,Recôncavo,RPGA do Recôncavo Norte,0.0,1.6,2.58,8.13,0.0,0.4,0.0,0.0,20.07,10.04,9.66,0.0,0.79,0.2,0.0,1.38,0.0,0.0,0.0,0.0,0.0,0.0,0.0,0.0,1.19,0.0,0.0,0.0,0.0,0.0,0.0,56.05
Santo Estevão,PG-CL-08,Santo Estevão,Santo Estevão - PG-CL-08,-12.43521,-39.21209,Recôncavo,RPGA do Rio Paraguaçu,0.0,23.0,1.8,14.6,0.6,29.4,0.0,0.0,0.2,0.0,5.0,0.0,1.0,0.0,0.0,0.8,0.0,0.0,0.0,0.0,0.0,0.0,0.0,0.0,6.6,0.0,0.0,0.0,0.0,0.0,0.0,83.0
Nova Esperança,292740818A,Salvador,Salvador (Nova Esperança) - 292740818A,-12.861,-38.368,Recôncavo,RPGA do Recôncavo Norte,0.0,0.4,6.31,6.56,0.2,2.39,0.0,0.0,0.4,2.4,0.4,0.2,1.2,3.2,0.4,0.4,0.0,0.0,1.37,0.0,0.0,0.0,0.0,0.0,0.4,0.0,0.0,0.0,0.0,0.0,0.0,26.23
Alto do Peru,292740812A,Salvador,Salvador (Alto do Peru) - 292740812A,-12.939122,-38.486334,Recôncavo,RPGA do Recôncavo Norte,0.4,2.18,9.11,6.75,0.0,0.0,0.0,0.0,23.45,12.41,9.3,0.6,7.09,0.99,0.0,1.39,0.0,0.0,0.0,0.0,0.0,0.0,0.0,0.0,33.82,0.2,0.0,0.0,0.0,0.0,0.0,107.69
CAB,292740811A,Salvador,Salvador (CAB) - 292740811A,-12.943354,-38.421264,Recôncavo,RPGA do Recôncavo Norte,0.0,1.79,6.72,15.75,0.0,0.4,0.0,0.0,13.96,16.97,11.63,0.2,5.71,2.56,0.0,2.96,0.2,0.0,0.0,0.0,0.0,0.0,0.0,0.0,10.85,0.4,0.0,0.0,0.0,0.0,0.0,90.1
Cosme de Farias,292740816A,Salvador,Salvador (Cosme de Farias) - 292740816A,-12.979402,-38.4855,Recôncavo,RPGA do Recôncavo Norte,0.0,6.87,5.35,8.34,0.0,0.0,0.0,0.0,40.92,11.27,3.74,0.0,0.6,0.0,0.0,2.37,0.0,0.0,0.0,0.0,0.0,0.0,0.0,0.0,44.55,0.0,0.0,0.0,0.0,0.0,0.0,124.01
São Caetano,292740814A,Salvador,Salvador (São Caetano) - 292740814A,-12.939678,-38.474667,Recôncavo,RPGA do Recôncavo Norte,0.2,0.0,0.2,0.2,0.2,0.0,0.2,0.0,0.0,0.2,0.0,0.2,0.0,0.0,0.0,0.0,0.0,0.0,0.0,0.0,0.0,0.0,0.0,0.0,21.65,0.0,0.0,0.0,0.0,0.0,0.0,23.05
Rio Sena,292740805A,Salvador,Salvador (Rio Sena) - 292740805A,-12.891344,-38.470778,Recôncavo,RPGA do Recôncavo Norte,0.0,0.6,4.53,24.41,0.0,0.0,1.38,0.0,20.17,4.12,8.1,0.0,3.94,0.0,0.0,0.0,1.18,0.0,0.0,0.0,0.0,0.0,0.0,0.0,0.0,0.59,0.0,0.0,0.0,0.0,0.0,69.03
Monte Serrat,292740804A,Salvador,Salvador (Monte Serrat) - 292740804A,-12.930789,-38.517167,Recôncavo,RPGA do Recôncavo Norte,0.0,0.6,21.1,3.0,3.6,0.0,0.0,0.0,4.93,12.5,13.16,0.0,0.0,0.0,0.2,0.0,0.4,0.4,0.0,0.0,0.0,0.0,0.0,0.0,5.79,21.93,13.17,0.0,0.0,0.0,0.0,100.79
Centro,290650101A,Candeias,Candeias (Centro) - 290650101A,-12.670229,-38.544112,Recôncavo,RPGA do Recôncavo Norte,1.0,0.6,0.4,0.6,0.6,0.8,0.6,0.6,0.4,0.4,0.4,0.6,0.4,0.4,0.4,0.2,0.2,0.2,0.2,0.2,0.0,0.2,0.0,0.2,0.0,0.0,0.0,0.0,0.0,0.0,0.0,9.6
Areia Branca,291920706A,Lauro de Freitas,Lauro de Freitas (Areia Branca) - 291920706A,-12.841,-38.337,Recôncavo,RPGA do Recôncavo Norte,0.0,0.2,11.62,61.8,0.2,7.7,0.0,0.0,1.78,0.59,9.85,2.17,4.93,0.0,0.0,0.8,0.0,0.0,5.11,0.0,0.0,0.0,0.0,0.0,0.0,0.0,0.0,0.0,0.0,0.0,0.0,106.75
Itinga 02,291920704A,Lauro de Freitas,Lauro de Freitas (Itinga 02) - 291920704A,-12.89,-38.353,Recôncavo,RPGA do Recôncavo Norte,0.6,0.6,0.4,0.4,2.0,1.2,4.0,27.73,9.98,10.52,2.8,0.4,3.2,0.2,0.0,0.2,0.0,0.0,1.38,0.0,0.0,0.0,0.0,0.0,0.79,0.0,0.0,0.0,0.0,0.0,0.0,66.4
Dois de Julho,291120401A,Gandú,Gandú (Dois de Julho) - 291120401A,-13.741357,-39.48303,Recôncavo,RPGA do Recôncavo Sul,0.79,7.55,0.8,38.3,0.6,3.64,0.0,0.0,16.85,1.41,24.87,1.77,0.0,0.2,0.2,19.55,0.4,0.0,0.0,0.0,0.0,0.0,0.0,0.0,0.0,0.0,0.0,0.0,0.0,0.0,0.0,116.93
Centro,292250801A,Nazaré,Nazaré (Centro) - 292250801A,-13.032,-39.015,Recôncavo,RPGA do Recôncavo Sul,0.0,6.72,24.52,14.3,0.8,0.6,0.2,0.0,2.17,0.99,19.79,0.59,1.19,0.0,6.11,18.78,1.38,0.2,0.0,0.0,0.0,0.0,0.0,0.0,0.0,0.0,0.0,0.0,0.0,0.0,0.0,98.34
PC Fazenda Jurema,51346050,Rafael Jambeiro,Rafael Jambeiro (PC Fazenda Jurema) - 51346050,-12.4881,-39.6981,Recôncavo,RPGA do Rio Paraguaçu,0.0,3.0,0.0,36.4,0.0,6.4,0.0,0.0,0.0,0.0,0.4,0.2,1.8,0.0,6.6,0.2,0.2,0.0,0.0,0.0,0.0,0.0,0.0,0.0,0.0,0.0,0.0,0.0,0.0,0.0,0.0,55.2
PC Argoim,51351000,Rafael Jambeiro,Rafael Jambeiro (PC Argoim) - 51351000,-12.5867,-39.5217,Recôncavo,RPGA do Rio Paraguaçu,0.0,3.8,1.0,30.4,0.6,4.2,0.0,0.0,0.0,0.0,2.8,0.2,3.2,0.2,2.4,0.8,1.8,0.0,0.0,0.0,0.0,0.0,0.0,0.0,0.0,0.6,0.0,0.0,0.0,0.0,0.0,52.0
PC Rio Paratigi,51370000,Santo Estevão,Santo Estevão (PC Rio Paratigi) - 51370000,-12.51503,-39.38272,Recôncavo,RPGA do Rio Paraguaçu,0.0,16.8,5.0,8.2,0.2,33.4,0.0,0.0,0.0,0.2,4.8,0.0,3.2,0.0,0.2,0.0,5.4,0.0,0.0,0.0,0.0,0.0,0.0,0.0,0.0,0.0,0.0,0.0,0.0,0.0,0.0,77.4
Feira de Santana,PC Rio Branco,Feira de Santana,Feira de Santana - PC Rio Branco,-12.2331,-39.0461,Recôncavo,RPGA do Rio Paraguaçu,0.0,9.2,15.6,26.6,0.0,3.0,0.0,0.0,3.0,0.2,0.6,1.8,0.2,0.0,0.0,0.2,0.0,0.0,0.0,0.0,0.0,0.0,0.0,0.0,0.0,0.0,0.0,0.0,0.0,0.0,0.0,60.41
Antônio Cardoso,290170001C,Antônio Cardoso,Antônio Cardoso - 290170001C,-12.35093,-39.1648,Recôncavo,RPGA do Rio Paraguaçu,0.0,49.2,29.0,46.2,0.0,0.0,0.0,0.0,1.0,0.2,0.8,0.4,1.6,0.0,0.0,0.0,0.0,0.0,0.0,0.0,0.0,0.0,0.0,0.0,0.0,0.0,0.0,0.0,0.0,0.0,0.0,128.4
Cabaceiras do Paraguaçu,290485201C,Cabaceiras do Paraguaçu,Cabaceiras do Paraguaçu - 290485201C,-12.6226,-39.23243,Recôncavo,RPGA do Rio Paraguaçu,0.0,10.2,6.8,37.8,1.0,6.4,5.0,0.0,1.6,1.0,1.2,0.0,8.4,0.0,1.8,0.6,0.0,0.0,0.0,0.0,0.0,0.0,0.0,0.0,0.0,0.0,0.0,0.0,0.0,0.0,0.0,81.8
Abaeté,RN-PR-01,Salvador,Salvador (Abaeté) - RN-PR-01,-12.945407,-38.361404,Recôncavo,RPGA do Recôncavo Norte,0.0,4.5,2.5,40.4,0.3,0.5,0.0,0.0,36.5,5.0,6.6,0.3,5.9,1.2,0.0,10.12,0.0,0.0,0.0,0.0,0.0,0.0,0.0,0.0,0.0,0.0,0.0,0.0,0.0,0.0,0.0,113.82
Lajedo do Tabocal,291905801C,Lajedo do Tabocal,Lajedo do Tabocal - 291905801C,-13.429464,-40.238969,Sudoeste,RPGA do Recôncavo Sul,0.0,5.2,1.8,91.2,0.2,58.2,0.0,0.0,0.2,0.0,1.0,0.0,0.0,0.0,1.0,1.2,6.8,0.0,0.0,0.0,0.2,0.0,0.0,0.0,0.0,0.0,0.0,0.0,0.0,0.0,0.0,167.0
Cândido Sales,53620000,Cândido Sales,Cândido Sales - 53620000,-15.512891,-41.236629,Sudoeste,RPGA do Rio Pardo,0.0,3.0,13.2,52.2,26.0,19.0,8.4,20.8,88.2,1.4,0.8,2.2,0.0,0.0,0.0,0.0,0.0,0.0,0.0,0.0,0.0,0.0,0.0,0.0,0.0,0.0,16.8,11.2,0.2,0.0,0.2,263.6
Itiruçu,A407,Itiruçu,Itiruçu - A407,-13.52629,-40.12055,Sudoeste,RPGA do Recôncavo Sul,0.2,31.0,1.2,94.8,0.0,9.6,0.2,0.0,0.2,1.0,1.8,0.0,0.0,0.6,2.2,2.6,6.6,0.0,0.0,0.0,0.0,0.0,0.0,0.0,0.0,0.0,0.0,0.0,0.0,0.0,0.0,152.0
Vitória da Conquista,A414,Vitória da Conquista,Vitória da Conquista - A414,-14.886428,-40.80133,Sudoeste,RPGA do Rio Pardo,1.8,3.6,11.0,41.8,13.2,1.8,32.2,0.0,19.2,3.8,1.2,0.6,0.0,0.2,0.0,0.4,0.8,0.0,0.0,0.2,0.0,0.2,0.0,0.0,0.0,1.6,0.0,0.0,0.0,0.0,2.2,135.8
Ituaçu,83292,Ituaçu,Ituaçu - 83292,-13.812778,-41.3,Sudoeste,RPGA do Rio de Contas,0.0,7.9,24.8,30.0,0.0,7.3,32.1,0.0,57.2,1.8,15.8,16.2,0.0,0.0,0.0,0.0,0.0,0.0,0.0,0.0,0.0,0.0,0.0,0.0,0.0,7.8,0.0,0.0,0.0,0.0,0.0,200.91
Lagoa,291760701A,Jaguaquara,Jaguaquara (Lagoa) - 291760701A,-13.523228,-39.968685,Sudoeste,RPGA do Recôncavo Sul,0.0,15.4,10.8,81.2,0.2,9.8,0.2,0.0,3.2,2.2,0.4,0.2,0.0,1.8,0.0,4.0,3.0,0.2,0.0,0.0,0.0,0.0,0.0,0.0,0.0,0.0,0.0,0.0,0.0,0.0,0.0,132.61
Entroncamento,291760702A,Jaguaquara,Jaguaquara (Entroncamento) - 291760702A,-13.509869,-40.05461,Sudoeste,RPGA do Recôncavo Sul,0.0,7.2,6.0,78.6,0.2,11.6,0.0,0.0,0.2,0.0,2.0,0.0,0.0,0.8,0.2,3.6,1.4,0.0,0.0,0.0,0.0,0.0,0.0,0.0,0.0,0.0,0.0,0.0,0.0,0.0,0.0,111.8
Vitória da Conquista,83344,Vitória da Conquista,Vitória da Conquista - 83344,-14.883333,-40.8,Sudoeste,RPGA do Rio Pardo,1.9,3.5,10.4,41.0,13.0,1.6,33.3,0.0,18.5,4.8,1.5,0.6,0.0,0.0,0.0,0.8,0.9,0.0,0.0,0.0,0.0,0.0,0.0,0.0,0.0,0.9,0.0,0.0,0.0,0.0,8.0,140.71
Brumado,A433,Brumado,Brumado - A433,-14.181886,-41.672281,Sudoeste,RPGA do Rio de Contas,0.0,16.6,24.6,44.6,36.6,3.6,0.0,0.0,27.8,16.0,3.0,0.2,0.0,0.0,0.0,0.0,0.0,0.0,0.0,0.0,0.0,0.0,0.0,0.0,0.0,0.0,0.0,0.2,0.0,0.0,0.0,173.2
Ipiaú,A445,Ipiaú,Ipiaú - A445,-14.171304,-39.692502,Sudoeste,RPGA do Rio de Contas,3.4,13.6,7.0,46.0,5.8,9.0,4.8,0.2,14.4,12.6,21.2,2.6,1.6,0.8,0.4,2.6,0.0,0.2,0.0,0.0,0.0,0.0,0.0,0.2,0.0,0.0,0.0,0.0,0.0,0.0,0.6,147.0
Itapetinga,A446,Itapetinga,Itapetinga - A446,-15.24462,-40.22955,Sudoeste,RPGA do Rio Pardo,0.0,13.6,21.6,31.2,8.4,3.8,5.6,0.0,22.2,0.2,4.0,13.2,0.0,0.0,0.0,0.2,0.6,0.0,0.0,0.0,0.0,0.0,0.0,0.0,0.0,0.0,0.0,0.0,0.0,0.0,0.0,124.61
Anagé,CO-CL-01,Anagé,Anagé - CO-CL-01,-14.618055,-41.149722,Sudoeste,RPGA do Rio de Contas,1.0,29.0,8.3,43.9,6.9,3.5,2.6,0.0,56.75,1.5,2.25,0.5,0.0,0.0,0.0,0.25,0.75,0.0,0.0,0.0,0.0,0.0,0.0,0.0,0.0,0.0,0.0,0.0,0.0,0.0,0.0,157.2
Vitória da Conquista,Inhobim (ANA),Vitória da Conquista,Vitória da Conquista - Inhobim (ANA),-15.340228,-40.933566,Sudoeste,RPGA do Rio Pardo,0.0,3.8,24.0,34.6,38.0,50.8,37.6,0.0,31.4,7.4,2.8,1.0,0.0,0.0,0.0,0.0,0.0,0.0,0.0,0.0,0.0,0.0,0.0,0.0,4.6,0.0,0.0,0.0,0.0,0.0,0.0,236.0
Centro,293330701A,Vitória da Conquista,Vitória da Conquista (Centro) - 293330701A,-14.852,-40.839,Sudoeste,RPGA do Rio Pardo,0.0,3.77,14.55,39.64,17.32,0.6,2.98,0.0,13.6,2.99,0.8,20.86,0.0,0.0,0.0,0.0,0.0,0.0,0.0,0.0,0.0,0.0,0.0,0.0,0.0,0.0,0.0,0.0,0.0,0.0,0.2,117.31
Centro,291710201A,Itororó,Itororó (Centro) - 291710201A,-15.119,-40.065,Sudoeste,RPGA do Leste,0.0,4.77,9.15,59.9,3.81,3.15,0.0,0.0,34.88,2.41,3.4,8.47,0.2,0.0,0.0,0.79,0.2,0.0,0.0,0.0,0.0,0.0,0.0,0.0,0.0,0.0,0.0,0.0,0.0,0.0,0.0,131.13
Clerolândia,291640101A,Itapetinga,Itapetinga (Clerolândia) - 291640101A,-15.243,-40.221,Sudoeste,RPGA do Rio Pardo,0.0,13.78,21.56,6.89,0.79,11.56,0.0,0.0,10.51,0.0,3.16,0.99,0.0,0.0,0.0,0.0,0.0,0.0,0.0,0.0,0.0,0.0,0.0,0.0,0.0,0.0,0.0,0.0,0.0,0.0,0.0,69.24
Recreio,293330702A,Vitória da Conquista,Vitória da Conquista (Recreio) - 293330702A,-14.861,-40.841,Sudoeste,RPGA do Rio Pardo,0.0,2.78,14.37,43.09,14.28,0.6,2.81,0.0,12.61,2.18,0.8,25.0,0.2,0.2,0.0,0.0,0.2,0.0,0.0,0.0,0.0,0.0,0.0,0.0,0.0,0.59,1.58,0.2,0.0,0.0,0.2,121.7
Patagônia,293330704A,Vitória da Conquista,Vitória da Conquista (Patagônia) - 293330704A,-14.87,-40.863,Sudoeste,RPGA do Rio Pardo,0.0,4.99,12.44,38.13,11.14,0.79,3.98,0.0,12.84,2.44,0.2,14.17,1.18,0.0,0.0,0.0,0.0,0.0,0.0,0.0,0.0,0.0,0.0,0.0,0.0,0.79,0.0,2.36,0.0,0.0,0.0,105.46
Barcelar,293330705A,Vitória da Conquista,Vitória da Conquista (Barcelar) - 293330705A,-14.838,-40.856,Sudoeste,RPGA do Rio Pardo,0.0,3.98,20.7,40.38,21.91,0.99,4.96,0.0,16.82,3.61,1.41,4.92,0.0,0.0,0.0,0.0,0.0,0.0,0.0,0.0,0.0,0.2,0.0,0.0,0.2,0.0,0.2,0.0,0.0,0.0,0.2,120.48
Jaguaquara,RS-CL-01,Jaguaquara,Jaguaquara - RS-CL-01,-13.573055,-39.940833,Sudoeste,RPGA do Recôncavo Sul,0.0,18.75,21.1,29.6,4.6,12.9,1.0,0.0,1.75,0.5,8.5,0.0,0.0,1.75,0.25,3.5,1.5,0.0,0.0,0.0,0.0,0.0,0.0,0.0,0.0,0.0,0.0,0.0,0.0,0.0,0.0,105.7
Jequié,CO-CL-03,Jequié,Jequié - CO-CL-03,-13.873055,-40.071944,Sudoeste,RPGA do Rio de Contas,3.25,23.0,17.8,27.6,5.2,8.1,1.2,0.0,14.75,0.25,6.5,2.8,0.5,2.75,0.0,6.75,3.75,0.7,0.1,3.2,0.0,0.0,0.0,0.0,0.0,0.0,0.0,0.0,0.0,0.0,0.0,128.2
Vitória da Conquista,PA-CL-01,Vitória da Conquista,Vitória da Conquista - PA-CL-01,-14.886111,-40.800833,Sudoeste,RPGA do Rio Pardo,1.5,3.25,9.1,44.3,7.0,3.1,2.5,0.0,19.75,3.5,1.0,0.25,0.0,0.0,0.0,0.25,1.0,0.0,0.0,0.0,0.0,0.0,0.0,0.0,0.0,1.5,0.0,0.0,0.0,0.0,0.0,98.0
Nova Canaã,292270601C,Nova Canaã,Nova Canaã - 292270601C,-14.662641,-40.274647,Sudoeste,RPGA do Rio de Contas,0.0,7.4,31.0,48.2,42.2,10.2,1.6,0.2,26.2,7.8,1.0,1.8,0.6,0.0,0.0,0.4,0.2,0.0,0.0,0.2,0.0,0.2,0.0,0.0,0.0,0.0,0.0,0.0,0.0,0.0,0.0,179.2
Caculé,290500801C,Caculé,Caculé - 290500801C,-14.498111,-42.259611,Sudoeste,RPGA do Rio de Contas,3.4,3.8,8.0,28.2,8.8,5.8,23.0,0.2,15.8,3.2,0.2,0.0,0.0,0.0,0.0,0.0,0.0,0.0,0.0,0.0,0.0,0.0,0.0,0.0,0.0,0.0,0.0,0.0,0.0,0.2,0.4,101.01
Caraíbas,290689901C,Caraíbas,Caraíbas - 290689901C,-14.725138,-41.276972,Sudoeste,RPGA do Rio de Contas,0.0,30.6,18.2,31.2,82.4,0.0,2.6,0.0,28.0,0.0,0.0,0.0,0.0,0.0,0.0,0.0,0.0,0.0,0.0,0.0,0.0,0.0,0.0,0.0,0.0,0.0,0.0,0.0,0.0,0.0,0.4,193.4
Fz Nanci,53880000,Camacã,Camacã (Fz Nanci) - 53880000,-15.581395,-39.521095,Sul,RPGA do Rio Pardo,1.6,8.8,0.6,0.0,0.0,0.0,0.0,0.0,0.0,0.0,0.0,0.0,0.0,0.0,3.0,0.2,0.2,0.2,0.0,0.2,0.0,0.2,0.0,0.0,0.0,0.0,0.0,0.0,0.0,0.0,0.0,15.0
Caravelas,A405,Caravelas,Caravelas - A405,-17.739413,-39.258617,Sul,"RPGA dos Rios Peruípe, Itanhém e Jucuruçu",0.0,8.0,31.6,24.4,0.6,0.0,0.0,1.4,130.2,41.4,6.2,0.2,0.0,0.0,0.2,2.6,1.2,0.0,0.2,0.0,0.0,0.0,0.0,0.0,0.0,0.0,0.0,6.8,4.8,31.8,0.2,291.8
Ilhéus,A410,Ilhéus,Ilhéus - A410,-14.658803,-39.181438,Sul,RPGA do Leste,0.4,6.6,2.4,26.8,3.6,1.4,0.0,0.2,1.0,9.0,51.2,7.6,0.0,0.2,1.8,5.6,0.0,0.2,0.2,0.2,0.0,0.2,0.0,0.2,2.8,9.4,0.0,0.0,0.2,0.0,0.0,131.2
Itamaraju,A455,Itamaraju,Itamaraju - A455,-17.17103,-39.58819,Sul,"RPGA dos Rios Peruípe, Itanhém e Jucuruçu",0.8,19.4,14.0,121.0,14.6,0.2,0.0,0.0,67.2,26.8,18.6,0.6,0.0,0.0,0.0,0.0,5.0,0.0,0.0,0.0,0.0,0.0,0.0,0.0,0.0,0.0,0.0,0.2,21.4,0.0,0.4,310.2
Canavieiras,83398,Canavieiras,Canavieiras - 83398,-15.666667,-38.95,Sul,RPGA do Rio Pardo,0.0,3.1,5.9,38.6,1.4,3.7,0.9,0.0,11.9,52.1,22.9,0.0,0.0,0.0,0.0,1.6,17.6,0.0,0.0,0.0,0.0,0.0,0.0,0.0,0.0,0.0,0.0,0.0,0.0,0.0,0.0,159.7
Caravelas,83498,Caravelas,Caravelas - 83498,-17.739167,-39.258333,Sul,"RPGA dos Rios Peruípe, Itanhém e Jucuruçu",0.0,7.2,31.6,23.3,0.6,0.0,0.0,1.1,124.4,37.4,7.3,0.0,0.0,0.0,0.0,1.0,1.0,0.0,0.0,0.0,0.0,0.0,0.0,0.0,0.0,0.0,0.0,6.9,4.2,15.2,0.0,261.21
Guaratinga,83446,Guaratinga,Guaratinga - 83446,-16.58,-39.78,Sul,"RPGA dos Rios dos Frades, Buranhém e Santo Antônio",0.0,23.8,14.8,18.4,12.2,24.4,0.0,4.4,39.6,7.6,10.0,4.4,0.0,0.0,0.0,0.0,11.1,0.0,0.0,0.0,0.0,0.0,0.0,0.0,0.0,0.0,0.0,0.0,24.2,0.0,0.0,194.9
Centro,290580001A,Camamu,Camamu (Centro) - 290580001A,-13.943506,-39.10251,Sul,RPGA do Recôncavo Sul,1.0,2.8,0.0,16.2,3.8,0.4,0.0,0.0,0.0,9.4,101.8,1.0,0.0,2.8,0.0,14.0,0.0,0.0,0.0,0.0,0.0,0.0,0.0,0.0,0.0,0.0,0.0,0.0,0.0,0.0,0.0,153.21
Palmeiras,290690701A,Caravelas,Caravelas (Palmeiras) - 290690701A,-17.730921,-39.26635,Sul,"RPGA dos Rios Peruípe, Itanhém e Jucuruçu",0.2,6.0,45.0,26.4,0.2,0.0,0.0,9.8,111.0,40.0,9.2,0.0,0.0,0.0,0.0,0.0,0.6,0.0,0.0,0.0,0.0,0.0,0.0,0.0,1.2,0.4,0.0,11.8,5.0,12.4,0.0,279.2
Novo Horizonte,291180801A,Guaratinga,Guaratinga (Novo Horizonte) - 291180801A,-16.582916,-39.780555,Sul,"RPGA dos Rios dos Frades, Buranhém e Santo Antônio",0.2,28.2,16.8,20.2,12.4,31.4,0.0,4.8,46.0,8.2,9.6,4.4,0.0,0.0,0.0,0.6,12.6,0.0,0.0,0.0,0.0,0.0,0.0,0.0,0.0,0.0,0.0,0.0,29.6,0.2,0.0,225.2
Passagem,291490101A,Itacaré,Itacaré (Passagem) - 291490101A,-14.280609,-39.002952,Sul,RPGA do Rio de Contas,0.4,2.0,0.6,13.2,47.6,12.0,0.0,0.0,0.0,14.8,36.0,0.4,0.2,0.0,0.0,6.8,0.2,0.2,0.0,0.0,0.0,0.0,0.0,2.6,0.2,0.0,0.0,0.0,3.8,0.0,0.0,141.0
Maraú,A438,Maraú,Maraú - A438,-13.90694,-38.97222,Sul,RPGA do Recôncavo Sul,0.8,1.8,0.0,7.0,2.6,2.4,0.0,0.0,0.0,22.8,95.8,3.2,0.2,10.8,0.0,8.2,0.0,0.2,0.0,0.0,0.0,0.0,0.0,0.2,4.8,0.0,0.0,0.0,0.2,0.0,0.0,161.0
Una,A437,Una,Una - A437,-15.280215,-39.09127,Sul,RPGA do Leste,1.2,0.8,1.6,100.8,2.4,6.2,0.2,0.0,17.4,22.4,19.2,0.4,0.2,0.2,0.6,0.6,0.4,0.0,0.0,0.0,0.0,0.0,0.0,0.0,10.6,0.0,0.0,0.0,0.0,0.6,0.0,185.8
Porto Seguro,A427,Porto Seguro,Porto Seguro - A427,-16.388977,-39.182389,Sul,"RPGA dos Rios dos Frades, Buranhém e Santo Antônio",4.2,4.2,27.2,58.6,4.0,2.8,0.2,0.0,29.2,49.0,32.2,2.8,0.2,0.0,0.0,3.0,0.0,0.0,0.0,0.0,0.0,0.0,0.0,0.0,0.4,0.2,0.0,0.0,0.0,0.0,0.0,218.21
Abrolhos,A422,Caravelas,Caravelas (Abrolhos) - A422,-17.79052,-39.22789,Sul,"RPGA dos Rios Peruípe, Itanhém e Jucuruçu",0.0,10.4,45.2,28.2,3.4,0.0,2.8,0.2,48.8,17.6,2.2,0.0,0.0,0.0,0.0,5.6,0.6,0.0,0.0,0.0,0.0,0.0,0.0,0.0,0.0,0.0,0.0,0.0,2.4,0.4,0.0,167.8
Belmonte,A447,Belmonte,Belmonte - A447,-16.08487,-39.21726,Sul,"RPGA dos Rios dos Frades, Buranhém e Santo Antônio",9.4,2.6,17.6,30.2,7.6,1.6,6.8,0.2,10.8,17.8,13.0,0.2,0.0,0.0,0.0,10.4,1.4,0.0,0.0,0.0,0.0,0.0,0.0,0.0,0.8,0.0,0.2,0.0,0.0,0.4,0.0,131.0
Mascote,53950000,Mascote,Mascote - 53950000,-15.565561,-39.302756,Sul,RPGA do Rio Pardo,11.6,1.0,11.8,71.8,1.8,1.0,0.0,0.0,2.6,15.4,11.2,8.0,0.0,0.0,0.0,8.8,6.4,0.0,0.0,0.0,0.0,0.0,0.0,0.0,0.0,6.2,0.0,0.0,0.0,0.0,0.0,157.6
PCH Colino I J,55357000,Jucuruçu,Jucuruçu (PCH Colino I J) - 55357000,-17.0822,-40.0772,Sul,"RPGA dos Rios Peruípe, Itanhém e Jucuruçu",0.0,0.0,0.0,0.0,0.25,0.0,0.0,0.0,0.0,0.0,0.0,0.0,0.25,0.0,0.0,0.0,11.5,0.0,0.0,0.0,0.0,0.0,0.0,0.0,0.0,0.25,0.75,6.0,21.75,3.0,0.0,43.75
Eunápolis,FB-CL-01,Eunápolis,Eunápolis - FB-CL-01,-16.290555,-39.579722,Sul,"RPGA dos Rios dos Frades, Buranhém e Santo Antônio",6.0,13.5,26.7,26.6,3.8,2.0,2.2,0.0,31.25,8.75,19.0,11.0,0.0,0.0,0.25,0.75,24.0,0.0,0.0,0.0,0.0,0.0,0.0,1.1,3.3,10.7,0.0,0.0,12.4,2.6,3.3,209.21
Centro,290560201A,Camacan,Camacan (Centro) - 290560201A,-15.422225,-39.494984,Sul,RPGA do Rio Pardo,15.53,2.2,21.11,35.16,24.82,0.4,0.2,0.0,40.24,7.4,6.2,18.14,5.6,2.4,0.0,2.4,20.07,1.2,0.0,0.0,0.0,0.0,0.0,0.0,0.2,21.4,6.79,0.0,0.0,0.0,0.0,231.46
Teixeira de Freitas,PJ-CL-01,Teixeira de Freitas,Teixeira de Freitas - PJ-CL-01,-17.575555,-39.732777,Sul,"RPGA dos Rios Peruípe, Itanhém e Jucuruçu",0.0,10.75,13.1,4.0,0.5,1.6,1.6,3.25,46.75,5.5,13.75,0.75,0.0,0.0,0.0,0.75,2.5,0.0,0.0,0.0,0.0,0.0,0.0,0.0,0.0,1.75,0.25,20.0,16.75,14.5,0.0,158.05
Itabuna,Fazenda Barra,Itabuna,Itabuna - Fazenda Barra,-14.8997,-39.3686,Sul,RPGA do Leste,8.0,13.0,10.6,84.8,10.2,1.2,0.2,0.0,0.0,6.6,27.4,0.0,0.0,0.4,1.2,4.4,3.2,0.0,0.0,0.0,0.0,0.0,0.0,0.0,0.0,0.8,0.8,0.0,0.0,0.0,0.0,172.8
Centro,290560203A,Camacan,Camacan (Centro) - 290560203A,-15.416389,-39.493873,Sul,RPGA do Rio Pardo,14.57,2.37,19.91,60.54,3.55,0.4,0.0,0.0,56.61,13.83,20.4,3.55,0.0,0.0,0.0,4.14,16.96,0.0,0.0,0.0,0.0,0.0,0.0,0.0,0.2,32.24,0.0,0.0,0.0,0.0,0.0,249.27
Conquista,291360601A,Ilhéus,Ilhéus (Conquista) - 291360601A,-14.797213,-39.04608,Sul,RPGA do Leste,0.0,6.13,1.2,41.14,18.09,8.08,0.0,0.0,0.6,7.68,61.16,0.0,0.0,0.0,0.59,7.31,2.78,0.0,0.0,0.0,0.0,0.0,0.0,0.98,0.6,0.59,0.0,0.0,0.0,0.0,0.0,156.93
Malhado,291360602A,Ilhéus,Ilhéus (Malhado) - 291360602A,-14.789158,-39.048858,Sul,RPGA do Leste,0.0,4.57,0.8,37.8,15.16,7.09,0.2,0.0,0.6,6.11,56.74,0.0,0.0,0.0,1.97,7.31,4.13,0.0,0.0,0.0,0.0,0.0,0.0,0.59,0.39,0.0,0.0,0.0,0.0,0.0,0.0,143.46
São Caetano,291480202A,Itabuna,Itabuna (São Caetano) - 291480202A,-14.80638,-39.27803,Sul,RPGA do Leste,1.4,13.63,6.36,59.03,26.2,0.6,0.2,0.0,1.58,7.54,48.64,1.97,0.0,0.0,0.0,5.53,1.19,0.0,0.0,0.0,0.0,0.0,0.0,0.0,0.0,0.0,0.2,0.0,0.0,0.0,0.0,174.07
Nova Ferradas,291480203A,Itabuna,Itabuna (Nova Ferradas) - 291480203A,-14.857213,-39.346922,Sul,RPGA do Leste,0.0,0.0,0.0,0.0,0.0,0.0,0.0,0.0,0.0,0.0,0.0,0.0,0.0,0.0,0.0,0.0,0.0,0.0,0.0,0.0,0.0,0.0,0.0,0.0,0.0,0.0,0.0,0.0,0.0,0.2,0.0,0.2
Posto da Mata,292300103A,Nova Viçosa,Nova Viçosa (Posto da Mata) - 292300103A,-17.896,-39.37,Sul,"RPGA dos Rios Peruípe, Itanhém e Jucuruçu",0.59,6.52,48.45,34.12,2.18,0.0,0.0,38.73,47.62,105.98,4.93,3.15,0.2,0.0,0.0,0.6,0.59,0.4,0.0,0.0,0.0,0.0,0.0,0.0,0.0,2.75,8.27,9.45,6.51,3.95,0.0,324.99
Paraguai,292530302A,Porto Seguro,Porto Seguro (Paraguai) - 292530302A,-16.41,-39.08,Sul,"RPGA dos Rios dos Frades, Buranhém e Santo Antônio",7.13,3.2,12.62,40.1,16.4,2.2,0.2,0.0,26.8,44.89,52.51,5.97,0.0,0.0,0.0,0.0,0.0,0.0,0.0,0.0,0.0,0.0,0.0,0.0,1.59,0.2,3.98,0.0,0.0,0.0,0.0,217.79
Trancoso,292530303A,Porto Seguro,Porto Seguro (Trancoso) - 292530303A,-16.595,-39.109,Sul,"RPGA dos Rios dos Frades, Buranhém e Santo Antônio",0.99,2.98,9.13,82.63,7.01,0.4,0.0,0.4,45.76,97.37,2.99,6.16,0.2,0.0,0.0,0.0,0.0,0.0,0.0,0.0,0.0,0.0,0.0,0.0,0.0,0.0,0.0,0.0,0.0,0.0,0.0,256.03
BR367km4,292770501A,Santa Cruz Cabrália,Santa Cruz Cabrália (BR367km4) - 292770501A,-16.321,-39.023,Sul,"RPGA dos Rios dos Frades, Buranhém e Santo Antônio",0.6,1.79,8.91,33.52,0.79,8.66,0.0,0.2,29.8,52.07,9.66,0.0,0.0,0.0,0.0,0.2,0.2,0.0,0.0,0.0,0.0,0.0,0.0,0.0,0.59,2.76,0.2,0.0,0.0,0.0,0.0,149.95
Estádio Municipal,291530401A,Itagimirim,Itagimirim (Estádio Municipal) - 291530401A,-16.089181,-39.615546,Sul,RPGA do Rio Jequitinhonha,1.77,28.8,17.93,47.27,5.12,0.4,0.0,0.0,32.13,6.39,5.73,12.85,0.0,0.0,0.0,1.77,1.77,0.0,0.0,0.0,0.0,0.0,0.0,0.0,0.0,0.0,0.0,0.0,0.0,0.0,0.0,161.93
Jusante,54945000,Itapebi,Itapebi (Jusante) - 54945000,-15.949206,-39.5225,Sul,RPGA do Rio Jequitinhonha,13.4,26.4,25.8,34.0,2.2,3.4,0.0,0.0,42.6,12.0,12.2,15.4,0.2,0.0,0.0,3.8,0.8,0.0,0.0,0.0,0.0,0.0,0.0,0.0,0.2,11.8,0.4,0.0,0.0,0.0,0.0,204.61
Morpará,46360000,Morpará,Morpará - 46360000,-11.5583,-43.2825,São Francisco,RPGA dos Rios Paramirim e Santo Onofre,14.0,1.4,40.6,20.0,81.6,3.8,22.6,5.6,8.0,25.2,3.2,0.0,0.0,0.0,0.0,0.0,0.0,0.0,2.6,0.0,0.0,0.0,0.0,0.0,0.0,0.0,0.0,0.0,0.0,0.0,0.0,228.6
Macaúbas,A454,Macaúbas,Macaúbas - A454,-13.0389,-42.6172,São Francisco,RPGA dos Rios Paramirim e Santo Onofre,0.0,21.4,20.4,0.2,42.8,26.0,1.4,0.0,7.0,0.6,0.2,0.0,0.0,0.0,0.0,0.0,0.2,0.2,0.0,0.0,0.0,0.0,0.0,0.0,0.0,3.8,0.4,22.6,0.0,0.0,0.0,147.21
Santa Rita de Cássia,A415,Santa Rita de Cássia,Santa Rita de Cássia - A415,-11.002768,-44.524965,São Francisco,RPGA do Rio Grande,0.0,11.0,0.0,33.0,10.4,12.4,26.2,0.0,39.2,3.8,0.0,0.0,0.0,0.0,0.0,0.0,0.0,0.0,0.0,0.0,0.0,0.0,0.0,5.0,1.2,2.6,1.0,0.2,0.0,0.2,21.8,168.0
Pilão Arcado,A449,Pilão Arcado,Pilão Arcado - A449,-10.003519,-42.474785,São Francisco,RPGA do Lago de Sobradinho,0.0,19.8,55.2,0.6,3.8,21.4,1.6,0.2,14.2,12.4,0.2,0.0,0.0,0.0,0.0,0.0,0.0,0.0,0.0,0.0,0.0,0.0,0.0,0.0,0.0,0.0,0.0,0.0,0.0,0.0,0.0,129.4
Barra,83179,Barra,Barra - 83179,-11.083333,-43.166667,São Francisco,RPGA do Rio Grande,0.7,26.3,15.2,9.0,37.3,8.5,4.4,0.7,29.6,18.0,1.9,0.0,0.0,0.0,0.0,0.0,0.0,0.0,0.0,0.0,0.0,0.0,0.0,0.0,0.0,0.7,0.0,0.0,0.0,0.0,5.5,157.8
Bom Jesus da Lapa,83288,Bom Jesus da Lapa,Bom Jesus da Lapa - 83288,-13.251389,-43.405278,São Francisco,RPGA do Rio Carnaíba de Dentro,22.6,23.6,0.4,11.6,12.7,32.1,5.2,0.0,13.2,9.6,0.0,0.0,0.0,0.0,0.0,0.0,0.0,0.0,0.0,0.0,0.0,0.0,0.0,0.0,0.0,0.0,3.0,0.0,0.0,0.0,9.4,143.4
Caetité,83339,Caetité,Caetité - 83339,-14.066667,-42.483333,São Francisco,RPGA do Rio de Contas,2.4,2.0,3.4,44.4,0.6,5.4,9.2,0.0,24.2,13.0,0.5,0.0,0.0,0.0,0.0,0.0,0.0,0.0,0.0,0.0,0.0,0.0,0.0,0.0,8.2,1.2,0.0,0.0,0.0,3.5,3.2,121.21
Carinhanha,83408,Carinhanha,Carinhanha - 83408,-14.283333,-43.766667,São Francisco,"RPGA do Rio Corrente e Riachos do Ramalho, Serra Dourada e Brejo Velho",0.0,18.0,29.9,75.5,8.5,14.8,0.0,0.0,63.1,9.8,2.5,0.0,0.0,0.0,0.0,0.0,0.0,0.0,0.0,0.0,0.0,0.0,0.0,0.0,7.6,0.0,0.0,2.2,0.0,8.2,10.2,250.3
Santa Rita de Cássia,83076,Santa Rita de Cássia,Santa Rita de Cássia - 83076,-11.016667,-44.516667,São Francisco,RPGA do Rio Grande,0.0,12.0,0.0,34.4,11.9,19.0,28.8,0.0,42.6,4.1,0.0,0.0,0.0,0.0,0.0,0.0,0.0,0.0,0.0,0.0,0.0,0.0,0.0,5.6,1.0,3.0,1.2,0.3,0.0,0.0,23.2,187.1
Guanambí,A426,Guanambí,Guanambí - A426,-14.208123,-42.749647,São Francisco,RPGA do Rio Carnaíba de Dentro,10.6,10.8,10.0,91.4,7.6,32.0,2.6,0.0,35.4,3.6,0.2,0.0,0.0,0.0,0.0,0.0,0.0,0.0,0.0,0.0,0.0,0.0,0.0,0.0,0.0,0.0,0.0,0.0,2.2,0.2,6.0,212.6
Paratinga,292370401U,Paratinga,Paratinga - 292370401U,-12.678908,-43.180266,São Francisco,RPGA do Rio Carnaíba de Dentro,0.0,14.8,12.0,41.2,66.0,36.4,4.2,0.0,30.0,27.0,10.2,0.0,0.0,0.0,0.0,0.0,0.0,0.0,0.0,0.0,0.0,0.0,0.0,0.0,0.2,0.0,0.0,0.0,0.2,0.0,0.6,242.8
Barra,A429,Barra,Barra - A429,-11.084858,-43.138998,São Francisco,RPGA do Rio Grande,0.8,32.4,18.4,11.2,45.2,10.6,5.6,1.0,38.2,23.4,2.6,0.2,0.0,0.0,0.0,0.0,0.0,0.0,0.0,0.0,0.0,0.0,0.0,0.0,0.0,1.0,0.0,0.0,0.0,0.0,7.2,197.8
Ibotirama,A439,Ibotirama,Ibotirama - A439,-12.19306,-43.21342,São Francisco,RPGA dos Rios Paramirim e Santo Onofre,0.0,16.8,2.6,24.6,16.2,1.0,0.4,0.2,0.2,0.0,0.2,0.0,0.0,0.0,0.2,0.0,0.0,0.0,0.0,0.0,0.0,0.0,0.0,0.0,0.0,0.0,0.0,0.0,0.0,0.0,0.0,62.41
Macaúbas,PM-CL-02,Macaúbas,Macaúbas - PM-CL-02,-13.07953,-42.6957,São Francisco,RPGA dos Rios Paramirim e Santo Onofre,0.4,15.8,12.0,0.4,39.8,12.4,0.4,1.8,23.8,0.6,0.4,0.2,0.0,0.0,0.0,0.0,0.6,0.0,0.0,0.0,0.0,0.0,0.0,0.0,0.0,0.0,0.0,1.0,0.0,0.0,0.0,109.6
Faz. Macambira,46675000,Cotegipe,Cotegipe (Faz. Macambira) - 46675000,-11.6106,-44.1567,São Francisco,RPGA do Rio Grande,0.2,9.8,8.6,34.0,35.6,24.4,69.0,0.0,12.8,1.4,0.0,0.0,0.0,0.0,0.0,0.0,0.0,0.0,0.0,0.0,0.0,0.0,0.0,0.0,4.4,0.2,0.0,0.0,0.0,6.8,0.0,207.21
Fz.P. Limpo,46870000,Mansidão,Mansidão (Fz.P. Limpo) - 46870000,-11.236845,-43.950633,São Francisco,RPGA do Rio Grande,0.0,0.8,2.4,23.6,38.6,3.0,2.2,0.0,20.8,0.6,0.4,0.0,0.0,0.0,0.0,0.0,0.0,0.0,0.0,0.0,0.0,0.0,0.0,0.0,0.0,1.2,0.4,2.2,0.0,0.0,0.0,96.21
Santa Maria da Vitória,45910001,Santa Maria da Vitória,Santa Maria da Vitória - 45910001,-13.4006,-44.1989,São Francisco,"RPGA do Rio Corrente e Riachos do Ramalho, Serra Dourada e Brejo Velho",0.0,9.6,1.8,2.0,8.4,2.4,1.0,0.0,0.2,0.2,2.0,0.0,0.2,0.0,0.0,0.0,0.0,0.0,0.0,0.0,0.0,0.0,0.0,0.0,0.0,0.0,5.6,6.8,0.2,0.0,1.8,42.2
Bom Jesus da Lapa,45480000,Bom Jesus da Lapa,Bom Jesus da Lapa - 45480000,-13.2572,-43.435,São Francisco,"RPGA do Rio Corrente e Riachos do Ramalho, Serra Dourada e Brejo Velho",14.8,11.0,5.2,11.8,9.0,6.6,12.0,0.0,11.6,10.2,0.0,2.0,0.0,0.0,0.0,0.0,0.0,0.0,0.0,0.0,0.0,0.0,0.0,0.0,0.0,0.0,0.4,0.0,0.0,0.0,0.2,94.81
Barra,46998000,Barra,Barra - 46998000,-11.0928,-43.1403,São Francisco,RPGA do Rio Grande,0.2,28.2,15.8,8.2,47.8,9.0,4.2,1.4,30.4,17.2,1.6,0.0,0.0,0.0,0.0,0.0,0.0,0.0,0.0,0.0,0.0,0.0,0.0,0.0,0.0,0.4,0.0,0.0,0.0,0.0,7.0,171.4
Boqueirão,46902000,Mansidão,Mansidão (Boqueirão) - 46902000,-11.345255,-43.826056,São Francisco,RPGA do Rio Grande,0.6,1.0,1.4,10.8,62.4,5.6,2.2,0.0,29.0,2.4,0.0,0.0,0.0,0.0,0.0,0.0,0.0,0.0,0.0,0.0,0.0,0.0,0.0,0.0,0.0,0.0,0.0,11.4,0.0,0.0,0.0,126.81
Volta da Serra,CD-CL-02,Paratinga,Paratinga (Volta da Serra) - CD-CL-02,-12.57591,-43.12782,São Francisco,RPGA do Rio Carnaíba de Dentro,0.0,6.0,4.2,67.6,46.4,35.8,5.6,24.0,16.8,26.4,48.4,0.0,0.0,0.0,0.0,0.0,0.0,0.0,0.0,0.0,0.0,0.0,0.0,0.0,0.6,0.0,0.0,0.0,12.2,0.0,0.2,294.2
