nome_estacao,codigo,municipio,estacao,latitude,longitude,regiao,rpga,01_01_18,02_01_18,03_01_18,04_01_18,05_01_18,06_01_18,07_01_18,08_01_18,09_01_18,10_01_18,11_01_18,12_01_18,13_01_18,14_01_18,15_01_18,16_01_18,17_01_18,18_01_18,19_01_18,20_01_18,21_01_18,22_01_18,23_01_18,24_01_18,25_01_18,26_01_18,27_01_18,28_01_18,29_01_18,30_01_18,31_01_18,total
Itaberaba,A408,Itaberaba,Itaberaba - A408,-12.524000000000001,-40.3,Chapada Diamantina,RPGA do Rio Paraguaçu,0.0,0.0,0.0,0.0,54.8,0.0,7.0,0.0,0.0,0.0,28.6,0.2,0.4,0.4,0.2,0.0,0.0,0.0,3.4,0.0,0.0,0.0,0.0,0.0,0.0,0.0,0.0,0.0,0.0,0.0,0.0,95.01
Macajuba,A412,Macajuba,Macajuba - A412,-12.132,-40.354,Chapada Diamantina,RPGA do Rio Paraguaçu,0.0,0.0,0.0,0.0,70.6,0.0,0.0,0.0,0.0,0.4,5.4,0.0,0.0,0.0,0.2,0.0,0.0,0.0,0.0,0.0,0.0,0.0,0.0,0.0,0.0,0.0,0.0,0.0,0.2,0.0,0.0,76.81
Itaberaba,83244,Itaberaba,Itaberaba - 83244,-12.517000000000001,-40.283,Chapada Diamantina,RPGA do Rio Paraguaçu,0.0,0.0,0.0,0.0,61.6,0.0,6.9,0.0,0.0,6.8,30.8,0.0,0.5,0.1,0.0,0.0,0.0,0.0,4.0,0.0,0.0,0.0,0.0,0.0,0.0,0.0,0.0,0.0,0.0,0.0,0.0,110.7
Lençóis,83242,Lençóis,Lençóis - 83242,-12.557,-41.388999999999996,Chapada Diamantina,RPGA do Rio Paraguaçu,0.0,0.0,0.0,0.0,21.6,0.0,19.5,0.0,0.0,0.0,9.6,0.0,0.0,0.3,3.6,0.0,0.0,0.0,0.0,2.1,0.0,0.0,0.0,0.0,3.8,0.0,0.1,0.3,0.0,0.0,0.0,60.9
Morro do Chapéu,83184,Morro do Chapéu,Morro do Chapéu - 83184,-11.217,-41.217,Chapada Diamantina,RPGA do Rio Salitre,0.0,0.0,0.0,0.0,27.5,0.4,6.0,0.0,0.0,3.4,3.2,0.0,0.0,1.6,0.4,0.0,0.0,0.0,2.0,0.0,0.0,0.0,0.0,0.3,0.0,0.0,0.0,0.0,0.0,0.0,0.0,44.8
Piatã,A430,Piatã,Piatã - A430,-13.155999999999999,-41.773999999999994,Chapada Diamantina,RPGA do Rio de Contas,0.0,0.0,0.0,16.2,16.8,0.0,0.0,0.2,0.0,0.0,31.6,6.6,0.0,0.0,0.8,0.0,0.0,0.0,1.6,0.0,0.0,0.0,0.0,0.0,0.0,12.8,0.0,0.0,3.0,0.0,0.0,89.6
Lençóis,A425,Lençóis,Lençóis - A425,-12.558,-41.388999999999996,Chapada Diamantina,RPGA do Rio Paraguaçu,0.0,0.0,0.0,0.0,26.6,0.0,19.0,0.0,0.0,0.0,9.8,0.0,0.0,0.2,3.8,0.0,0.0,0.0,0.0,2.2,0.0,0.0,0.0,0.0,3.8,0.0,0.0,0.4,0.0,0.0,0.0,65.81
Boa Vista Tupim,PG-PR-17,Boa Vista Tupim,Boa Vista Tupim - PG-PR-17,-12.655999999999999,-40.59,Chapada Diamantina,RPGA do Rio Paraguaçu,0.0,0.0,0.0,0.0,37.25,0.0,2.25,0.0,0.0,0.0,3.25,0.0,0.0,0.0,0.0,0.0,0.0,0.0,0.0,0.0,0.0,0.0,0.0,0.0,0.25,0.0,0.0,0.0,0.0,0.0,0.0,43.0
Wagner,PG-PR-22,Wagner,Wagner - PG-PR-22,-12.29,-41.162,Chapada Diamantina,RPGA do Rio Paraguaçu,0.0,0.0,0.0,0.0,33.25,0.0,0.5,0.0,0.0,0.0,11.5,0.0,0.0,0.0,0.25,0.0,0.0,0.0,0.0,0.0,0.0,0.0,0.0,0.0,0.0,0.0,0.0,0.0,0.0,0.0,0.0,45.5
Guiné,PG-PR-24,Mucugê,Mucugê (Guiné) - PG-PR-24,-12.772,-41.541000000000004,Chapada Diamantina,RPGA do Rio Paraguaçu,0.0,0.0,0.0,0.0,13.25,0.0,19.5,3.5,0.0,2.25,2.75,0.25,0.0,0.0,6.5,0.0,0.0,0.0,0.0,0.0,0.0,0.0,0.0,0.0,0.0,0.0,3.0,0.25,0.0,0.0,0.0,51.25
Cascavel,PG-PR-27,Cascavel,Cascavel - PG-PR-27,-13.286,-41.288000000000004,Chapada Diamantina,RPGA do Rio Paraguaçu,0.0,0.0,0.0,0.75,5.5,0.0,0.0,0.0,0.0,4.0,4.0,0.0,0.0,0.0,0.0,0.0,0.0,0.0,0.0,0.0,0.0,0.0,0.0,0.0,0.0,0.0,3.25,0.5,0.0,2.0,2.75,22.75
Ibicoara,,Ibicoara,Ibicoara,-13.408,-41.292,Chapada Diamantina,RPGA do Rio de Contas,0.0,0.0,0.0,0.0,0.0,0.0,0.0,0.0,0.0,0.0,0.0,0.0,0.0,0.0,0.0,0.0,0.0,0.0,0.0,0.0,0.0,0.0,0.0,0.0,0.0,0.0,0.0,0.0,0.0,0.0,0.0,0.0
Ibiaporã,PG-CL-01,Mundo Novo,Mundo Novo (Ibiaporã) - PG-CL-01,-12.054,-40.836999999999996,Chapada Diamantina,RPGA do Rio Paraguaçu,0.0,0.0,0.0,0.0,29.5,0.0,10.0,0.0,0.0,0.5,2.5,0.0,0.0,0.0,0.25,0.0,0.0,0.0,9.5,0.0,0.0,0.0,0.0,0.0,0.0,0.0,0.0,0.0,0.0,0.0,0.0,52.25
Marcionílio Souza,PG-CL-03,Marcionílio Souza,Marcionílio Souza - PG-CL-03,-13.0,-40.538000000000004,Chapada Diamantina,RPGA do Rio Paraguaçu,0.0,0.0,0.0,0.0,31.25,0.0,0.0,0.0,0.0,0.0,1.25,0.0,0.0,0.0,1.5,0.0,0.0,0.0,1.3,0.0,0.0,0.0,0.0,0.0,0.0,0.0,0.0,0.0,0.0,0.0,0.0,35.3
Tapiramutá,PG-PR-09,Tapiramutá,Tapiramutá - PG-PR-09,-11.839,-40.792,Chapada Diamantina,RPGA do Rio Paraguaçu,0.0,0.0,0.0,0.0,17.25,0.0,16.75,0.0,0.0,0.75,1.0,0.0,0.0,0.0,3.25,0.0,0.0,0.0,0.0,0.0,0.0,0.0,0.0,0.0,0.0,0.0,0.0,0.5,0.0,0.0,0.0,39.5
Ventura,PG-PR-10,Morro do Chapéu,Morro do Chapéu (Ventura) - PG-PR-10,-11.651,-40.952,Chapada Diamantina,RPGA do Rio Paraguaçu,0.0,0.0,0.0,0.0,31.0,0.25,13.25,0.0,0.0,0.75,0.25,0.0,0.0,9.75,2.25,0.0,0.0,0.0,0.0,0.0,0.0,0.0,0.0,0.0,0.0,0.0,0.0,0.0,0.0,0.0,0.0,57.5
Bonito,PG-PR-11,Bonito,Bonito - PG-PR-11,-11.99,-41.254,Chapada Diamantina,RPGA do Rio Paraguaçu,0.0,0.0,0.0,0.0,17.0,0.0,0.0,0.0,0.5,3.75,7.5,0.0,0.0,0.0,5.5,0.0,0.0,0.25,1.25,0.0,0.0,0.0,0.0,0.0,0.0,0.0,0.0,1.0,0.0,0.0,0.0,36.75
Piatã,CO-CL-04,Piatã,Piatã - CO-CL-04,-13.164000000000001,-41.771,Chapada Diamantina,RPGA do Rio de Contas,0.0,1.0,0.0,23.0,14.25,0.0,0.0,0.0,0.0,0.75,19.75,3.2,0.0,0.0,0.0,0.0,0.0,0.0,0.0,0.0,0.0,0.0,0.0,0.0,0.0,4.25,0.0,0.0,0.0,0.0,0.0,66.2
PC Ponte Rio Capivari,51326200,Itaberaba,Itaberaba (PC Ponte Rio Capivari) - 51326200,-12.514000000000001,-39.934,Chapada Diamantina,RPGA do Rio Paraguaçu,0.0,0.0,0.0,0.0,12.3,0.0,0.0,0.0,0.0,1.1,21.3,0.0,0.0,0.0,15.2,0.0,0.0,0.0,2.4,0.0,0.0,0.0,0.0,0.0,0.0,0.0,0.0,0.0,0.0,0.0,0.0,52.31
Cipó,83192,Cipó,Cipó - 83192,-11.083,-38.516999999999996,Nordeste,RPGA do Rio Itapicuru,0.0,0.0,0.0,0.0,0.0,0.0,0.0,0.0,1.1,5.6,1.8,0.0,0.0,7.3,0.0,0.0,0.0,0.0,0.0,0.0,0.0,0.0,0.0,1.0,0.0,0.0,0.0,0.6,7.6,0.0,0.0,25.0
Jacobina,83186,Jacobina,Jacobina - 83186,-11.173,-40.534,Nordeste,RPGA do Rio Itapicuru,0.0,0.0,0.0,0.0,46.1,0.0,0.0,0.0,0.0,6.4,10.1,0.0,0.0,39.4,0.0,0.0,0.0,0.0,4.1,0.0,0.0,0.0,0.0,0.0,0.0,0.0,0.0,0.0,0.0,0.0,0.0,106.1
Monte Santo,83090,Monte Santo,Monte Santo - 83090,-10.443,-39.330999999999996,Nordeste,RPGA do Rio Itapicuru,0.0,0.0,0.0,0.0,2.1,0.0,0.0,0.0,0.0,1.0,1.2,0.0,0.0,0.0,0.0,0.0,0.0,0.0,0.0,0.0,0.0,0.0,0.0,0.0,0.0,0.0,0.0,0.0,0.0,0.0,4.0,8.3
Conde,A431,Conde,Conde - A431,-12.036,-37.683,Nordeste,RPGA do Rio Itapicuru,0.0,0.0,0.0,0.0,0.0,0.0,0.0,0.0,2.2,0.0,1.0,0.2,5.2,1.6,0.0,0.0,0.0,0.4,0.0,0.0,0.0,0.0,0.0,0.0,0.0,0.0,0.0,0.2,0.2,0.0,0.0,11.0
Uauá,A435,Uauá,Uauá - A435,-9.834,-39.496,Nordeste,RPGA do Rio Vaza-Barris,0.0,0.0,0.0,0.0,58.2,2.6,0.0,0.0,0.0,0.0,0.0,0.0,0.0,0.0,7.0,0.0,0.0,0.0,0.0,0.0,0.0,0.0,0.0,0.0,0.0,0.0,0.0,0.0,0.0,0.0,0.2,68.01
Queimadas,A436,Queimadas,Queimadas - A436,-10.985,-39.617,Nordeste,RPGA do Rio Itapicuru,0.0,0.0,0.0,0.0,2.0,0.0,0.0,0.0,0.0,0.0,0.0,0.0,0.0,0.0,0.0,0.0,0.0,0.0,0.0,0.0,0.0,0.0,0.0,0.0,0.0,0.0,0.0,0.0,0.0,0.0,0.0,2.0
Jacobina,A440,Jacobina,Jacobina - A440,-11.205,-40.465,Nordeste,RPGA do Rio Itapicuru,0.0,0.0,0.0,0.0,48.8,0.0,6.2,0.0,0.0,0.0,10.2,0.0,0.0,33.6,0.0,0.0,0.0,0.0,3.8,0.0,0.0,0.0,0.0,0.0,0.0,0.0,0.0,0.0,0.4,0.0,0.0,103.01
Senhor do Bonfim,A428,Senhor do Bonfim,Senhor do Bonfim - A428,-10.443,-40.148,Nordeste,RPGA do Rio Itapicuru,0.0,0.0,0.0,0.0,16.2,0.0,0.0,0.0,0.0,0.2,2.2,0.0,0.0,2.2,0.8,0.0,0.0,0.0,0.0,0.0,0.0,0.0,0.0,0.0,0.0,0.0,0.0,0.0,0.0,0.0,5.6,27.2
Pedras Altas,50430000,Capim Grosso,Capim Grosso (Pedras Altas) - 50430000,-11.183,-40.047,Nordeste,RPGA do Rio Itapicuru,0.0,0.0,0.0,0.0,0.0,0.0,1.0,0.0,0.0,0.0,0.0,0.0,0.0,3.4,0.8,0.2,0.0,0.0,0.0,0.2,0.0,0.0,0.0,0.0,0.0,0.0,0.0,0.8,0.0,0.0,0.0,6.4
Ponto Novo,50380000,Ponto Novo,Ponto Novo - 50380000,-10.845,-40.113,Nordeste,RPGA do Rio Itapicuru,0.0,0.0,0.0,0.0,0.0,0.0,0.0,0.0,0.0,2.0,1.0,0.0,0.0,5.8,0.0,0.0,0.0,1.4,0.0,1.2,0.0,0.0,0.0,0.0,0.0,0.0,0.0,0.0,0.0,0.0,1.6,13.0
Ipirá,PG-CL-02,Ipirá,Ipirá - PG-CL-02,-12.15,-39.765,Nordeste,RPGA do Rio Paraguaçu,0.0,0.0,0.0,0.0,56.5,0.0,0.5,0.0,0.0,6.0,1.5,0.0,0.0,0.0,10.5,0.0,0.0,0.0,0.0,0.0,0.0,0.0,0.0,0.0,0.0,0.0,0.0,0.0,0.0,0.0,0.0,75.0
Centro,293010501A,Senhor do Bonfim,Senhor do Bonfim (Centro) - 293010501A,-10.464,-40.19,Nordeste,RPGA do Rio Itapicuru,0.0,0.0,0.0,0.0,1.0,0.0,0.0,0.0,0.0,0.8,0.6,0.0,0.0,0.0,0.0,0.0,0.0,0.0,0.0,0.0,0.0,0.0,0.0,0.0,0.0,0.0,0.0,0.0,0.0,0.0,1.4,3.8
Riacho da Onça,IT-PR-15,Queimadas,Queimadas (Riacho da Onça) - IT-PR-15,-11.244000000000002,-39.79,Nordeste,RPGA do Rio Itapicuru,0.0,0.0,0.0,0.0,0.0,0.0,2.5,0.0,0.0,1.5,0.0,0.0,0.0,0.0,3.0,0.0,0.0,0.0,1.5,0.0,0.0,0.0,0.0,0.0,0.0,0.0,0.0,1.0,1.0,0.0,0.0,10.5
Aribicé,IT-PR-02,Euclides da Cunha,Euclides da Cunha (Aribicé) - IT-PR-02,-10.558,-38.793,Nordeste,RPGA do Rio Itapicuru,0.0,0.0,0.0,0.0,0.0,0.0,0.0,0.0,0.0,18.0,0.5,0.0,0.0,10.75,0.25,0.0,0.0,0.0,0.0,0.0,0.0,0.0,0.0,0.0,0.0,0.0,0.0,0.0,0.0,0.0,11.5,41.0
BR 116 E. Cunha / Tucano,IT-PR-05,Quijingue,Quijingue (BR 116 E. Cunha / Tucano) - IT-PR-05,-10.71,-38.923,Nordeste,RPGA do Rio Itapicuru,0.0,0.0,0.0,0.0,12.5,0.0,0.0,0.0,0.0,2.75,0.0,0.0,0.0,0.0,0.0,0.0,0.0,0.0,0.0,0.0,0.0,0.0,0.0,0.0,0.0,0.0,0.0,0.0,0.0,0.0,6.5,21.75
Crisópolis,IT-PR-08,Crisópolis,Crisópolis - IT-PR-08,-11.511,-38.121,Nordeste,RPGA do Rio Itapicuru,0.0,0.0,0.0,0.0,0.0,0.0,0.0,0.0,0.0,0.0,3.0,0.0,0.0,0.75,0.0,0.0,0.0,0.0,0.0,0.0,0.0,0.0,0.0,0.5,11.75,0.0,0.0,0.0,0.0,0.75,7.0,23.75
Olindina,IT-PR-11,Olindina,Olindina - IT-PR-11,-11.344000000000001,-38.319,Nordeste,RPGA do Rio Itapicuru,0.0,0.0,0.0,0.0,0.0,0.0,0.0,0.0,0.0,1.25,0.0,0.0,0.0,11.25,0.0,0.0,0.0,0.0,0.0,0.0,0.0,0.0,0.0,0.25,0.25,0.0,0.0,0.0,0.0,0.0,0.0,13.0
Itapicuru,IT-PR-12,Itapicuru,Itapicuru - IT-PR-12,-11.321,-38.225,Nordeste,RPGA do Rio Itapicuru,0.0,0.0,0.0,0.0,0.0,0.0,0.0,0.0,0.5,1.0,0.0,0.0,0.0,3.75,0.0,0.0,0.0,0.0,0.0,0.0,0.0,0.0,0.0,0.75,5.5,0.0,0.0,0.0,0.0,0.0,0.75,12.25
Jeremoabo,A450,Jeremoabo,Jeremoabo - A450,-10.081,-38.346,Nordeste,RPGA do Rio Vaza-Barris,0.0,0.0,0.0,0.0,0.0,0.0,1.2,0.0,0.0,0.0,0.4,0.0,0.0,0.0,16.4,0.2,0.6,0.0,0.0,4.0,0.0,0.0,0.0,0.0,0.0,0.0,0.0,0.0,0.0,0.0,0.4,23.2
Itaberaba,291840701A,Juazeiro,Juazeiro (Itaberaba) - 291840701A,-9.448,-40.485,Norte,RPGA dos Rios Macururé e Curaçá,0.0,0.0,0.0,4.6,5.8,15.4,0.0,0.0,0.0,0.0,0.0,0.0,0.0,0.0,0.0,0.0,0.0,0.0,0.0,0.0,0.0,0.0,0.0,0.0,0.0,0.0,6.2,0.2,0.0,0.0,0.0,32.2
Maria Gorete,291840703A,Juazeiro,Juazeiro (Maria Gorete) - 291840703A,-9.42,-40.499,Norte,RPGA dos Rios Macururé e Curaçá,0.0,0.0,0.0,0.6,3.8,5.2,0.4,0.0,0.0,0.0,0.2,0.0,0.0,0.0,0.0,0.0,0.0,0.0,0.0,0.0,0.0,0.0,0.0,0.0,0.0,0.0,8.4,2.0,0.0,0.0,1.8,22.41
João Paulo II,291840704A,Juazeiro,Juazeiro (João Paulo II) - 291840704A,-9.471,-40.498000000000005,Norte,RPGA dos Rios Macururé e Curaçá,0.0,0.0,0.0,0.4,6.8,4.6,0.0,0.0,0.0,0.0,0.0,0.0,0.0,0.0,0.0,0.0,0.0,0.0,0.0,0.0,0.0,0.0,0.0,0.0,0.0,0.0,5.0,0.0,0.0,0.0,0.0,16.8
Irecê,83182,Irecê,Irecê - 83182,-11.3,-41.867,Norte,RPGA dos Rios Verde e Jacaré,0.0,0.0,0.0,3.1,1.4,0.0,0.0,0.0,0.0,0.0,0.0,0.0,0.0,0.0,0.4,0.0,0.0,0.0,0.0,0.0,0.0,0.0,0.0,0.0,0.0,0.0,0.9,0.0,0.0,0.0,0.0,5.81
Remanso,82979,Remanso,Remanso - 82979,-9.633,-42.1,Norte,RPGA do Lago de Sobradinho,0.0,0.0,0.0,10.4,1.4,0.0,0.0,0.0,0.0,0.0,0.0,0.0,0.0,0.0,0.0,0.0,0.0,0.0,0.0,0.0,0.0,0.0,0.0,0.0,0.0,0.0,1.2,0.1,14.8,0.0,0.0,27.9
Delfino,A443,Umburanas,Umburanas (Delfino) - A443,-10.455,-41.207,Norte,RPGA do Rio Salitre,0.0,0.0,0.0,5.6,0.6,3.8,0.0,0.0,0.0,0.0,0.0,0.0,0.0,0.0,0.0,0.0,0.0,0.0,0.0,0.0,0.0,0.0,0.0,0.0,0.0,0.0,0.0,0.0,0.0,0.0,0.0,10.0
Remanso,A423,Remanso,Remanso - A423,-9.626,-42.077,Norte,RPGA do Lago de Sobradinho,0.0,0.0,0.0,10.8,2.0,0.0,0.0,0.0,0.0,0.0,0.0,0.0,0.0,0.0,0.0,0.0,0.0,0.0,0.0,0.0,0.0,0.0,0.0,0.0,0.0,0.0,1.6,0.2,14.8,0.0,0.0,29.4
Irecê,A424,Irecê,Irecê - A424,-11.329,-41.865,Norte,RPGA dos Rios Verde e Jacaré,0.0,0.0,0.0,0.8,2.2,0.0,0.0,0.0,0.0,0.0,0.0,0.0,0.0,0.0,0.6,0.0,0.0,0.0,0.0,0.0,0.0,0.0,0.0,0.0,0.0,0.0,1.6,0.0,5.0,0.0,0.0,10.2
Casa Nova,Faz. Santa Felicidade,Casa Nova,Casa Nova - Faz. Santa Felicidade,-9.333,-40.8,Norte,RPGA do Lago de Sobradinho,0.0,0.0,0.0,9.4,0.5,0.0,0.0,0.0,0.0,0.0,0.0,0.0,0.0,0.0,0.0,0.0,0.0,0.0,0.0,0.0,0.0,0.0,0.0,0.0,15.0,1.3,0.0,0.0,30.0,2.0,0.0,58.2
Juazeiro,Massaroca,Juazeiro,Juazeiro - Massaroca,-9.8,-40.233000000000004,Norte,RPGA dos Rios Macururé e Curaçá,0.0,0.0,0.0,2.0,0.1,26.4,0.1,0.0,0.0,0.0,12.8,0.0,0.0,0.0,0.0,0.0,0.0,0.0,0.0,0.0,0.0,0.0,0.0,0.0,0.0,0.0,0.4,0.0,0.2,0.0,13.5,55.51
Juazeiro,Santa Helena,Juazeiro,Juazeiro - Santa Helena,-9.567,-40.3,Norte,RPGA dos Rios Macururé e Curaçá,0.0,0.0,0.0,0.0,11.0,6.6,0.0,0.0,0.0,0.0,0.0,0.0,0.0,0.0,0.1,0.0,0.0,0.0,0.0,0.0,0.0,0.0,0.0,0.0,0.0,0.0,1.1,0.1,0.0,0.1,4.8,23.81
Juazeiro,Salitre,Juazeiro,Juazeiro - Salitre,-9.5,-40.633,Norte,RPGA dos Rios Macururé e Curaçá,0.0,0.0,0.0,14.1,4.6,0.0,0.0,0.0,0.0,0.4,0.0,0.0,0.0,0.3,0.0,0.0,0.0,0.0,0.0,0.0,0.0,0.0,0.0,0.0,0.0,8.4,0.0,4.6,0.0,0.1,0.0,32.5
Irecê,VJ-CL-01,Irecê,Irecê - VJ-CL-01,-11.289000000000001,-41.894,Norte,RPGA dos Rios Verde e Jacaré,0.0,0.0,0.0,3.0,0.5,0.0,0.0,0.0,0.0,0.0,0.0,0.0,0.0,0.0,0.75,0.0,0.0,0.0,0.0,0.0,0.0,0.0,0.0,0.0,0.0,0.0,1.0,0.25,3.5,0.0,0.0,9.0
Juazeiro,Mandacaru,Juazeiro,Juazeiro - Mandacaru,-9.4,-40.433,Norte,RPGA dos Rios Macururé e Curaçá,0.0,0.0,0.0,7.9,17.0,0.0,0.0,0.0,0.8,0.5,0.0,0.0,0.0,8.4,0.0,0.0,0.0,0.0,0.0,0.0,0.0,0.0,0.0,0.0,0.0,16.5,0.3,0.0,0.0,0.0,0.0,51.4
Fazenda Dona Izeta,,Fazenda Dona Izeta,Fazenda Dona Izeta,-12.073,-45.49100000000001,Oeste,RPGA do Rio Grande,16.8,25.0,0.0,75.4,0.0,5.8,0.2,0.0,0.0,0.0,0.0,0.0,0.0,8.0,5.0,0.0,0.0,0.0,0.0,0.0,0.0,0.0,0.0,11.8,0.0,24.2,38.6,0.6,3.6,15.8,0.0,230.8
Fazenda Pró Café,,Fazenda Pró Café,Fazenda Pró Café,-12.161,-45.331,Oeste,RPGA do Rio Grande,46.6,27.0,0.0,56.6,0.0,8.6,0.0,0.0,0.0,0.0,0.0,0.0,0.0,2.4,0.2,0.0,0.0,0.0,0.0,0.0,0.0,0.0,0.0,13.2,0.0,8.4,1.0,3.0,3.0,6.4,2.0,178.4
Formosa do Rio Preto,A452,Formosa do Rio Preto,Formosa do Rio Preto - A452,-11.052,-45.201,Oeste,RPGA do Rio Grande,0.2,1.6,0.0,4.0,7.2,7.8,0.0,0.0,0.0,0.0,1.4,0.2,0.6,0.0,8.0,0.0,0.0,0.0,0.0,0.0,9.6,1.6,0.0,0.0,2.2,0.8,0.6,0.4,2.8,0.0,0.0,49.0
Barreiras,83236,Barreiras,Barreiras - 83236,-12.155999999999999,-45.008,Oeste,RPGA do Rio Grande,0.0,0.0,0.0,12.1,0.0,34.9,0.0,0.0,0.0,0.0,0.0,0.0,0.0,13.8,0.0,0.0,0.0,0.0,0.0,0.0,2.2,0.0,0.0,0.0,0.0,1.3,0.0,26.1,2.0,0.0,3.4,95.81
Fazenda Diamantina,,Fazenda Diamantina,Fazenda Diamantina,-12.636,-46.153999999999996,Oeste,RPGA do Rio Grande,0.2,4.0,1.8,22.6,8.6,3.4,1.4,0.6,0.2,0.0,0.0,0.0,0.2,2.6,5.6,0.2,0.0,0.0,0.0,0.0,10.4,0.2,0.0,0.0,0.0,3.8,8.0,7.4,4.8,8.4,10.8,105.21
Form. Rio Preto,46550000,Barreiras,Barreiras (Form. Rio Preto) - 46550000,-11.154000000000002,-45.00899999999999,Oeste,RPGA do Rio Grande,0.0,0.0,0.0,14.2,0.0,39.9,0.0,0.0,0.0,0.0,0.0,0.0,0.0,17.1,0.7,0.0,0.0,0.0,0.0,0.0,0.9,0.0,0.0,0.8,0.0,0.4,0.0,24.9,2.9,0.0,4.5,106.31
Correntina,45590000,Correntina,Correntina - 45590000,-13.341,-44.638999999999996,Oeste,"RPGA do Rio Corrente e Riachos do Ramalho, Serra Dourada e Brejo Velho",0.0,19.4,0.2,1.6,4.4,12.2,0.2,0.0,0.0,0.0,0.0,0.0,0.0,5.8,0.0,0.0,0.0,0.0,0.0,0.0,0.0,0.0,0.0,0.0,0.0,7.0,7.4,0.2,65.0,7.0,20.0,150.4
Mocambo,45740001,Correntina,Correntina (Mocambo) - 45740001,-13.286,-44.563,Oeste,"RPGA do Rio Corrente e Riachos do Ramalho, Serra Dourada e Brejo Velho",0.0,0.4,6.4,38.0,5.0,3.65,5.0,0.0,0.0,0.0,0.6,0.2,0.0,21.6,0.2,17.0,0.0,0.0,0.0,0.0,0.0,0.0,0.0,0.0,0.0,17.0,5.8,1.0,47.8,0.0,13.0,182.65
PCH Pres. Goulart-J,45600000,Correntina,Correntina (PCH Pres. Goulart-J) - 45600000,-13.334000000000001,-44.621,Oeste,"RPGA do Rio Corrente e Riachos do Ramalho, Serra Dourada e Brejo Velho",0.0,6.3,0.3,2.9,8.9,7.0,0.0,0.0,0.0,0.0,0.0,0.0,0.0,6.5,0.0,0.0,0.0,0.0,0.0,0.0,0.0,0.0,0.0,0.0,0.3,11.0,9.0,0.6,80.2,1.8,18.2,153.0
PCH Sítio Grande-J,46453500,São Desidério,São Desidério (PCH Sítio Grande-J) - 46453500,-12.429,-45.153,Oeste,RPGA do Rio Grande,0.0,6.3,0.0,55.7,10.2,4.5,3.6,2.4,1.5,0.3,0.0,0.0,2.7,0.0,11.8,0.3,0.0,0.0,0.0,0.0,0.0,0.0,0.0,0.0,0.0,8.9,3.9,2.4,1.5,1.5,1.2,118.71
Barreiras,A402,Barreiras,Barreiras - A402,-12.125,-45.027,Oeste,RPGA do Rio Grande,0.0,0.0,0.0,11.4,9.2,0.8,0.6,0.6,0.2,0.0,0.0,0.0,0.0,0.0,0.0,0.0,0.0,0.0,0.0,0.0,0.0,0.0,0.0,0.0,0.0,0.0,0.0,0.0,0.4,0.0,0.0,23.21
Luís Eduardo Magalhães,A404,Luís Eduardo Magalhães,Luís Eduardo Magalhães - A404,-12.152000000000001,-45.83,Oeste,RPGA do Rio Grande,0.0,0.2,17.2,24.6,9.8,4.4,13.0,8.0,0.2,0.0,0.0,0.0,0.0,1.0,0.4,0.0,0.0,0.0,0.0,0.0,0.0,0.0,3.6,0.0,0.0,0.6,15.2,16.2,1.6,0.0,0.2,116.2
Barra do Tapuio,,Barra do Tapuio,Barra do Tapuio,-11.095,-45.95,Oeste,RPGA do Rio Grande,3.4,0.6,0.0,9.0,0.2,42.2,21.0,2.8,0.0,0.0,1.6,6.4,4.6,8.8,14.2,0.0,0.2,0.0,0.0,0.0,5.6,2.2,30.2,0.4,0.0,3.0,2.0,28.8,0.2,1.0,3.2,191.6
J. Zoológico,A401,Salvador,Salvador (J. Zoológico) - A401,-13.005999999999998,-38.506,Recôncavo,RPGA do Recôncavo Norte,0.0,0.0,0.0,0.0,0.0,0.0,0.0,0.0,4.4,0.0,3.6,3.6,0.8,3.0,0.0,0.0,3.0,4.6,3.0,0.0,0.0,0.0,0.0,0.0,0.0,1.0,11.0,0.0,0.0,0.0,0.0,38.0
Cruz das Almas,A406,Cruz das Almas,Cruz das Almas - A406,-12.675,-39.09,Recôncavo,RPGA do Rio Paraguaçu,0.0,0.0,0.0,0.0,0.0,0.0,0.0,0.0,12.2,0.0,11.6,5.6,0.0,0.2,0.0,0.2,0.8,5.2,1.4,0.2,0.0,0.2,0.0,0.0,0.2,0.0,0.0,0.0,0.0,0.0,0.0,37.81
Hidro,290570101H,Camaçari,Camaçari (Hidro) - 290570101H,-12.714,-38.339,Recôncavo,RPGA do Recôncavo Norte,0.0,0.0,0.0,0.0,0.0,0.0,0.0,0.0,1.6,8.2,6.8,0.4,0.0,0.0,2.8,0.6,1.6,4.4,0.8,0.0,0.0,0.0,0.6,0.0,0.0,0.0,0.0,1.2,0.0,0.0,0.2,29.2
Valença,293290307H,Valença,Valença - 293290307H,-13.366,-39.077,Recôncavo,RPGA do Recôncavo Sul,0.0,0.0,0.0,0.0,0.0,0.0,11.6,0.0,2.4,17.8,24.8,21.2,0.0,1.2,5.0,1.4,3.8,8.8,1.8,0.0,0.0,0.0,6.2,7.4,0.4,0.0,2.8,10.8,0.2,0.0,0.0,127.61
Feira de Santana,A413,Feira de Santana,Feira de Santana - A413,-12.196,-38.967,Recôncavo,RPGA do Recôncavo Norte,0.0,0.0,0.0,0.0,0.0,0.0,17.6,0.0,0.0,0.0,12.8,1.6,0.0,0.0,0.0,0.0,0.0,0.0,0.0,0.0,0.0,0.0,0.0,0.0,0.0,0.0,0.0,0.0,0.0,0.0,0.0,32.0
Periperi,292740820A,Salvador,Salvador (Periperi) - 292740820A,-12.867,-38.458,Recôncavo,RPGA do Recôncavo Norte,0.0,0.0,0.0,0.0,0.0,0.0,0.0,0.0,13.0,24.6,10.4,1.4,0.0,0.2,0.0,0.0,0.0,3.0,0.0,0.0,0.0,0.0,0.0,0.0,0.0,0.0,0.0,0.6,0.0,0.0,0.0,53.2
Mussurunga,292740821A,Salvador,Salvador (Mussurunga) - 292740821A,-12.908,-38.44,Recôncavo,RPGA do Recôncavo Norte,0.0,0.0,0.0,0.0,0.0,0.0,0.0,0.0,7.8,6.5,10.4,2.0,0.2,1.4,0.0,1.0,0.4,8.0,0.4,2.2,0.0,0.0,0.0,15.2,0.0,0.0,0.0,0.0,0.0,0.0,0.6,56.1
Fazenda Coutos,292740822A,Salvador,Salvador (Fazenda Coutos) - 292740822A,-12.85,-38.461999999999996,Recôncavo,RPGA do Recôncavo Norte,0.0,0.0,0.0,0.0,0.0,0.0,0.0,0.0,7.6,18.2,13.0,1.0,0.0,0.4,0.0,0.0,0.0,2.4,0.0,0.0,0.0,0.0,0.0,0.0,2.0,0.0,0.0,0.0,0.6,0.0,1.0,46.2
Itapuã,292740819A,Salvador,Salvador (Itapuã) - 292740819A,-12.948,-38.37,Recôncavo,RPGA do Recôncavo Norte,0.0,0.0,0.0,0.0,0.0,0.0,0.0,0.0,5.0,12.8,0.2,1.4,0.2,0.0,0.4,0.0,0.0,3.8,0.0,0.0,0.0,0.0,0.0,14.4,0.6,0.2,0.0,0.0,0.0,0.0,0.0,39.0
Alagoinhas,83249,Alagoinhas,Alagoinhas - 83249,-12.148,-38.426,Recôncavo,RPGA do Recôncavo Norte,0.0,0.0,0.0,0.0,0.0,0.0,0.0,0.0,0.3,5.9,0.6,0.0,0.0,0.5,0.0,0.0,0.0,0.6,0.0,0.0,0.0,0.0,0.0,0.5,0.0,0.0,0.0,0.0,0.0,0.0,0.6,9.0
Tancredo Neves,292740823A,Salvador,Salvador (Tancredo Neves) - 292740823A,-12.945,-38.453,Recôncavo,RPGA do Recôncavo Norte,0.0,0.0,0.0,0.0,0.0,0.0,0.0,0.0,9.2,14.0,0.0,2.0,0.0,0.4,0.0,0.0,0.0,0.0,0.6,0.0,0.0,0.0,0.0,7.4,0.2,0.0,0.0,0.0,0.0,0.0,0.0,33.81
Polivalente,292860401A,Santo Amaro,Santo Amaro (Polivalente) - 292860401A,-12.552999999999999,-38.713,Recôncavo,RPGA do Recôncavo Norte,0.0,0.0,0.0,0.0,0.0,0.0,0.0,0.2,3.8,0.2,6.4,13.8,0.0,1.2,0.2,0.0,0.0,0.0,0.0,0.0,0.0,0.0,1.2,1.4,0.2,0.0,0.0,0.0,0.0,0.0,0.0,28.6
Povoado de Pedras,292860402A,Santo Amaro,Santo Amaro (Povoado de Pedras) - 292860402A,-12.55,-38.771,Recôncavo,RPGA do Recôncavo Norte,0.0,0.0,0.0,0.0,0.0,0.0,0.0,0.0,0.4,10.0,2.8,20.0,0.0,1.4,0.2,0.0,0.0,0.0,0.0,0.0,0.0,0.0,0.0,0.2,0.4,0.0,0.0,0.8,0.0,0.0,0.0,36.2
Camaçari,Tiririca,Camaçari,Camaçari - Tiririca,-12.512,-38.068000000000005,Recôncavo,RPGA do Recôncavo Norte,0.0,0.0,0.0,0.0,0.0,0.0,0.0,0.2,9.0,7.0,13.6,1.2,0.2,4.2,1.4,2.4,5.2,4.6,0.2,0.0,0.0,0.0,0.0,39.0,0.2,0.0,0.0,0.4,0.0,0.0,0.0,88.81
Cruz das Almas,83222,Cruz das Almas,Cruz das Almas - 83222,-12.667,-39.083,Recôncavo,RPGA do Rio Paraguaçu,0.0,0.0,0.0,0.0,0.0,0.0,0.0,0.0,7.4,22.4,13.5,5.9,0.0,0.0,0.0,0.0,0.8,5.3,1.0,0.0,0.0,0.0,0.0,0.0,0.0,0.0,0.0,0.0,0.0,0.0,0.0,56.3
Feira de Santana,83221,Feira de Santana,Feira de Santana - 83221,-12.196,-38.967,Recôncavo,RPGA do Recôncavo Norte,0.0,0.0,0.0,0.0,0.0,0.0,14.2,0.0,0.0,22.3,9.8,0.0,0.0,0.0,0.0,0.0,0.0,0.0,0.0,0.0,0.0,0.0,0.0,0.0,0.0,0.0,0.0,0.0,0.0,0.0,0.0,46.3
Amargosa,A434,Amargosa,Amargosa - A434,-13.009,-39.617,Recôncavo,RPGA do Recôncavo Sul,0.0,0.0,0.0,0.0,0.0,0.0,0.0,0.0,2.0,12.8,39.6,2.0,0.0,0.0,0.0,0.0,1.2,0.4,9.2,0.0,0.0,0.0,0.4,0.0,0.2,0.0,0.0,0.0,2.4,0.0,0.0,70.21
Valença,A444,Valença,Valença - A444,-13.344000000000001,-39.126999999999995,Recôncavo,RPGA do Recôncavo Sul,0.0,0.2,0.0,0.0,0.0,0.2,4.6,0.0,3.0,0.0,24.2,17.0,0.4,7.8,2.4,1.0,1.8,11.0,3.2,0.2,0.0,0.6,2.0,1.0,3.0,1.0,0.4,16.2,0.2,0.0,0.0,101.4
Candeias,EMBASA,Candeias,Candeias - EMBASA,-12.664000000000001,-38.533,Recôncavo,RPGA do Recôncavo Norte,0.0,0.0,0.0,0.0,0.0,0.0,0.0,0.0,0.0,0.3,3.5,1.5,0.0,0.0,0.0,0.0,0.0,0.0,0.0,0.0,0.0,0.0,0.0,0.0,0.0,0.0,0.0,0.0,0.0,0.0,0.0,5.3
Dias D´Ávila,EMBASA,Dias D´Ávila,Dias D´Ávila - EMBASA,-12.620999999999999,-38.315,Recôncavo,RPGA do Recôncavo Norte,0.0,0.0,0.0,0.0,0.0,0.0,0.0,0.0,28.7,2.3,1.1,1.5,0.0,8.7,0.0,0.0,0.0,0.0,0.0,0.0,0.0,0.0,0.0,0.0,0.0,0.0,0.0,0.0,0.0,0.0,0.0,42.3
São Sebastião do Passé-EMBASA,,São Sebastião do Passé-EMBASA,São Sebastião do Passé-EMBASA,-12.517000000000001,-38.492,Recôncavo,RPGA do Recôncavo Norte,0.0,0.0,0.0,0.0,0.0,0.0,0.0,0.0,1.2,6.4,0.0,0.0,0.0,0.0,0.0,0.0,0.4,0.0,0.0,0.0,0.0,0.0,0.0,0.0,0.0,0.0,0.0,0.0,0.0,0.0,0.0,8.0
Joanes II,EMBASA,Camaçari,Camaçari (Joanes II) - EMBASA,-12.677,-38.375,Recôncavo,RPGA do Recôncavo Norte,0.0,0.0,0.0,0.0,0.0,0.0,0.0,0.0,3.2,4.1,11.0,2.0,0.0,0.7,0.0,0.0,5.1,0.0,0.0,0.0,0.0,0.0,0.0,0.0,0.0,0.0,0.0,0.0,0.0,0.0,0.0,26.1
S. Helena)-EMBASA,,Dias D´Ávila,Dias D´Ávila(S. Helena)-EMBASA,-12.564,-38.161,Recôncavo,RPGA do Recôncavo Norte,0.0,0.0,0.0,0.0,0.0,0.0,0.0,0.0,0.8,22.0,12.4,3.2,0.0,0.0,0.0,0.0,1.6,0.0,0.0,0.0,0.0,0.0,5.7,0.0,0.0,0.0,0.0,0.0,0.0,0.0,0.0,45.71
Ondina,83229,Salvador,Salvador (Ondina) - 83229,-13.005,-38.506,Recôncavo,RPGA do Recôncavo Norte,0.0,0.0,0.0,0.0,0.0,0.0,0.0,0.0,4.6,19.4,3.2,0.2,0.7,2.6,0.0,0.0,4.0,4.9,3.0,0.0,0.0,0.0,0.0,24.5,0.0,1.4,9.0,0.0,0.0,0.0,0.0,77.5
Centro,292740802A,Salvador,Salvador (Centro) - 292740802A,-12.978,-38.516,Recôncavo,RPGA do Recôncavo Norte,0.0,0.0,0.0,0.0,0.0,0.0,0.0,0.0,2.6,15.6,1.8,0.0,5.1,2.0,0.0,0.0,1.0,2.4,0.4,0.0,0.0,0.0,0.2,12.6,0.2,1.4,1.4,0.2,0.0,0.0,0.2,47.1
São tomé de Paripe,292740806A,Salvador,Salvador (São tomé de Paripe) - 292740806A,-12.796,-38.489000000000004,Recôncavo,RPGA do Recôncavo Norte,0.0,0.0,0.0,0.0,0.2,0.0,0.0,0.0,2.0,0.2,1.8,0.2,0.4,0.4,0.0,0.2,0.0,1.0,0.2,0.0,0.0,0.0,0.0,0.8,0.0,0.0,0.0,0.0,0.2,0.0,0.0,7.61
Federação,292740803A,Salvador,Salvador (Federação) - 292740803A,-13.001,-38.510999999999996,Recôncavo,RPGA do Recôncavo Norte,0.0,0.0,0.0,0.0,0.0,0.0,0.0,0.0,3.3,16.5,1.4,1.0,0.8,2.4,0.0,0.0,0.8,4.3,1.6,0.0,0.0,0.6,1.4,21.0,1.0,0.0,13.0,0.0,0.0,0.0,0.2,69.3
Nova Esperança,292740818A,Salvador,Salvador (Nova Esperança) - 292740818A,-12.860999999999999,-38.368,Recôncavo,RPGA do Recôncavo Norte,0.0,0.0,0.0,0.0,0.0,0.0,0.0,0.0,2.6,13.7,6.8,6.7,0.0,0.0,1.6,0.0,0.0,1.4,0.0,0.0,0.0,0.0,0.0,2.0,0.2,0.0,0.0,0.0,0.0,0.0,0.2,35.21
Caminho das Árvores,292740815A,Salvador,Salvador (Caminho das Árvores) - 292740815A,-12.977,-38.454,Recôncavo,RPGA do Recôncavo Norte,0.0,0.0,0.0,0.0,0.0,0.0,0.0,0.0,1.8,17.0,0.0,3.4,0.2,14.2,0.0,0.0,1.0,0.6,1.4,0.0,0.0,0.0,0.0,13.8,0.0,0.0,0.0,0.0,0.0,0.0,0.0,53.4
Alto do Peru,292740812A,Salvador,Salvador (Alto do Peru) - 292740812A,-12.939,-38.486,Recôncavo,RPGA do Recôncavo Norte,0.0,0.0,0.0,0.0,0.0,0.0,0.0,0.0,7.4,9.7,3.6,3.6,0.0,1.6,0.0,0.0,0.0,0.8,0.0,0.0,0.0,0.0,0.0,3.6,2.0,0.0,2.4,0.0,0.0,0.0,0.0,34.71
CAB,292740811A,Salvador,Salvador (CAB) - 292740811A,-12.943,-38.421,Recôncavo,RPGA do Recôncavo Norte,0.0,0.0,0.0,0.0,0.0,0.0,0.0,0.0,6.52,11.8,4.0,0.0,0.0,3.6,0.0,0.0,0.8,0.4,1.6,0.0,0.0,0.0,0.0,4.6,1.2,0.6,5.7,0.0,0.0,0.0,0.0,40.83
Cosme de Farias,292740816A,Salvador,Salvador (Cosme de Farias) - 292740816A,-12.979000000000001,-38.486,Recôncavo,RPGA do Recôncavo Norte,0.0,0.0,0.0,0.0,0.0,0.0,0.0,0.0,3.3,11.5,0.6,0.0,3.7,0.0,0.2,0.0,0.8,0.8,0.8,0.0,0.0,0.0,0.0,14.8,0.2,0.0,0.0,0.0,0.0,0.0,0.6,37.31
São Caetano,292740814A,Salvador,Salvador (São Caetano) - 292740814A,-12.94,-38.475,Recôncavo,RPGA do Recôncavo Norte,0.0,0.0,0.0,0.0,0.0,0.0,0.0,0.0,2.6,1.6,0.8,0.2,0.4,0.2,0.2,0.0,0.2,0.0,0.0,0.0,0.0,0.0,0.0,2.6,1.6,0.0,0.0,0.0,0.0,0.0,0.0,10.4
Pirajá,292740801A,Salvador,Salvador (Pirajá) - 292740801A,-12.899000000000001,-38.459,Recôncavo,RPGA do Recôncavo Norte,0.0,0.0,0.0,0.0,0.0,0.0,0.0,0.0,8.6,7.9,5.0,3.4,0.0,0.0,0.0,0.0,1.4,12.2,1.6,0.0,0.0,0.0,0.0,3.6,0.0,0.0,0.0,0.4,0.0,0.0,0.0,44.1
Valéria,292740817A,Salvador,Salvador (Valéria) - 292740817A,-12.864,-38.438,Recôncavo,RPGA do Recôncavo Norte,0.0,0.0,0.0,0.0,0.0,0.0,0.0,0.0,10.4,35.0,13.8,1.4,0.0,0.2,0.0,0.0,0.0,2.8,0.0,0.0,0.0,0.0,0.0,0.0,0.0,0.0,5.5,0.4,0.0,0.0,1.0,70.5
Santa Terezinha,290650105A,Candeias,Candeias (Santa Terezinha) - 290650105A,-12.647,-38.539,Recôncavo,RPGA do Recôncavo Norte,0.0,0.0,0.0,0.0,0.0,0.0,0.0,0.0,1.4,1.2,6.2,4.0,0.0,0.0,0.0,0.0,0.2,0.4,1.4,0.0,0.0,0.0,0.0,0.2,0.0,0.0,0.0,0.0,0.0,0.0,0.0,15.0
Centro,290650101A,Candeias,Candeias (Centro) - 290650101A,-12.67,-38.544000000000004,Recôncavo,RPGA do Recôncavo Norte,0.0,0.0,0.0,0.0,0.0,0.0,0.0,0.0,1.3,1.0,3.6,3.2,1.0,0.0,0.0,0.0,0.2,0.8,0.4,0.0,0.0,0.0,0.0,0.0,0.0,0.0,0.0,0.0,0.0,0.0,0.2,11.71
Sarandi,290650104A,Candeias,Candeias (Sarandi) - 290650104A,-12.671,-38.531,Recôncavo,RPGA do Recôncavo Norte,0.0,0.0,0.0,0.0,0.0,0.0,0.0,0.0,2.2,5.9,6.9,1.4,0.0,0.0,0.0,0.2,0.2,2.6,0.0,0.0,0.0,0.0,0.0,0.2,0.0,0.0,0.0,0.0,0.0,0.0,0.0,19.6
Itinga,291920703A,Lauro de Freitas,Lauro de Freitas (Itinga) - 291920703A,-12.892000000000001,-38.336,Recôncavo,RPGA do Recôncavo Norte,0.0,0.0,0.0,0.0,0.0,0.0,0.0,1.6,9.4,12.8,13.4,1.6,1.0,1.6,0.0,0.0,0.0,5.9,0.0,0.0,0.4,0.0,0.0,16.7,0.0,0.0,0.0,0.0,0.0,0.0,0.0,64.4
Dois de Julho,291120401A,Gandú,Gandú (Dois de Julho) - 291120401A,-13.741,-39.483000000000004,Recôncavo,RPGA do Recôncavo Sul,0.0,0.0,0.0,0.0,0.0,0.0,0.0,0.0,1.0,3.0,15.2,14.5,14.5,19.8,6.1,0.2,6.3,0.1,4.9,0.8,0.0,0.0,0.0,0.0,9.9,0.0,0.0,2.2,3.2,0.0,0.0,101.7
PC Fazenda Jurema,51346050,Rafael Jambeiro,Rafael Jambeiro (PC Fazenda Jurema) - 51346050,-12.488,-39.698,Recôncavo,RPGA do Rio Paraguaçu,0.0,0.0,0.0,0.0,0.8,0.0,0.0,0.0,1.3,2.6,5.1,1.1,0.0,0.0,0.3,0.0,0.0,1.1,0.3,0.0,0.0,0.0,0.0,0.0,0.0,0.0,0.0,0.0,0.0,0.0,0.0,12.61
PC Argoim,51351000,Rafael Jambeiro,Rafael Jambeiro (PC Argoim) - 51351000,-12.587,-39.522,Recôncavo,RPGA do Rio Paraguaçu,0.0,0.0,0.0,0.0,0.0,0.0,0.0,0.3,1.1,8.1,3.5,0.0,0.0,0.0,0.0,0.0,0.0,5.3,0.3,0.0,0.0,0.0,0.0,0.0,0.5,0.0,0.0,0.0,0.5,0.0,0.0,19.6
PC Rio Paratigi,51370000,Santo Estevão,Santo Estevão (PC Rio Paratigi) - 51370000,-12.515,-39.383,Recôncavo,RPGA do Rio Paraguaçu,0.0,0.0,0.0,0.0,0.0,0.0,0.0,0.0,1.1,1.8,1.9,1.3,0.0,0.0,0.0,0.0,0.0,1.0,0.0,0.0,0.0,0.0,0.0,0.0,0.0,0.0,0.0,0.0,0.0,0.0,0.0,7.11
Feira de Santana,PC Rio Branco,Feira de Santana,Feira de Santana - PC Rio Branco,-12.232999999999999,-39.046,Recôncavo,RPGA do Rio Paraguaçu,0.0,0.0,0.0,0.0,0.0,2.5,1.3,0.0,0.0,1.0,9.7,0.6,0.0,0.8,0.0,0.0,0.0,0.5,0.0,0.0,0.0,0.0,0.0,0.0,0.0,0.0,0.0,0.0,0.0,0.0,6.0,22.4
Abaeté,RN-PR-01,Salvador,Salvador (Abaeté) - RN-PR-01,-12.945,-38.361,Recôncavo,RPGA do Recôncavo Norte,0.0,0.0,0.0,0.0,0.0,0.0,0.0,0.0,4.0,9.0,2.7,1.9,0.2,0.0,0.4,0.0,0.0,3.7,0.0,8.7,0.0,0.0,0.0,13.1,0.4,0.0,0.0,0.0,0.0,0.0,0.0,44.1
Espinheira,,Espinheira,Espinheira,-14.283,-41.758,Sudoeste,RPGA do Rio de Contas,0.0,0.0,0.0,8.0,0.0,0.0,0.0,0.0,0.0,0.0,0.0,0.0,0.0,0.0,0.0,0.0,0.0,0.0,0.0,0.0,0.0,0.0,0.0,0.0,0.0,0.0,0.0,0.0,0.0,0.0,0.0,8.0
Cândido Sales,53620000,Cândido Sales,Cândido Sales - 53620000,-15.513,-41.236999999999995,Sudoeste,RPGA do Rio Pardo,0.0,0.0,0.0,15.2,0.2,0.0,0.0,0.0,0.0,3.4,2.2,0.0,0.0,0.0,0.6,0.0,0.0,0.0,0.0,0.0,0.0,0.0,0.0,0.0,0.0,0.0,49.6,6.6,0.0,0.0,0.0,77.8
Itiruçu,A407,Itiruçu,Itiruçu - A407,-13.526,-40.121,Sudoeste,RPGA do Recôncavo Sul,0.0,0.0,0.0,0.0,21.0,0.0,0.0,0.0,2.0,3.4,17.2,1.0,0.0,0.0,0.2,0.0,0.2,0.2,0.2,0.0,0.0,0.0,0.0,0.0,0.2,8.0,0.0,0.0,3.6,0.0,0.0,57.21
Hidro,291640103H,Itapetinga,Itapetinga (Hidro) - 291640103H,-15.243,-40.234,Sudoeste,RPGA do Rio Pardo,0.0,0.0,0.0,4.6,0.0,0.0,0.0,0.0,0.0,13.8,0.0,0.0,0.0,0.0,0.0,0.0,0.0,0.0,0.0,0.0,0.0,0.0,0.0,0.0,0.0,0.6,0.0,0.0,0.0,0.0,0.0,19.0
Vitória da Conquista,A414,Vitória da Conquista,Vitória da Conquista - A414,-14.886,-40.801,Sudoeste,RPGA do Rio Pardo,0.0,0.0,0.0,99.4,1.0,0.0,0.0,0.0,0.0,0.0,0.6,1.6,0.0,0.0,0.0,0.0,0.0,0.2,0.8,0.0,0.0,0.0,0.0,0.0,0.2,4.0,0.2,0.0,2.6,0.0,0.0,110.6
Ituaçu,83292,Ituaçu,Ituaçu - 83292,-13.812999999999999,-41.3,Sudoeste,RPGA do Rio de Contas,0.0,0.0,0.0,0.0,9.8,0.0,0.0,0.0,0.0,1.0,9.2,0.0,0.0,0.0,0.0,0.0,0.0,0.0,0.0,0.0,0.0,0.0,0.0,0.0,0.0,0.0,0.0,10.8,0.0,0.0,0.0,30.8
Vitória da Conquista,83344,Vitória da Conquista,Vitória da Conquista - 83344,-14.883,-40.8,Sudoeste,RPGA do Rio Pardo,0.0,0.0,0.0,105.6,0.0,0.0,0.0,0.0,0.0,4.8,0.2,1.8,0.0,0.0,0.0,0.0,0.0,0.0,0.8,0.0,0.0,0.0,0.0,0.0,0.0,4.2,0.0,0.1,2.4,0.0,0.0,119.9
Brumado,A433,Brumado,Brumado - A433,-14.182,-41.672,Sudoeste,RPGA do Rio de Contas,0.0,0.0,0.0,4.0,0.0,0.0,0.0,0.0,0.0,0.2,1.2,0.0,0.0,0.0,0.0,0.0,0.0,0.0,0.0,0.0,0.0,0.0,0.0,0.0,0.0,0.0,2.0,0.8,0.0,0.0,0.0,8.21
Ipiaú,A445,Ipiaú,Ipiaú - A445,-14.171,-39.693000000000005,Sudoeste,RPGA do Rio de Contas,0.0,0.0,0.0,0.0,0.0,0.0,0.0,0.0,2.0,0.0,1.4,3.0,3.0,1.8,7.6,0.2,1.0,10.0,11.2,4.0,0.0,1.0,0.0,0.0,2.2,1.2,0.0,0.4,2.8,0.0,0.0,52.81
Itapetinga,A446,Itapetinga,Itapetinga - A446,-15.245,-40.23,Sudoeste,RPGA do Rio Pardo,0.0,0.0,0.0,2.4,0.0,0.0,0.0,0.0,0.2,0.0,0.0,1.0,0.0,0.0,0.0,0.0,0.0,0.0,0.0,0.0,0.0,0.0,0.0,0.0,0.0,1.8,0.0,0.0,1.2,0.0,0.0,6.61
Anagé,CO-CL-01,Anagé,Anagé - CO-CL-01,-14.618,-41.15,Sudoeste,RPGA do Rio de Contas,0.0,0.0,0.0,9.25,1.0,0.0,0.0,0.0,0.0,0.75,0.25,0.0,0.0,0.0,0.5,0.0,0.0,0.0,1.3,0.0,0.0,0.0,0.0,0.0,0.0,0.0,0.25,0.0,0.0,0.0,0.0,13.3
Centro,293330701A,Vitória da Conquista,Vitória da Conquista (Centro) - 293330701A,-14.852,-40.839,Sudoeste,RPGA do Rio Pardo,0.0,0.0,0.0,58.1,0.0,0.0,0.0,0.0,0.0,2.2,0.4,1.2,1.0,0.0,27.6,0.0,0.0,0.2,0.0,0.0,0.0,0.0,0.0,0.0,0.0,0.0,0.0,1.0,0.0,0.0,0.0,91.7
Centro,291710201A,Itororó,Itororó (Centro) - 291710201A,-15.119000000000002,-40.065,Sudoeste,RPGA do Leste,0.0,0.0,0.0,0.2,0.0,0.0,0.0,0.0,3.3,2.7,11.8,3.6,0.4,0.0,0.2,0.2,0.0,0.0,0.0,0.0,0.0,0.0,0.4,0.0,0.0,0.0,0.0,0.0,0.4,0.0,0.0,23.2
Clerolândia,291640101A,Itapetinga,Itapetinga (Clerolândia) - 291640101A,-15.243,-40.221,Sudoeste,RPGA do Rio Pardo,0.0,0.0,0.0,0.4,0.0,0.0,0.0,0.0,0.2,9.8,1.2,0.0,0.0,0.0,0.0,0.0,0.0,0.0,0.0,0.0,0.0,0.0,0.0,0.0,0.0,0.2,0.0,0.0,0.6,0.0,0.0,12.4
Recreio,293330702A,Vitória da Conquista,Vitória da Conquista (Recreio) - 293330702A,-14.860999999999999,-40.841,Sudoeste,RPGA do Rio Pardo,0.0,0.0,0.0,56.5,0.0,0.0,0.0,0.0,0.0,2.0,0.0,2.8,0.0,0.0,23.2,0.0,0.0,0.0,0.0,0.0,0.0,0.0,0.0,0.0,0.0,0.0,0.0,0.0,0.0,0.0,0.0,84.5
Patagônia,293330704A,Vitória da Conquista,Vitória da Conquista (Patagônia) - 293330704A,-14.87,-40.863,Sudoeste,RPGA do Rio Pardo,0.0,0.0,0.2,64.5,0.0,0.0,0.0,0.0,0.0,1.8,0.2,0.0,0.0,16.9,0.0,0.0,0.0,0.0,1.0,0.0,0.0,0.0,0.0,0.0,0.0,0.2,1.8,2.0,0.2,0.0,0.0,88.8
Barcelar,293330705A,Vitória da Conquista,Vitória da Conquista (Barcelar) - 293330705A,-14.838,-40.856,Sudoeste,RPGA do Rio Pardo,0.0,0.0,0.0,65.1,0.0,0.0,0.0,0.0,0.0,1.0,2.8,2.2,0.2,0.0,11.6,0.2,0.0,0.4,0.2,0.2,0.0,0.0,0.0,0.0,0.0,0.0,0.2,0.2,0.0,0.2,0.0,84.51
Lomantão,293330703A,Vitória da Conquista,Vitória da Conquista (Lomantão) - 293330703A,-14.87,-40.827,Sudoeste,RPGA do Rio Pardo,0.0,0.0,0.0,56.9,0.0,0.0,0.0,0.0,0.0,2.6,0.0,3.2,0.8,0.0,7.7,0.0,0.0,0.0,0.6,0.0,0.0,0.0,0.0,0.0,0.0,2.5,0.0,0.0,1.0,0.0,0.0,75.3
Jaguaquara,RS-CL-01,Jaguaquara,Jaguaquara - RS-CL-01,-13.573,-39.941,Sudoeste,RPGA do Recôncavo Sul,0.0,0.0,0.0,0.0,0.0,0.0,0.0,0.0,1.75,2.5,14.5,3.2,0.0,0.0,0.75,0.0,4.3,0.5,4.8,0.0,0.0,0.0,0.0,0.0,0.0,0.0,0.0,1.5,7.75,0.0,0.0,41.55
Jequié,CO-CL-03,Jequié,Jequié - CO-CL-03,-13.873,-40.071999999999996,Sudoeste,RPGA do Rio de Contas,0.0,0.0,0.0,0.0,0.0,0.0,0.0,0.0,0.0,5.5,36.0,0.25,0.0,0.0,0.0,0.0,0.0,0.0,24.3,0.0,0.0,0.0,0.0,0.0,0.0,0.0,0.0,0.0,0.4,0.0,0.0,66.45
Vitória da Conquista,PA-CL-01,Vitória da Conquista,Vitória da Conquista - PA-CL-01,-14.886,-40.801,Sudoeste,RPGA do Rio Pardo,0.0,0.0,0.0,105.25,0.75,0.0,0.0,0.0,0.0,4.0,0.25,1.5,0.0,0.0,0.0,0.0,0.0,0.0,0.5,0.0,0.0,0.0,0.0,0.0,0.0,4.25,0.0,0.0,2.25,0.0,0.0,118.75
PCH Cach. da Lixa M,55354000,Jucuruçu,Jucuruçu (PCH Cach. da Lixa M) - 55354000,-17.067,-40.069,Sul,"RPGA dos Rios Peruípe, Itanhém e Jucuruçu",0.0,4.3,0.0,0.3,0.3,0.0,0.0,0.0,2.4,28.4,0.8,0.8,7.8,0.0,1.6,0.0,0.0,0.0,0.0,0.0,0.0,0.0,0.0,0.0,1.8,0.0,46.6,0.0,2.4,0.0,0.0,97.5
Caravelas,A405,Caravelas,Caravelas - A405,-17.739,-39.259,Sul,"RPGA dos Rios Peruípe, Itanhém e Jucuruçu",0.0,0.0,0.0,0.0,0.0,0.6,0.0,1.2,1.0,0.0,0.0,2.4,2.2,0.0,0.0,0.0,0.0,0.0,0.0,0.0,0.0,0.0,0.8,0.0,6.4,0.2,0.0,9.2,9.6,0.0,0.0,33.6
Ilhéus,A410,Ilhéus,Ilhéus - A410,-14.659,-39.181,Sul,RPGA do Leste,0.0,0.2,0.0,0.0,0.2,0.8,0.2,3.4,9.2,0.0,13.4,3.8,1.8,0.8,4.2,8.8,2.8,2.8,3.8,0.0,0.2,1.0,1.2,0.0,25.0,0.2,1.2,11.4,0.4,0.0,0.6,97.4
Itamaraju,A455,Itamaraju,Itamaraju - A455,-17.171,-39.588,Sul,"RPGA dos Rios Peruípe, Itanhém e Jucuruçu",0.0,0.0,0.0,0.2,0.0,0.0,0.0,0.0,11.2,0.2,0.2,1.0,1.0,0.0,0.0,6.6,0.0,0.0,0.0,0.0,0.0,0.0,0.0,5.2,1.6,3.4,0.4,0.4,5.2,0.0,0.0,36.6
Rio Cachoeira,291480202H,Itabuna,Itabuna (Rio Cachoeira) - 291480202H,-14.800999999999998,-39.279,Sul,RPGA do Leste,0.0,0.0,0.0,0.0,0.0,0.0,0.0,3.4,26.4,27.6,7.8,7.4,1.6,0.0,16.0,1.2,0.0,0.0,0.0,0.0,0.0,0.0,0.2,2.6,21.6,0.0,1.6,2.4,5.2,0.0,0.0,125.01
Itajuípe,,Itajuípe,Itajuípe,-14.674000000000001,-39.376999999999995,Sul,RPGA do Leste,0.0,0.0,0.0,0.0,0.0,0.2,0.2,4.4,6.6,30.4,5.2,0.2,0.2,3.8,10.0,3.6,0.2,1.2,0.6,0.2,0.0,0.0,0.0,0.2,50.8,0.6,0.0,1.4,10.2,0.0,0.0,130.2
Canavieiras,83398,Canavieiras,Canavieiras - 83398,-15.667,-38.95,Sul,RPGA do Rio Pardo,0.0,0.0,0.0,0.0,0.0,0.0,0.0,3.6,11.4,11.2,1.3,0.0,0.0,0.0,0.0,0.0,0.0,0.0,0.0,0.0,0.0,0.0,5.1,4.0,5.6,3.0,3.1,80.9,0.0,0.0,0.0,129.21
Caravelas,83498,Caravelas,Caravelas - 83498,-17.739,-39.258,Sul,"RPGA dos Rios Peruípe, Itanhém e Jucuruçu",0.0,0.0,0.0,0.0,0.0,2.3,0.0,0.0,0.7,0.0,0.0,9.0,4.0,0.0,0.0,0.0,0.0,0.0,0.0,0.0,0.0,0.0,0.0,3.5,15.6,0.0,0.0,20.8,6.3,0.0,0.0,62.2
Guaratinga,83446,Guaratinga,Guaratinga - 83446,-16.58,-39.78,Sul,"RPGA dos Rios dos Frades, Buranhém e Santo Antônio",0.0,0.0,0.0,0.0,0.0,0.0,0.0,0.0,6.0,18.7,1.0,0.0,7.0,0.0,0.0,0.0,0.0,1.4,0.0,0.0,0.0,0.0,0.0,0.9,6.0,0.0,20.8,1.4,0.0,0.0,0.0,63.2
Maraú,A438,Maraú,Maraú - A438,-13.907,-38.972,Sul,RPGA do Recôncavo Sul,0.0,0.0,0.0,0.0,0.6,0.0,0.0,0.0,17.0,3.2,19.0,5.2,1.4,9.8,0.0,0.4,0.6,5.8,2.4,1.6,0.0,9.6,0.0,1.0,12.6,0.0,0.0,0.0,0.0,0.0,0.0,90.2
Una,A437,Una,Una - A437,-15.28,-39.091,Sul,RPGA do Leste,0.4,0.0,0.0,0.0,0.0,0.0,0.0,1.0,3.4,1.0,18.2,3.6,0.2,0.8,16.2,4.4,0.2,0.2,0.0,0.0,0.0,0.0,0.2,0.2,11.4,0.0,1.4,14.4,0.0,0.0,0.2,77.4
Porto Seguro,A427,Porto Seguro,Porto Seguro - A427,-16.389,-39.181999999999995,Sul,"RPGA dos Rios dos Frades, Buranhém e Santo Antônio",0.0,0.0,0.0,0.0,0.0,0.0,0.0,0.0,15.0,0.0,0.4,18.4,5.0,0.0,7.2,0.0,0.0,0.2,0.0,0.0,0.2,0.0,0.0,0.0,4.6,2.2,1.6,4.0,0.2,0.0,0.0,59.01
Belmonte,A447,Belmonte,Belmonte - A447,-16.085,-39.217,Sul,"RPGA dos Rios dos Frades, Buranhém e Santo Antônio",0.2,0.0,0.0,0.0,0.0,0.0,0.0,0.0,0.0,0.2,0.2,0.0,0.0,0.2,0.0,0.0,0.0,0.2,0.0,0.0,0.0,0.0,0.0,0.0,0.0,0.0,0.0,0.2,0.0,0.0,0.0,1.2
Centro,290560201A,Camacan,Camacan (Centro) - 290560201A,-15.422,-39.495,Sul,RPGA do Rio Pardo,0.0,0.0,0.0,0.0,0.0,0.0,0.0,0.0,4.7,6.8,1.8,18.4,3.8,6.6,6.4,0.8,0.0,0.8,0.0,0.0,0.0,0.0,0.0,0.0,1.6,0.0,5.8,0.2,6.2,0.0,0.0,63.9
Teixeira de Freitas,PJ-CL-01,Teixeira de Freitas,Teixeira de Freitas - PJ-CL-01,-17.576,-39.733000000000004,Sul,"RPGA dos Rios Peruípe, Itanhém e Jucuruçu",0.0,0.0,0.0,0.0,0.0,0.0,0.0,0.0,5.75,18.7,0.0,1.2,23.25,0.0,0.0,0.0,0.0,0.0,0.0,0.0,0.0,0.0,0.0,0.0,7.25,9.25,0.0,0.0,0.0,0.0,0.0,65.4
Itabuna,Fazenda Barra,Itabuna,Itabuna - Fazenda Barra,-14.9,-39.369,Sul,RPGA do Leste,0.0,0.0,0.0,0.0,0.0,0.0,0.0,1.6,13.0,27.4,16.8,14.2,2.0,1.0,39.6,6.4,3.0,0.0,0.0,0.0,0.0,2.0,2.2,5.4,28.6,0.0,0.0,3.4,0.0,0.0,0.0,166.6
Centro,290340901A,Belmonte,Belmonte (Centro) - 290340901A,-15.859000000000002,-38.878,Sul,RPGA do Rio Jequitinhonha,0.0,0.0,0.0,0.0,0.0,0.0,0.0,0.0,4.5,17.6,1.0,18.7,0.0,0.0,6.3,0.0,0.8,0.0,0.6,0.0,0.0,0.6,0.0,2.6,11.1,3.2,4.5,61.7,0.0,0.0,0.0,133.2
São João do Panelinha,290560202A,Camacan,Camacan (São João do Panelinha) - 290560202A,-15.375,-39.49,Sul,RPGA do Rio Pardo,0.0,0.0,0.0,0.0,0.0,0.0,0.0,0.0,6.1,18.15,5.1,9.9,2.6,0.0,9.3,0.0,1.2,0.0,0.0,0.0,0.0,0.0,0.0,0.0,5.9,0.0,2.8,4.3,8.9,0.0,0.0,74.26
Centro,290560203A,Camacan,Camacan (Centro) - 290560203A,-15.415999999999999,-39.494,Sul,RPGA do Rio Pardo,0.0,0.0,0.0,0.0,0.0,0.0,0.0,0.0,5.3,10.3,3.0,19.7,6.3,0.0,4.6,0.0,0.0,2.2,0.0,0.0,0.0,0.0,0.0,0.0,2.4,0.2,5.5,0.0,13.8,6.6,0.0,79.9
Malhado,291360602A,Ilhéus,Ilhéus (Malhado) - 291360602A,-14.789000000000001,-39.049,Sul,RPGA do Leste,0.0,0.0,0.0,0.0,0.0,0.0,1.8,0.2,13.0,27.0,12.0,6.1,0.2,0.2,6.7,5.7,0.6,0.0,0.0,0.0,0.6,2.0,4.1,14.3,15.4,0.2,0.2,14.6,0.2,1.2,0.0,126.3
São Caetano,291480202A,Itabuna,Itabuna (São Caetano) - 291480202A,-14.806,-39.278,Sul,RPGA do Leste,0.0,0.0,0.0,0.0,0.0,0.0,0.0,2.2,33.0,27.5,12.3,10.5,0.8,1.8,6.7,0.8,0.4,0.0,0.0,0.0,0.0,0.0,0.0,1.6,21.2,0.2,1.4,2.4,5.9,0.0,0.0,128.71
Nova Ferradas,291480203A,Itabuna,Itabuna (Nova Ferradas) - 291480203A,-14.857000000000001,-39.347,Sul,RPGA do Leste,0.0,0.0,0.0,0.0,0.0,0.0,0.0,0.0,8.8,37.0,23.6,7.3,5.9,1.6,47.4,0.6,1.0,0.4,0.4,0.0,0.0,0.0,1.9,7.5,21.8,0.0,4.9,4.1,3.9,0.0,0.0,178.11
Planalto I,292110401A,Medeiros Neto,Medeiros Neto (Planalto I) - 292110401A,-17.365,-40.223,Sul,"RPGA dos Rios Peruípe, Itanhém e Jucuruçu",0.0,1.6,0.0,0.0,0.0,0.0,0.0,0.0,16.0,5.5,0.0,3.0,5.7,0.0,0.0,0.0,0.0,0.0,0.0,0.0,0.0,0.0,0.0,0.0,7.7,0.0,0.4,0.0,0.0,0.0,0.0,39.9
Areião,292530301A,Porto Seguro,Porto Seguro (Areião) - 292530301A,-16.441,-39.076,Sul,"RPGA dos Rios dos Frades, Buranhém e Santo Antônio",0.0,0.0,0.0,0.0,0.0,0.0,0.0,0.0,6.22,11.4,0.0,9.5,0.2,0.0,4.9,0.0,0.0,0.2,0.0,0.0,0.0,0.0,0.0,0.4,0.0,0.0,0.0,0.4,0.0,0.0,0.0,33.22
Paraguai,292530302A,Porto Seguro,Porto Seguro (Paraguai) - 292530302A,-16.41,-39.08,Sul,"RPGA dos Rios dos Frades, Buranhém e Santo Antônio",0.0,0.0,0.0,0.0,0.0,0.0,0.0,0.0,0.39,6.6,0.8,2.8,9.6,1.2,1.2,0.0,0.4,0.0,0.0,0.0,0.0,0.0,0.2,1.2,0.8,1.4,0.0,5.0,1.8,0.0,0.2,33.59
Trancoso,292530303A,Porto Seguro,Porto Seguro (Trancoso) - 292530303A,-16.595,-39.109,Sul,"RPGA dos Rios dos Frades, Buranhém e Santo Antônio",0.0,0.0,0.0,0.0,0.0,0.0,0.2,0.0,2.37,8.9,0.0,1.2,1.0,0.2,0.0,0.2,18.7,0.0,0.0,0.0,0.0,0.0,0.0,3.7,0.2,8.9,0.2,0.0,0.0,0.0,0.0,45.77
BR367km4,292770501A,Santa Cruz Cabrália,Santa Cruz Cabrália (BR367km4) - 292770501A,-16.320999999999998,-39.023,Sul,"RPGA dos Rios dos Frades, Buranhém e Santo Antônio",0.0,0.0,0.0,0.0,0.0,0.0,0.6,0.0,14.7,3.5,0.4,6.7,1.8,0.0,6.3,0.2,0.0,0.0,0.0,0.0,0.0,0.0,0.2,9.1,0.8,0.0,0.0,24.0,0.0,0.0,0.0,68.3
Estádio Municipal,291530401A,Itagimirim,Itagimirim (Estádio Municipal) - 291530401A,-16.089000000000002,-39.616,Sul,RPGA do Rio Jequitinhonha,0.0,0.0,0.0,0.0,0.0,0.0,0.0,0.0,1.8,6.7,0.0,2.8,0.0,0.0,0.0,0.0,0.0,0.0,0.0,0.0,0.0,0.0,0.0,0.0,2.6,0.0,4.3,0.0,4.9,0.0,0.0,23.1
Jusante,54945000,Itapebi,Itapebi (Jusante) - 54945000,-15.949000000000002,-39.523,Sul,RPGA do Rio Jequitinhonha,0.0,0.0,0.0,6.1,0.0,0.0,0.0,0.0,0.3,42.9,0.0,4.3,2.5,0.0,8.9,0.0,0.0,0.3,1.5,0.0,0.0,0.0,3.5,1.3,0.0,0.0,0.0,2.8,6.1,0.0,0.0,80.5
Morpará,46360000,Morpará,Morpará - 46360000,-11.558,-43.282,São Francisco,RPGA dos Rios Paramirim e Santo Onofre,0.0,0.0,0.0,0.0,0.0,0.0,0.0,0.0,0.0,0.0,0.0,0.0,0.0,0.0,0.0,0.0,0.0,0.0,0.0,0.0,0.0,0.0,0.0,0.0,0.0,0.0,0.0,0.0,0.0,0.0,0.0,0.0
Santa Maria da Vitória,ANA,Santa Maria da Vitória,Santa Maria da Vitória - ANA,-13.401,-44.251000000000005,São Francisco,"RPGA do Rio Corrente e Riachos do Ramalho, Serra Dourada e Brejo Velho",0.0,0.0,0.0,6.8,4.8,5.4,0.4,0.0,0.0,0.0,0.2,0.0,0.0,1.2,0.0,0.2,0.2,0.0,0.0,0.0,0.2,0.0,0.0,0.0,0.0,44.8,0.2,21.0,25.2,1.8,27.4,139.8
Macaúbas,A454,Macaúbas,Macaúbas - A454,-13.039000000000001,-42.617,São Francisco,RPGA dos Rios Paramirim e Santo Onofre,0.2,0.0,16.6,1.0,28.8,0.6,0.0,0.0,0.0,0.0,1.0,0.0,0.4,0.0,0.0,0.0,0.0,0.0,0.0,0.0,0.0,0.0,0.0,0.0,0.0,2.2,0.0,1.2,0.2,0.2,0.0,52.41
Santa Rita de Cássia,A415,Santa Rita de Cássia,Santa Rita de Cássia - A415,-11.003,-44.525,São Francisco,RPGA do Rio Grande,0.0,0.0,0.0,4.6,0.0,13.4,2.4,0.0,0.0,0.0,0.8,0.4,1.2,3.8,0.0,0.0,0.0,0.0,0.0,0.0,1.8,0.0,0.0,0.0,3.2,7.0,0.0,0.0,2.8,0.0,0.6,42.0
Bom Jesus da Lapa,A418,Bom Jesus da Lapa,Bom Jesus da Lapa - A418,-13.251,-43.405,São Francisco,RPGA do Rio Carnaíba de Dentro,0.0,0.0,2.4,0.0,30.0,1.0,0.0,0.0,0.0,0.0,6.6,0.0,0.0,0.4,0.0,0.0,0.0,0.0,0.0,0.0,0.0,0.0,0.0,0.0,0.0,20.8,0.6,9.6,7.0,0.0,7.6,86.0
Barra,83179,Barra,Barra - 83179,-11.083,-43.167,São Francisco,RPGA do Rio Grande,0.0,0.0,0.0,2.4,0.0,7.1,0.0,0.0,0.0,0.0,0.0,0.0,0.0,0.0,3.7,0.0,0.0,0.0,0.0,0.0,0.0,0.0,0.0,0.0,0.0,22.4,0.0,7.3,1.2,0.0,0.0,44.1
Bom Jesus da Lapa,83288,Bom Jesus da Lapa,Bom Jesus da Lapa - 83288,-13.251,-43.405,São Francisco,RPGA do Rio Carnaíba de Dentro,0.0,0.0,2.2,0.0,28.6,1.4,0.0,0.0,0.0,0.0,7.0,0.0,0.0,0.9,0.0,0.0,0.0,0.0,0.0,0.0,0.0,0.0,0.0,0.0,0.0,21.0,1.0,10.0,6.9,0.0,7.8,86.8
Caetité,83339,Caetité,Caetité - 83339,-14.067,-42.483000000000004,São Francisco,RPGA do Rio de Contas,0.0,0.0,0.2,22.0,5.4,0.0,0.0,0.0,0.0,0.0,30.6,0.0,0.0,0.0,0.0,0.0,0.0,0.0,0.0,0.0,0.0,0.0,0.0,0.0,0.0,0.0,0.0,11.4,0.0,0.0,7.4,77.01
Carinhanha,83408,Carinhanha,Carinhanha - 83408,-14.283,-43.766999999999996,São Francisco,"RPGA do Rio Corrente e Riachos do Ramalho, Serra Dourada e Brejo Velho",0.0,17.3,0.0,0.5,11.8,0.2,1.8,0.0,0.0,0.0,0.0,0.0,0.0,0.0,0.0,0.0,0.0,0.0,0.0,0.0,0.0,0.0,0.0,0.0,0.0,12.8,0.5,0.0,0.0,4.2,2.3,51.41
Santa Rita de Cássia,83076,Santa Rita de Cássia,Santa Rita de Cássia - 83076,-11.017000000000001,-44.516999999999996,São Francisco,RPGA do Rio Grande,0.2,0.0,0.0,5.2,0.0,14.2,2.4,0.0,0.0,0.0,1.0,0.0,0.3,1.2,4.2,0.0,0.0,0.0,0.0,0.0,2.0,0.0,0.0,0.0,3.2,8.0,0.0,0.0,3.0,0.0,1.0,45.9
Barra,A429,Barra,Barra - A429,-11.085,-43.138999999999996,São Francisco,RPGA do Rio Grande,0.4,0.0,0.0,3.2,0.0,8.4,0.4,0.0,0.0,0.0,0.0,0.0,0.0,0.0,4.2,0.0,0.0,0.0,0.0,0.0,0.0,0.0,0.0,0.0,0.0,24.4,0.0,6.8,3.2,0.0,0.0,51.0
Ibotirama,A439,Ibotirama,Ibotirama - A439,-12.193,-43.213,São Francisco,RPGA dos Rios Paramirim e Santo Onofre,0.0,8.4,1.2,18.0,0.0,1.8,0.0,0.0,0.0,0.0,0.0,0.0,0.0,0.4,0.0,0.0,0.0,0.0,0.0,0.0,0.0,0.2,0.0,0.0,0.0,5.6,0.0,0.0,4.8,0.0,33.4,73.8
Faz. Macambira,46675000,Cotegipe,Cotegipe (Faz. Macambira) - 46675000,-11.610999999999999,-44.157,São Francisco,RPGA do Rio Grande,0.0,0.0,4.0,1.4,0.2,16.8,0.0,0.0,0.0,0.0,0.0,0.0,0.0,0.4,0.0,0.0,0.0,0.0,0.0,0.0,0.0,0.0,0.0,0.0,0.0,9.6,0.2,0.0,0.0,0.0,0.0,32.6
