nome_estacao,codigo,municipio,estacao,latitude,longitude,regiao,rpga,01_04_15,02_04_15,03_04_15,04_04_15,05_04_15,06_04_15,07_04_15,08_04_15,09_04_15,10_04_15,11_04_15,12_04_15,13_04_15,14_04_15,15_04_15,16_04_15,17_04_15,18_04_15,19_04_15,20_04_15,21_04_15,22_04_15,23_04_15,24_04_15,25_04_15,26_04_15,27_04_15,28_04_15,29_04_15,30_04_15,total
Itaberaba,A408,Itaberaba,Itaberaba - A408,-12.524062,-40.299714,Chapada Diamantina,RPGA do Rio Paraguaçu,0.0,0.0,0.0,0.0,0.0,0.0,0.0,17.2,0.2,0.0,4.6,0.8,0.0,0.0,0.0,0.0,0.0,0.0,1.2,0.0,0.0,0.0,0.2,0.0,0.0,0.6,26.6,10.8,0.0,0.0,62.2
Macajuba,A412,Macajuba,Macajuba - A412,-12.131694,-40.354222,Chapada Diamantina,RPGA do Rio Paraguaçu,0.0,0.0,0.0,0.0,0.0,0.0,0.0,4.4,0.4,0.4,5.8,7.2,0.0,0.0,0.0,0.0,0.0,0.0,6.4,0.0,0.0,0.0,0.0,0.0,0.2,0.0,0.0,1.0,0.0,2.4,28.2
Itaberaba,83244,Itaberaba,Itaberaba - 83244,-12.516667,-40.283333,Chapada Diamantina,RPGA do Rio Paraguaçu,0.0,0.0,0.0,0.0,0.0,0.0,0.0,17.4,0.0,0.0,4.4,0.3,0.0,0.0,0.0,0.0,0.0,0.0,1.0,0.0,0.0,0.0,0.2,0.0,0.0,0.5,29.5,10.7,0.0,0.0,64.0
Lençóis,83242,Lençóis,Lençóis - 83242,-12.5575,-41.388889,Chapada Diamantina,RPGA do Rio Paraguaçu,0.0,0.0,0.0,0.0,0.0,0.0,0.0,28.8,5.0,1.3,0.7,0.2,7.7,0.0,4.2,0.0,1.8,0.0,0.0,0.0,0.0,0.0,0.0,0.0,0.0,22.6,61.3,16.5,0.0,0.9,151.01
Morro do Chapéu,83184,Morro do Chapéu,Morro do Chapéu - 83184,-11.216667,-41.216667,Chapada Diamantina,RPGA do Rio Salitre,0.0,0.0,0.0,0.0,0.0,1.9,2.8,0.2,0.2,0.4,7.4,2.5,0.0,0.0,0.0,18.2,0.0,0.0,0.0,0.0,0.0,0.0,0.0,0.0,0.0,0.0,19.4,7.9,0.4,0.0,61.3
Piatã,A430,Piatã,Piatã - A430,-13.155681,-41.774125,Chapada Diamantina,RPGA do Rio de Contas,0.0,0.0,0.0,0.0,0.0,51.6,0.0,0.2,5.2,0.6,3.8,0.6,0.0,4.8,0.0,0.0,0.0,0.0,0.0,0.4,0.0,0.0,0.0,0.0,17.4,0.6,51.6,0.4,0.2,4.8,142.21
Lençóis,A425,Lençóis,Lençóis - A425,-12.557854,-41.388808,Chapada Diamantina,RPGA do Rio Paraguaçu,0.0,0.0,0.0,0.0,0.0,0.0,0.0,28.4,5.4,1.4,0.8,0.2,7.8,0.0,4.6,0.0,2.0,0.0,0.0,0.0,0.0,0.0,0.0,0.0,0.0,22.2,57.6,16.0,0.0,1.0,147.4
Itaetê,,Itaetê,Itaetê,-12.991944,-40.960833,Chapada Diamantina,RPGA do Rio Paraguaçu,0.0,0.0,0.0,0.0,0.0,0.0,0.0,62.4,0.2,0.0,1.2,0.0,0.0,0.0,0.0,0.0,0.0,0.0,0.0,5.6,0.2,0.0,0.0,0.8,0.2,9.2,10.2,28.4,0.2,4.6,123.2
Lagoa Bonita,PG-PR-15,Iacú,Iacú (Lagoa Bonita) - PG-PR-15,-12.931506,-40.226468,Chapada Diamantina,RPGA do Rio Paraguaçu,0.0,0.0,0.0,0.0,1.0,0.0,0.0,43.0,1.75,0.0,0.0,0.0,0.0,0.0,0.0,0.0,0.0,0.0,0.0,0.0,0.0,0.0,0.0,0.0,0.0,0.0,5.25,3.25,0.0,1.75,56.0
João Amaro,PG-PR-16,Iaçu,Iaçu (João Amaro) - PG-PR-16,-12.800391,-40.363139,Chapada Diamantina,RPGA do Rio Paraguaçu,0.0,0.0,0.0,0.0,0.0,0.0,0.0,16.5,0.25,0.0,0.25,0.0,0.0,0.0,0.0,0.0,0.0,0.0,0.0,0.0,0.0,0.0,0.0,2.0,0.25,0.0,0.75,11.5,0.0,0.0,31.5
Boa Vista Tupim,PG-PR-17,Boa Vista Tupim,Boa Vista Tupim - PG-PR-17,-12.65622,-40.589813,Chapada Diamantina,RPGA do Rio Paraguaçu,0.0,0.0,0.0,0.0,0.0,0.0,0.0,8.75,0.25,0.0,14.0,0.0,0.0,0.0,0.0,0.0,0.0,0.0,0.0,0.0,0.0,0.0,0.0,0.0,0.0,2.0,2.25,30.0,0.25,0.0,57.5
Ruy Barbosa,PG-PR-18,Ruy Barbosa,Ruy Barbosa - PG-PR-18,-12.285653,-40.513698,Chapada Diamantina,RPGA do Rio Paraguaçu,0.0,0.0,0.0,0.0,0.0,0.0,0.0,84.25,0.0,0.0,3.75,4.25,0.0,0.0,0.0,0.0,0.0,23.0,0.25,0.0,0.0,0.0,0.0,0.0,0.5,0.0,0.0,0.0,0.0,0.0,116.0
Wagner,PG-PR-22,Wagner,Wagner - PG-PR-22,-12.289538,-41.161774,Chapada Diamantina,RPGA do Rio Paraguaçu,0.0,0.0,0.0,0.0,0.0,0.0,12.0,3.0,0.5,0.0,12.0,0.0,0.0,0.0,0.0,0.0,0.0,0.0,0.0,0.0,0.0,0.0,0.0,0.0,1.75,0.0,8.25,6.75,0.0,0.0,44.25
Utinga,PG-PR-23,Utinga,Utinga - PG-PR-23,-12.030089,-41.058714,Chapada Diamantina,RPGA do Rio Paraguaçu,0.0,0.0,0.0,0.0,0.0,0.0,0.0,4.0,0.0,0.0,6.25,0.0,0.0,0.0,0.0,0.0,0.0,0.0,0.0,0.0,0.0,0.0,0.0,0.0,0.0,0.0,8.25,35.25,0.25,0.0,54.0
Guiné,PG-PR-24,Mucugê,Mucugê (Guiné) - PG-PR-24,-12.771772,-41.540679,Chapada Diamantina,RPGA do Rio Paraguaçu,0.0,0.0,0.0,0.0,0.5,0.0,0.0,4.0,1.5,0.0,0.5,0.0,0.0,0.0,0.0,0.0,0.0,0.0,16.0,0.0,0.0,0.0,0.0,0.0,0.0,0.0,4.25,19.0,32.75,0.0,78.5
Cascavel,PG-PR-27,Mucugê,Mucugê (Cascavel) - PG-PR-27,-13.285954,-41.287619,Chapada Diamantina,RPGA do Rio Paraguaçu,0.0,0.0,0.0,0.0,0.0,1.75,0.0,2.5,12.25,0.0,0.25,0.0,0.0,0.0,0.0,0.0,0.75,0.25,0.0,8.5,0.0,0.0,9.75,0.0,0.75,0.0,30.75,2.25,1.5,10.0,81.25
Mulungu do Morro,,Mulungu do Morro,Mulungu do Morro,-11.980363,-41.619012,Chapada Diamantina,RPGA do Rio Paraguaçu,0.0,0.0,0.0,0.0,0.0,0.0,1.4,18.8,0.0,0.4,7.0,0.0,0.0,0.0,0.0,0.0,1.4,0.0,0.0,0.0,0.0,0.0,0.0,0.0,0.0,0.0,22.8,0.0,0.4,0.2,52.4
Barro Alto,,Barro Alto,Barro Alto,-11.769188,-41.909464,Chapada Diamantina,RPGA dos Rios Verde e Jacaré,0.0,0.0,0.0,0.0,0.0,0.0,17.4,0.0,0.0,0.0,2.4,0.0,0.0,0.0,0.0,0.0,0.0,0.0,0.0,0.0,0.0,0.0,0.0,0.0,0.0,0.0,35.8,4.0,0.2,0.0,59.8
Canarana,,Canarana,Canarana,-11.69541,-41.78921,Chapada Diamantina,RPGA dos Rios Verde e Jacaré,0.0,0.0,0.0,0.0,0.0,0.0,26.8,5.2,0.0,0.0,7.4,0.0,0.0,0.0,0.0,0.0,0.0,0.0,0.0,0.0,0.0,0.0,0.0,0.0,0.0,0.0,53.2,67.6,0.0,5.0,165.2
Barra dos Mendes,,Barra dos Mendes,Barra dos Mendes,-11.805077,-42.05708,Chapada Diamantina,RPGA dos Rios Verde e Jacaré,0.0,0.0,0.0,0.0,0.0,0.0,3.4,29.6,0.0,0.0,8.8,0.0,0.0,0.0,0.0,0.0,0.0,0.0,0.0,0.0,0.0,0.0,0.0,0.0,0.0,0.4,52.8,14.4,0.0,0.0,109.4
Olho D'Água do Francisco,,Olho D'Água do Francisco,Olho D'Água do Francisco,-12.307034,-42.079028,Chapada Diamantina,RPGA dos Rios Verde e Jacaré,0.0,0.0,0.0,0.0,0.0,0.0,0.2,0.2,0.0,0.0,0.0,0.0,0.0,0.0,0.0,0.0,0.0,0.0,0.0,0.0,0.0,0.0,0.0,0.0,0.0,0.0,23.2,0.0,0.0,0.0,23.6
América Dourada,,América Dourada,América Dourada,-11.464848,-41.442615,Chapada Diamantina,RPGA dos Rios Verde e Jacaré,0.0,0.0,0.0,0.0,0.0,0.0,1.4,0.0,0.0,0.0,5.2,0.0,0.0,0.0,0.0,0.0,0.0,0.0,0.0,0.0,0.0,0.0,0.0,0.0,0.0,0.0,20.0,12.8,0.4,0.0,39.81
Cafarnaum,,Cafarnaum,Cafarnaum,-11.676688,-41.470143,Chapada Diamantina,RPGA dos Rios Verde e Jacaré,0.0,0.0,0.0,0.0,0.0,0.0,0.0,6.4,0.0,0.0,3.0,0.0,0.0,0.0,0.0,0.0,0.0,0.0,0.0,0.0,0.0,0.0,0.0,0.0,0.0,0.0,6.8,0.0,0.0,0.0,16.2
Ibiaporã,PG-CL-01,Mundo Novo,Mundo Novo (Ibiaporã) - PG-CL-01,-12.05379,-40.83722,Chapada Diamantina,RPGA do Rio Paraguaçu,0.0,0.0,0.0,0.0,0.0,0.0,0.0,2.25,0.25,2.0,27.5,1.25,0.0,0.0,0.0,0.0,0.0,0.0,0.0,0.0,0.0,0.0,0.0,0.0,0.0,0.0,1.25,3.5,0.0,3.25,41.25
Marcionílio Souza,PG-CL-03,Marcionílio Souza,Marcionílio Souza - PG-CL-03,-13.00021,-40.537783,Chapada Diamantina,RPGA do Rio Paraguaçu,0.0,0.0,0.0,0.0,0.0,0.0,0.0,12.5,0.0,0.0,0.0,2.0,0.0,0.0,33.5,0.25,0.0,0.0,0.0,19.75,0.0,0.0,0.0,0.0,0.25,0.0,5.75,21.25,0.0,0.0,95.25
Iraquara,PG-PR-02,Iraquara,Iraquara - PG-PR-02,-12.255093,-41.61679,Chapada Diamantina,RPGA do Rio Paraguaçu,0.0,0.0,0.0,0.0,0.0,0.0,0.75,23.25,0.25,0.0,6.25,0.0,0.0,0.0,0.0,0.0,0.0,0.0,0.0,0.0,0.0,0.0,0.0,0.0,0.0,0.0,4.0,0.75,0.0,0.5,35.75
Ventura,PG-PR-10,Morro do Chapéu,Morro do Chapéu (Ventura) - PG-PR-10,-11.650911,-40.951765,Chapada Diamantina,RPGA do Rio Paraguaçu,0.0,0.0,0.0,0.0,0.0,0.0,0.0,43.5,0.0,0.0,2.5,0.75,0.25,0.0,0.0,0.5,0.0,0.0,0.0,0.0,0.0,0.0,0.0,0.0,0.0,0.0,7.25,13.75,0.0,0.0,68.5
Bonito,PG-PR-11,Bonito,Bonito - PG-PR-11,-11.98993,-41.25429,Chapada Diamantina,RPGA do Rio Paraguaçu,0.0,0.0,0.0,0.0,0.0,0.0,8.25,18.5,0.75,3.0,17.5,1.0,0.5,0.0,0.0,0.0,0.0,0.0,0.0,0.75,0.0,0.0,0.0,0.0,0.0,0.0,25.0,28.5,0.5,0.25,104.5
Piatã,CO-CL-04,Piatã,Piatã - CO-CL-04,-13.164166,-41.770833,Chapada Diamantina,RPGA do Rio de Contas,0.0,0.0,0.0,0.0,0.0,43.75,2.25,1.5,1.75,0.25,2.0,0.25,0.0,6.5,0.0,0.0,0.0,0.0,0.0,0.0,0.0,0.0,0.0,0.0,10.25,0.0,12.5,0.5,0.0,4.75,86.25
Coronel João Sá,EBDA,Coronel João Sá,Coronel João Sá - EBDA,-10.284624,-37.917698,Nordeste,RPGA do Rio Vaza-Barris,0.0,0.0,0.0,0.0,0.0,0.0,0.0,3.2,1.4,0.0,0.0,1.0,0.0,0.0,0.0,0.0,0.0,0.0,0.0,0.0,0.0,0.0,0.0,0.0,0.0,0.0,0.0,0.0,0.0,0.0,5.6
Paulo Afonso,A411,Paulo Afonso,Paulo Afonso - A411,-9.379325,-38.227424,Nordeste,RPGA dos Rios Macururé e Curaçá,0.0,0.0,0.0,0.0,0.0,0.0,0.0,5.6,0.2,0.0,0.0,0.2,0.0,0.0,0.0,0.0,0.0,0.0,0.0,1.2,0.0,0.0,0.0,36.8,0.2,0.0,0.0,0.0,0.0,0.0,44.2
Cipó,83192,Cipó,Cipó - 83192,-11.083333,-38.516667,Nordeste,RPGA do Rio Itapicuru,0.0,0.0,0.0,0.0,10.1,0.0,0.0,8.4,0.0,1.6,0.0,1.2,6.6,27.2,0.0,0.0,0.0,0.0,0.0,0.0,0.1,0.0,0.0,0.0,0.0,0.0,0.0,1.8,0.0,0.0,57.0
Jacobina,83186,Jacobina,Jacobina - 83186,-11.172778,-40.534167,Nordeste,RPGA do Rio Itapicuru,0.0,0.0,0.0,0.0,100.0,0.0,0.0,8.4,0.8,1.0,19.9,2.4,0.0,0.6,0.5,0.9,0.0,0.0,0.0,0.0,0.0,0.0,0.0,0.0,7.1,0.0,70.4,22.6,0.0,0.1,234.7
Monte Santo,83090,Monte Santo,Monte Santo - 83090,-10.4425,-39.331111,Nordeste,RPGA do Rio Itapicuru,0.0,0.0,0.0,0.0,0.0,0.0,4.3,25.0,2.7,3.5,0.2,0.0,5.0,1.0,0.3,0.0,0.0,0.0,0.0,0.0,0.0,0.0,0.0,5.0,2.0,0.0,1.8,7.0,0.0,0.0,57.8
Paulo Afonso,82986,Paulo Afonso,Paulo Afonso - 82986,-9.379325,-38.227424,Nordeste,RPGA dos Rios Macururé e Curaçá,0.0,0.0,0.0,0.0,0.0,0.0,0.0,5.3,0.0,0.0,0.0,0.1,0.0,0.0,0.0,0.0,0.0,0.0,0.0,0.9,0.0,0.0,0.0,37.0,0.0,0.0,0.0,0.0,0.0,0.0,43.3
Serrinha,83190,Serrinha,Serrinha - 83190,-11.633333,-38.966667,Nordeste,RPGA do Recôncavo Norte,0.0,0.0,0.0,0.0,1.5,0.0,0.0,11.8,0.0,1.1,8.4,0.6,0.0,4.4,7.0,2.7,0.0,0.0,0.0,0.0,0.0,0.2,0.0,0.0,32.6,0.0,34.2,0.4,0.0,1.2,106.11
Conde,A431,Conde,Conde - A431,-12.03622,-37.68322,Nordeste,RPGA do Rio Itapicuru,0.0,0.2,0.0,0.0,12.6,0.0,0.0,0.0,2.2,5.0,25.8,6.2,11.6,25.4,20.6,16.0,0.8,6.2,1.6,0.2,0.0,0.0,0.0,0.6,0.0,0.0,20.4,0.6,0.0,0.0,156.0
Uauá,A435,Uauá,Uauá - A435,-9.833617,-39.495631,Nordeste,RPGA do Rio Vaza-Barris,0.0,0.0,0.0,0.0,0.8,0.0,0.0,11.8,0.8,0.0,0.4,0.6,0.0,0.0,0.0,0.0,0.0,0.0,0.0,0.0,23.4,0.0,0.0,18.0,1.0,0.0,6.2,31.6,0.0,0.0,94.6
Euclides da Cunha,A442,Euclides da Cunha,Euclides da Cunha - A442,-10.537233,-38.996605,Nordeste,RPGA do Rio Itapicuru,0.0,0.0,0.0,0.0,0.4,0.0,0.0,41.0,1.2,0.2,1.2,0.0,0.0,0.0,0.0,0.2,0.0,2.2,0.0,0.0,0.0,0.0,3.0,0.0,0.2,0.0,43.6,18.4,0.0,0.0,111.61
Queimadas,A436,Queimadas,Queimadas - A436,-10.984645,-39.617009,Nordeste,RPGA do Rio Itapicuru,0.0,0.0,0.0,0.0,0.0,0.0,0.0,1.6,0.0,11.2,1.2,1.2,15.6,2.6,3.2,0.0,0.0,0.0,0.0,0.0,0.0,0.0,0.0,0.6,0.0,0.0,15.8,0.0,2.6,2.0,57.6
Pedras Altas,50430000,Capim Grosso,Capim Grosso (Pedras Altas) - 50430000,-11.18288,-40.04725,Nordeste,RPGA do Rio Itapicuru,0.0,0.0,0.0,0.0,2.4,0.4,0.0,0.0,0.0,0.2,9.0,0.8,2.6,0.0,0.0,0.0,0.0,0.0,0.0,5.6,0.2,0.0,0.0,0.0,0.0,0.0,76.0,0.4,0.0,0.0,97.61
Ponto Novo,50380000,Ponto Novo,Ponto Novo - 50380000,-10.845,-40.1128,Nordeste,RPGA do Rio Itapicuru,0.0,0.0,0.0,0.0,0.0,0.0,0.0,0.0,0.0,0.8,2.4,0.2,60.6,1.2,11.6,0.0,0.0,0.0,0.0,0.0,0.0,0.0,0.0,0.0,0.0,0.0,67.6,10.6,0.2,0.0,155.2
Ipirá,PG-CL-02,Ipirá,Ipirá - PG-CL-02,-12.14986,-39.76454,Nordeste,RPGA do Rio Paraguaçu,0.0,0.0,0.0,0.0,0.0,0.0,0.0,126.75,0.0,0.25,0.0,0.0,0.25,0.0,0.0,0.5,0.0,0.0,2.25,0.0,0.0,0.0,0.0,0.0,4.0,0.0,0.0,0.0,0.0,0.0,134.0
Serrinha,RN-CL-02,Serrinha,Serrinha - RN-CL-02,-11.648333,-38.982777,Nordeste,RPGA do Recôncavo Norte,0.0,0.0,0.0,0.0,34.0,0.0,0.0,1.25,0.0,0.75,9.75,1.75,0.0,0.0,0.25,3.75,0.0,0.0,0.0,0.0,0.0,0.25,0.0,9.0,2.5,0.0,66.25,2.5,0.0,7.0,139.0
Valente,PG-PR-04,Valente,Valente - PG-PR-04,-11.40119,-39.458099,Nordeste,RPGA do Rio Paraguaçu,0.0,0.0,0.0,0.0,0.0,0.5,0.0,6.0,0.0,0.0,0.0,2.25,0.0,0.0,0.25,2.25,0.0,0.0,0.0,0.5,1.25,0.0,0.0,0.0,0.25,0.0,28.75,1.0,3.75,0.0,46.75
Pintadas,PG-PR-05,Pintadas,Pintadas - PG-PR-05,-11.837311,-39.969786,Nordeste,RPGA do Rio Paraguaçu,0.0,0.0,0.0,0.0,0.0,0.0,0.0,23.5,1.0,0.0,20.5,3.5,0.0,0.0,0.0,0.25,0.0,0.0,0.25,0.0,0.0,0.0,0.0,0.0,0.0,0.0,2.75,0.75,0.0,0.0,52.5
Centro,293010501A,Senhor do Bonfim,Senhor do Bonfim (Centro) - 293010501A,-10.464,-40.19,Nordeste,RPGA do Rio Itapicuru,0.0,0.0,0.0,0.0,1.0,0.0,24.5,0.0,0.0,0.0,5.1,2.0,0.0,0.2,0.0,0.0,0.0,0.0,0.0,0.0,0.0,0.0,0.0,6.9,0.0,0.0,27.4,0.0,0.0,0.0,67.1
Itapeipu,IT-PR-34,Jacobina,Jacobina (Itapeipu) - IT-PR-34,-11.315629,-40.356742,Nordeste,RPGA do Rio Itapicuru,0.0,0.0,0.0,0.0,11.25,0.0,0.0,2.25,3.0,2.0,17.75,0.25,0.25,0.0,0.25,2.25,0.0,0.0,0.0,0.0,1.0,0.0,0.0,0.0,0.0,0.0,116.75,5.25,0.0,1.5,163.75
Tombador Araújo,IT-PR-36,Jacobina,Jacobina (Tombador Araújo) - IT-PR-36,-11.168677,-40.670642,Nordeste,RPGA do Rio Itapicuru,0.0,0.0,0.0,0.0,96.25,0.0,0.0,9.5,1.75,5.5,23.25,4.25,0.25,1.75,0.25,0.75,0.0,0.0,0.0,0.0,0.0,0.0,0.0,0.0,0.0,0.0,36.75,22.25,0.0,0.0,202.5
Riacho da Onça,IT-PR-15,Queimadas,Queimadas (Riacho da Onça) - IT-PR-15,-11.24424,-39.790055,Nordeste,RPGA do Rio Itapicuru,0.0,0.0,0.0,0.0,0.5,0.0,0.0,1.75,0.0,0.0,0.25,0.25,0.0,0.25,0.0,2.0,0.0,0.0,0.0,0.0,0.25,0.0,0.0,0.0,0.0,0.0,24.75,0.25,0.0,0.0,30.25
Santaluz,IT-PR-17,Santaluz,Santaluz - IT-PR-17,-11.24831,-39.37563,Nordeste,RPGA do Rio Itapicuru,0.0,0.0,0.0,0.0,0.0,0.0,0.0,29.0,0.75,0.0,3.5,0.25,2.5,3.0,1.5,6.0,0.0,0.0,0.0,1.0,0.0,0.0,0.0,0.0,2.5,0.0,7.5,0.0,0.0,0.0,57.5
Açude Monteiro,IT-PR-23,Nordestina,Nordestina (Açude Monteiro) - IT-PR-23,-10.77645,-39.559491,Nordeste,RPGA do Rio Itapicuru,0.0,0.0,0.0,0.0,0.0,0.0,0.0,1.75,0.0,0.25,0.0,2.5,0.5,1.0,1.5,0.5,0.0,1.0,0.25,0.0,0.0,0.0,0.5,0.0,0.0,0.0,4.25,0.0,0.0,4.25,18.25
Pedra Vermelha,IT-PR-24,Monte Santo,Monte Santo (Pedra Vermelha) - IT-PR-24,-10.454497,-39.559488,Nordeste,RPGA do Rio Itapicuru,0.0,0.0,0.0,0.0,0.0,0.0,4.5,43.5,7.0,0.0,0.0,0.0,1.5,0.75,0.25,0.0,0.0,0.0,0.0,0.0,0.0,0.0,0.0,0.0,0.0,0.0,0.5,6.75,0.0,0.0,64.75
Quijingue,IT-PR-25,Quijingue,Quijingue - IT-PR-25,-10.783951,-39.20809,Nordeste,RPGA do Rio Itapicuru,0.0,0.0,0.0,0.0,0.0,0.0,0.0,0.75,0.25,0.75,4.75,3.75,1.75,0.0,0.0,0.0,0.0,0.0,0.0,0.0,0.0,1.5,0.0,0.0,0.0,0.0,2.0,0.0,2.0,0.0,17.5
Conde,IT-PR-31,Conde,Conde - IT-PR-31,-11.813434,-37.616927,Nordeste,RPGA do Rio Itapicuru,0.0,0.0,0.0,0.0,11.0,0.0,0.0,0.0,1.75,4.0,24.75,5.75,10.5,23.0,18.25,13.75,0.0,5.25,1.0,0.0,0.0,0.0,0.0,0.25,0.0,0.0,17.5,0.25,0.0,0.0,137.0
Curral Falso,IT-PR-01,Ribeira do Pombal,Ribeira do Pombal (Curral Falso) - IT-PR-01,-10.697843,-38.5714,Nordeste,RPGA do Rio Itapicuru,0.0,0.0,0.0,0.0,0.0,0.0,0.0,9.25,0.0,3.5,10.75,0.25,0.75,16.75,28.25,0.25,0.0,0.0,0.0,0.0,0.0,0.0,0.0,0.0,0.0,0.0,0.0,8.5,0.0,0.0,78.25
Aribicé,IT-PR-02,Euclides da Cunha,Euclides da Cunha (Aribicé) - IT-PR-02,-10.557835,-38.793352,Nordeste,RPGA do Rio Itapicuru,0.0,0.0,0.0,0.0,0.0,0.0,0.0,22.0,0.25,1.25,12.5,0.0,0.0,1.0,9.5,0.0,0.0,0.0,0.0,0.0,0.0,0.0,0.0,0.0,0.0,0.0,7.0,8.5,0.0,0.0,62.0
Ribeira do Pombal,IT-PR-04,Ribeira do Pombal,Ribeira do Pombal - IT-PR-04,-10.823399,-38.545844,Nordeste,RPGA do Rio Itapicuru,0.0,0.0,0.0,0.0,0.0,0.0,0.0,0.25,0.0,2.25,3.0,0.25,0.5,11.5,2.25,0.0,0.0,0.0,0.0,1.25,0.0,0.0,0.0,0.0,0.0,0.0,0.0,0.25,3.0,0.0,24.5
BR 116 E. Cunha / Tucano,IT-PR-05,Quijingue,Quijingue (BR 116 E. Cunha / Tucano) - IT-PR-05,-10.7105,-38.9227,Nordeste,RPGA do Rio Itapicuru,0.0,0.0,0.0,0.0,0.0,0.0,0.0,26.5,0.0,1.5,1.5,0.0,0.0,0.75,7.25,0.0,0.0,0.0,0.0,0.0,0.75,0.0,0.0,0.0,1.0,0.0,15.0,1.0,16.25,0.0,71.5
Crisópolis,IT-PR-08,Crisópolis,Crisópolis - IT-PR-08,-11.510923,-38.120832,Nordeste,RPGA do Rio Itapicuru,0.0,0.0,0.0,0.0,0.75,0.0,0.0,0.0,0.0,0.25,60.25,0.5,0.0,14.75,9.75,0.0,0.0,0.0,0.75,0.25,0.0,0.0,0.0,0.0,0.0,0.0,0.25,4.25,9.0,0.0,100.75
Fazenda Laranjeiras III,IT-PR-09,Araci,Araci (Fazenda Laranjeiras III) - IT-PR-09,-11.334248,-38.968638,Nordeste,RPGA do Rio Itapicuru,0.0,0.0,0.0,0.0,0.0,0.0,0.0,16.75,0.0,0.0,0.0,0.0,4.25,8.75,18.0,0.0,0.0,0.0,0.0,0.0,1.25,0.0,0.0,0.0,5.0,0.0,1.0,0.0,0.5,1.25,56.75
Estação Experimental,IT-PR-10,Nova Soure,Nova Soure (Estação Experimental) - IT-PR-10,-11.3083,-38.5361,Nordeste,RPGA do Rio Itapicuru,0.0,0.0,0.0,0.0,0.0,0.0,0.0,14.75,0.0,0.75,18.75,0.25,2.25,1.25,6.25,0.0,0.0,0.0,0.0,0.0,0.0,0.0,0.0,0.0,0.0,0.0,0.0,0.5,0.5,0.0,45.25
Olindina,IT-PR-11,Olindina,Olindina - IT-PR-11,-11.343693,-38.318892,Nordeste,RPGA do Rio Itapicuru,0.0,0.0,0.0,0.0,0.5,0.0,0.0,13.25,0.0,0.0,14.75,5.75,9.75,2.0,33.75,0.0,0.0,0.0,0.0,0.0,0.0,0.0,0.0,0.0,0.0,0.0,0.0,19.75,2.75,0.0,102.25
Boa Hora,IT-PR-13,Ribeira do Amparo,Ribeira do Amparo (Boa Hora) - IT-PR-13,-10.965,-38.5234,Nordeste,RPGA do Rio Itapicuru,0.0,0.0,0.0,0.0,0.0,0.25,0.0,4.0,0.0,0.5,2.75,0.0,5.0,6.5,18.75,0.0,0.0,0.25,0.0,0.0,0.75,0.0,0.0,0.25,1.75,0.0,0.0,0.0,0.0,0.0,40.75
Irecê,83182,Irecê,Irecê - 83182,-11.3,-41.866667,Norte,RPGA dos Rios Verde e Jacaré,0.0,0.0,0.0,0.0,0.0,3.8,0.0,0.0,0.0,0.0,3.0,0.0,0.0,0.0,0.0,0.0,0.0,0.0,0.0,0.0,0.0,0.0,0.0,0.0,0.0,5.0,36.2,10.7,0.0,0.0,58.7
Remanso,82979,Remanso,Remanso - 82979,-9.633333,-42.1,Norte,RPGA do Lago de Sobradinho,0.0,0.0,0.0,0.0,1.5,11.1,1.5,0.0,0.0,0.0,0.7,0.0,0.0,0.0,0.0,0.0,0.0,0.0,0.0,0.0,36.0,0.0,0.0,1.2,0.5,0.0,28.9,0.0,0.0,0.0,81.4
Delfino,A443,Umburanas,Umburanas (Delfino) - A443,-10.45492,-41.206996,Norte,RPGA do Rio Salitre,0.0,0.0,0.0,0.0,7.4,0.0,0.0,18.0,0.0,0.0,1.8,0.2,0.0,0.0,0.0,0.0,0.0,0.0,0.0,0.0,0.0,0.0,0.0,3.0,0.0,0.0,28.4,0.0,0.0,0.0,58.8
Remanso,A423,Remanso,Remanso - A423,-9.625693,-42.077214,Norte,RPGA do Lago de Sobradinho,0.0,0.0,0.0,0.0,1.6,11.2,1.6,0.0,0.0,0.0,1.0,0.0,0.0,0.0,0.0,0.0,0.0,0.0,0.0,0.0,34.4,0.0,0.0,1.4,0.8,0.0,28.4,0.0,0.0,0.0,80.4
Irecê,A424,Irecê,Irecê - A424,-11.328998,-41.864504,Norte,RPGA dos Rios Verde e Jacaré,0.0,0.0,0.0,0.0,0.0,1.4,0.0,0.0,0.0,0.0,2.8,0.0,0.0,0.0,0.0,0.0,0.0,0.0,0.0,0.4,0.0,0.0,0.0,0.0,0.0,4.2,39.8,15.6,0.0,0.0,64.2
Mandacaru,Convencional,Juazeiro,Juazeiro (Mandacaru) - Convencional,-9.401263,-40.434428,Norte,RPGA dos Rios Macururé e Curaçá,0.0,0.0,0.0,0.0,0.5,50.9,0.0,12.6,2.0,0.0,0.0,0.4,0.0,0.0,0.0,0.0,0.0,0.0,0.0,0.0,0.0,0.0,0.0,0.0,0.0,0.0,0.0,0.0,0.0,0.0,66.4
Juazeiro,Fazenda Brasil Uvas,Juazeiro,Juazeiro - Fazenda Brasil Uvas,-9.316666,-40.183333,Norte,RPGA dos Rios Macururé e Curaçá,0.0,0.0,0.0,0.0,2.3,0.3,1.3,0.0,38.4,0.0,0.0,0.0,0.0,0.0,0.0,0.0,0.0,0.0,0.0,0.0,2.0,42.4,0.0,0.76,0.0,0.0,0.0,0.0,0.0,0.0,87.46
Juazeiro,Massaroca,Juazeiro,Juazeiro - Massaroca,-9.8,-40.233333,Norte,RPGA dos Rios Macururé e Curaçá,0.0,0.0,0.0,0.0,0.0,0.0,0.0,0.0,1.6,0.3,0.0,0.3,0.0,0.0,0.0,0.0,0.0,0.0,0.0,0.0,51.8,85.6,0.0,0.1,0.0,0.0,0.6,5.9,0.0,0.0,146.2
Jaguarari,Pilar,Jaguarari,Jaguarari - Pilar,-9.85,-39.933333,Norte,RPGA dos Rios Macururé e Curaçá,0.0,0.0,0.0,0.0,0.0,4.5,0.2,0.0,2.3,0.0,0.0,0.0,0.0,0.1,0.0,0.2,0.0,0.0,0.0,0.0,0.0,0.7,0.0,5.4,0.4,0.0,0.0,1.1,0.1,0.0,15.0
Juazeiro,Santa Helena,Juazeiro,Juazeiro - Santa Helena,-9.566666,-40.3,Norte,RPGA dos Rios Macururé e Curaçá,0.0,0.0,0.0,0.0,0.0,0.0,0.0,0.6,7.9,0.0,0.0,0.0,0.0,0.0,0.0,0.0,0.0,0.0,0.0,0.0,3.5,17.8,0.0,0.0,0.0,0.0,0.0,0.2,0.0,0.0,30.0
Juazeiro,Salitre,Juazeiro,Juazeiro - Salitre,-9.5,-40.633333,Norte,RPGA dos Rios Macururé e Curaçá,0.0,0.0,0.0,0.0,0.0,6.3,11.6,0.0,7.1,0.0,0.0,0.3,0.0,0.0,0.0,0.0,0.0,0.0,0.0,0.0,5.3,1.1,0.0,0.0,0.0,0.0,0.0,0.5,0.0,0.0,32.2
Ibitibá,,Ibitibá,Ibitibá,-11.551736,-41.968187,Norte,RPGA dos Rios Verde e Jacaré,0.0,0.0,0.0,0.0,0.0,0.0,2.0,2.4,0.2,0.0,3.0,0.2,0.0,0.0,0.0,0.0,0.0,0.0,0.0,0.0,0.0,0.0,0.0,0.0,0.0,0.0,75.0,27.0,0.0,0.0,109.8
Jussara,Arrecife,Jussara,Jussara - Arrecife,-11.065335,-41.974853,Norte,RPGA dos Rios Verde e Jacaré,0.0,0.0,0.0,0.0,0.0,19.8,0.0,0.0,0.4,0.0,0.4,0.0,0.0,0.0,0.0,0.0,0.0,0.0,0.0,1.6,0.0,0.0,0.0,0.0,0.0,0.4,19.0,0.0,0.0,0.0,41.6
Ibipeba,,Ibipeba,Ibipeba,-11.673962,-42.010413,Norte,RPGA dos Rios Verde e Jacaré,0.0,0.0,0.0,0.0,0.0,0.0,42.8,0.0,0.0,0.0,8.8,0.0,0.0,0.0,0.0,0.0,0.0,0.0,0.0,0.0,0.0,0.0,0.0,0.0,0.0,0.0,85.8,23.6,0.2,0.0,161.2
Central,,Central,Central,-11.135391,-42.093468,Norte,RPGA dos Rios Verde e Jacaré,0.0,0.0,0.0,0.0,0.0,27.6,0.0,0.4,0.0,2.4,0.4,0.2,0.0,0.0,0.0,0.0,0.0,0.0,0.0,0.0,0.0,0.0,9.0,0.0,0.0,0.0,20.6,0.0,0.0,0.0,60.6
Juazeiro,48020000,Juazeiro,Juazeiro - 48020000,-9.4064,-40.5036,Norte,RPGA dos Rios Macururé e Curaçá,0.0,0.0,0.0,0.0,2.8,10.8,0.0,22.8,2.8,0.0,0.0,0.0,0.0,0.0,0.0,0.0,0.0,0.0,6.4,0.0,0.0,0.0,0.0,0.0,0.0,0.0,0.0,0.0,0.0,0.0,45.6
Uibai,,Uibai,Uibai,-11.294784,-42.14208,Norte,RPGA dos Rios Verde e Jacaré,0.0,0.0,0.0,0.0,0.0,4.0,0.0,0.0,0.0,0.0,7.4,0.2,0.0,0.0,0.0,1.2,0.4,0.0,0.0,0.0,0.0,0.0,1.0,0.0,0.0,0.6,57.2,36.2,0.0,0.0,108.2
Irecê,VJ-CL-01,Irecê,Irecê - VJ-CL-01,-11.289166,-41.894166,Norte,RPGA dos Rios Verde e Jacaré,0.0,0.0,0.0,0.0,0.0,7.25,0.0,0.0,0.5,0.0,0.5,0.0,0.0,0.0,0.0,0.0,0.0,0.0,0.0,0.25,0.0,0.0,0.0,0.0,0.0,0.0,25.25,9.75,0.0,0.0,43.5
Santa Rosa,SM-PR-01,Jaguarari,Jaguarari (Santa Rosa) - SM-PR-01,-10.098374,-39.869774,Norte,RPGA dos Rios Macururé e Curaçá,0.0,0.0,0.0,0.0,0.0,0.0,9.75,0.0,1.5,0.0,0.75,0.5,0.0,0.25,0.5,0.0,0.0,0.0,0.0,0.0,0.0,0.0,0.5,0.0,0.0,0.0,0.0,66.5,0.0,0.0,80.25
Juazeiro,Mandacaru,Juazeiro,Juazeiro - Mandacaru,-9.4,-40.433333,Norte,RPGA dos Rios Macururé e Curaçá,0.0,0.0,0.0,0.5,9.7,40.9,0.0,14.7,0.0,0.0,0.3,0.0,0.0,0.0,0.0,0.0,0.0,0.0,0.0,1.0,14.7,0.0,0.0,0.0,0.0,0.0,0.0,0.0,0.0,0.0,81.8
Campo Formoso,IT-PR-27,Campo Formoso,Campo Formoso - IT-PR-27,-10.510327,-40.332849,Norte,RPGA do Rio Itapicuru,0.0,0.0,0.0,0.0,1.0,0.0,0.0,0.0,0.0,0.5,34.0,3.25,0.75,3.0,3.0,0.25,0.0,0.0,0.25,0.0,0.0,0.0,0.0,103.25,0.0,0.0,19.5,23.0,0.75,0.0,192.5
Jaguarari,IT-PR-28,Jaguarari,Jaguarari - IT-PR-28,-10.269489,-40.200344,Norte,RPGA do Rio Itapicuru,0.0,0.0,0.0,0.0,0.0,0.0,0.0,3.25,4.25,0.0,1.25,0.5,1.0,0.25,7.25,0.25,0.0,0.0,0.0,0.0,0.0,0.0,0.0,5.5,0.5,0.0,1.0,10.0,0.5,0.0,35.5
Olho D'Água,,Olho D'Água,Olho D'Água,-10.700331,-40.601468,Norte,RPGA do Rio Salitre,0.0,0.0,0.0,0.0,0.4,0.0,0.0,6.4,0.0,0.0,24.6,4.2,0.6,0.0,0.4,0.0,0.0,0.0,10.6,0.0,0.0,0.0,0.0,0.4,0.0,0.0,1.8,0.0,0.0,0.0,49.4
Taquarendi,,Taquarendi,Taquarendi,-10.893669,-40.687028,Norte,RPGA do Rio Salitre,0.0,0.0,0.0,0.0,6.8,0.0,0.2,0.0,0.0,0.0,1.8,0.0,0.0,0.0,0.0,0.0,0.0,0.0,0.0,0.0,0.0,0.0,0.0,0.4,0.0,0.0,28.6,6.8,0.2,0.0,44.81
Fazenda Vila Verde,,Fazenda Vila Verde,Fazenda Vila Verde,-12.032839,-46.054434,Oeste,RPGA do Rio Grande,0.0,0.2,0.0,0.6,0.0,1.0,72.2,0.2,0.0,0.0,0.0,0.0,2.4,4.4,0.0,5.4,0.2,4.4,0.0,0.0,0.0,0.0,9.2,4.8,0.0,0.0,2.2,27.8,7.2,28.8,171.01
Fazenda Novo Horizonte,GR-PR-13,Barreiras,Barreiras (Fazenda Novo Horizonte) - GR-PR-13,-12.064787,-45.560529,Oeste,RPGA do Rio Grande,0.2,0.0,0.4,0.0,0.2,0.0,19.0,0.6,0.2,0.0,0.0,0.0,0.0,0.2,0.0,0.0,0.0,0.2,0.0,0.0,0.0,0.0,0.0,0.2,0.0,10.4,0.8,5.6,2.6,14.4,55.0
Fazenda Dona Izeta,GR-PR-15,Barreiras,Barreiras (Fazenda Dona Izeta) - GR-PR-15,-12.073399,-45.490807,Oeste,RPGA do Rio Grande,0.0,0.0,0.0,0.0,6.6,0.4,1.0,30.8,0.0,0.0,12.0,0.0,13.6,0.0,2.6,0.2,0.0,0.0,0.0,0.0,0.0,0.0,11.6,0.2,0.0,0.2,2.6,34.8,1.2,6.6,124.4
Fazenda Pró Café,GR-PR-19,Barreiras,Barreiras (Fazenda Pró Café) - GR-PR-19,-12.160625,-45.330802,Oeste,RPGA do Rio Grande,0.0,0.0,0.0,0.0,2.6,0.2,12.6,13.4,0.0,0.0,6.6,2.4,2.8,0.0,0.8,0.0,0.0,0.0,0.0,0.0,0.0,0.0,42.2,0.0,0.0,0.0,2.0,4.4,0.4,4.6,95.0
Fazenda Rio Brilhante,,Fazenda Rio Brilhante,Fazenda Rio Brilhante,-12.802859,-45.729985,Oeste,RPGA do Rio Grande,0.0,0.0,0.0,26.8,0.2,0.0,2.4,0.2,21.4,0.4,0.0,0.0,0.0,4.8,5.8,7.4,0.2,40.6,0.0,0.0,0.2,0.2,44.8,0.4,6.8,6.0,29.6,2.2,6.0,45.0,251.4
Fazenda Catarinense,,Fazenda Catarinense,Fazenda Catarinense,-13.286201,-46.028331,Oeste,RPGA do Rio Grande,0.0,0.0,0.0,0.4,0.2,1.0,18.8,24.6,26.2,0.2,0.0,0.0,0.0,2.6,0.4,27.4,0.2,29.2,14.8,0.2,0.0,0.8,0.4,0.6,0.2,0.2,0.0,0.8,36.8,16.6,202.6
Fazenda Morete,,Fazenda Morete,Fazenda Morete,-13.222316,-45.154969,Oeste,"RPGA do Rio Corrente e Riachos do Ramalho, Serra Dourada e Brejo Velho",0.0,0.0,0.0,0.0,3.0,0.0,0.5,11.0,7.25,0.0,0.0,0.0,0.0,0.5,19.75,1.5,18.0,1.25,4.25,0.0,0.25,1.5,4.25,1.0,0.25,0.0,0.0,8.5,19.0,7.5,109.25
Rosário,CT-PR-03,Correntina,Correntina (Rosário) - CT-PR-03,-13.940105,-46.188064,Oeste,"RPGA do Rio Corrente e Riachos do Ramalho, Serra Dourada e Brejo Velho",0.0,0.0,0.0,0.0,3.4,6.8,7.4,8.2,66.4,0.2,0.0,0.0,1.0,0.0,12.6,2.6,8.8,1.0,0.0,9.0,0.0,22.8,14.2,3.2,0.0,17.8,5.4,0.0,2.0,15.8,208.6
Fazenda Nova Esperança,,Fazenda Nova Esperança,Fazenda Nova Esperança,-13.987891,-45.389148,Oeste,"RPGA do Rio Corrente e Riachos do Ramalho, Serra Dourada e Brejo Velho",0.0,0.0,0.0,0.0,16.2,0.0,2.8,12.2,0.2,0.0,0.0,0.0,0.0,0.0,2.8,0.0,2.8,1.6,0.2,1.0,0.8,9.0,23.8,0.0,0.6,33.6,8.2,0.2,0.6,2.4,119.0
Fazenda Cachoeirinha,,Fazenda Cachoeirinha,Fazenda Cachoeirinha,-14.389284,-45.840279,Oeste,"RPGA do Rio Corrente e Riachos do Ramalho, Serra Dourada e Brejo Velho",0.0,0.0,0.4,0.0,13.4,0.2,1.4,21.6,0.0,0.8,0.0,0.0,0.0,0.0,22.6,2.4,12.8,5.0,11.6,0.0,0.0,0.0,4.0,2.0,20.6,0.2,28.0,0.0,1.2,24.4,172.6
Projeto Alto Formoso,,Projeto Alto Formoso,Projeto Alto Formoso,-14.260954,-45.27887,Oeste,"RPGA do Rio Corrente e Riachos do Ramalho, Serra Dourada e Brejo Velho",0.0,0.0,0.0,0.0,6.8,0.2,8.6,15.4,0.2,6.0,0.4,0.0,0.0,0.0,35.6,0.2,12.2,32.2,0.0,0.0,0.0,0.0,0.0,0.0,2.4,3.8,8.4,0.2,0.2,1.6,134.4
Ponte do Fortunato,,Ponte do Fortunato,Ponte do Fortunato,-14.642348,-45.503045,Oeste,RPGA do Rio Carinhanha,0.0,0.0,0.0,0.25,3.75,0.0,0.0,5.75,16.5,0.0,0.25,0.0,0.0,0.0,28.0,11.75,22.5,1.25,0.0,0.0,0.0,0.0,9.5,0.25,1.0,13.0,4.5,0.25,0.0,1.75,120.25
Ponte do Itaguari,CA-PR-02,Cocos,Cocos (Ponte do Itaguari) - CA-PR-02,-14.234011,-44.626902,Oeste,RPGA do Rio Carinhanha,0.0,0.0,0.0,0.0,0.8,0.0,0.0,4.0,0.0,0.0,0.0,0.0,0.0,0.0,24.6,0.0,11.0,0.0,0.0,0.0,0.0,10.6,0.0,2.8,1.2,1.0,61.0,0.2,0.0,71.4,188.61
Correntina,A416,Correntina,Correntina - A416,-13.332386,-44.617376,Oeste,"RPGA do Rio Corrente e Riachos do Ramalho, Serra Dourada e Brejo Velho",0.0,0.0,0.0,0.0,24.6,0.4,2.2,20.2,0.6,0.0,0.0,0.0,0.0,0.0,25.6,21.2,0.0,0.0,0.0,0.0,16.4,9.8,19.0,0.0,1.0,13.2,17.0,5.4,63.8,3.4,243.8
Barreiras,83236,Barreiras,Barreiras - 83236,-12.155556,-45.007778,Oeste,RPGA do Rio Grande,0.0,0.0,0.0,0.0,0.9,0.0,0.7,1.0,1.2,0.9,2.4,0.0,6.1,0.0,1.2,0.0,2.5,0.0,0.0,0.0,0.0,0.0,15.8,0.0,0.0,29.6,1.3,41.8,1.6,40.7,147.7
Correntina,83286,Correntina,Correntina - 83286,-13.332222,-44.617222,Oeste,"RPGA do Rio Corrente e Riachos do Ramalho, Serra Dourada e Brejo Velho",0.0,0.0,0.0,0.0,25.6,0.0,2.0,20.8,0.6,0.0,0.0,0.0,0.0,0.0,26.6,23.1,0.0,0.0,0.0,0.0,16.9,10.4,19.8,0.0,0.8,13.2,17.0,5.2,65.7,3.2,250.91
Form. Rio Preto,46550000,Barreiras,Barreiras (Form. Rio Preto) - 46550000,-11.154444,-45.009166,Oeste,RPGA do Rio Grande,0.0,0.0,0.0,0.0,0.7,0.4,0.8,1.2,1.5,0.0,2.8,0.0,7.0,0.0,1.5,0.0,2.7,0.0,0.0,0.0,0.0,0.0,18.4,0.0,0.0,18.5,1.8,41.2,1.7,40.1,140.3
Arrojado,45770000,Correntina,Correntina (Arrojado) - 45770000,-13.4528,-44.5689,Oeste,"RPGA do Rio Corrente e Riachos do Ramalho, Serra Dourada e Brejo Velho",0.0,0.0,0.0,0.0,13.2,4.4,0.0,12.4,1.0,0.0,0.0,0.0,0.0,0.0,8.0,4.4,0.0,0.8,0.0,0.0,11.6,6.2,3.4,0.0,13.0,0.0,28.0,4.2,46.0,9.2,165.8
Formosa do Rio Preto-ANA_INEMA,,Formosa do Rio Preto-ANA_INEMA,Formosa do Rio Preto-ANA_INEMA,-11.05267,-45.264832,Oeste,RPGA do Rio Grande,15.2,0.4,0.4,0.0,1.2,0.4,1.0,0.0,1.2,0.6,1.6,0.0,0.0,2.0,4.0,3.2,0.2,0.0,0.0,0.4,0.2,0.8,11.6,0.2,4.0,17.2,2.0,21.2,0.8,37.0,126.8
Mocambo,45740001,Correntina,Correntina (Mocambo) - 45740001,-13.28572,-44.56284,Oeste,"RPGA do Rio Corrente e Riachos do Ramalho, Serra Dourada e Brejo Velho",0.0,0.0,0.0,0.0,37.6,0.0,0.6,22.2,0.2,0.0,0.2,1.65,0.0,0.0,4.4,0.0,0.0,0.0,0.0,0.0,11.6,23.2,22.2,0.0,3.0,0.6,23.4,5.2,45.6,7.0,208.65
PCH Pres. Goulart-J,45600000,Correntina,Correntina (PCH Pres. Goulart-J) - 45600000,-13.3344,-44.6208,Oeste,"RPGA do Rio Corrente e Riachos do Ramalho, Serra Dourada e Brejo Velho",0.0,0.0,0.0,0.0,27.7,0.3,1.1,22.8,1.6,0.0,0.0,0.0,0.0,0.0,28.7,22.6,0.0,0.0,0.0,0.0,17.3,11.1,31.6,0.0,1.5,20.6,21.6,6.3,73.9,4.4,293.1
COACERAL,GR-CL-02,Formosa do Rio Preto,Formosa do Rio Preto (COACERAL) - GR-CL-02,-10.561944,-45.693333,Oeste,RPGA do Rio Grande,0.75,0.25,10.25,0.0,0.0,11.75,4.0,3.25,0.5,0.25,0.0,0.0,0.0,2.5,0.0,20.75,2.75,0.0,0.0,15.0,0.0,1.5,5.5,5.5,25.25,0.0,0.0,4.75,75.75,66.25,256.5
Barreiras,A402,Barreiras,Barreiras - A402,-12.124715,-45.027049,Oeste,RPGA do Rio Grande,0.0,0.0,0.0,0.0,0.6,0.0,21.0,6.2,0.8,0.0,4.4,0.2,10.0,0.0,0.0,0.0,1.0,0.0,0.0,0.0,0.0,0.0,40.0,0.0,0.4,32.4,1.2,31.6,1.4,49.0,200.21
Luís Eduardo Magalhães,A404,Luís Eduardo Magalhães,Luís Eduardo Magalhães - A404,-12.152394,-45.829745,Oeste,RPGA do Rio Grande,0.2,0.0,28.6,0.0,0.0,2.0,42.6,53.4,4.0,0.4,1.8,0.0,9.8,0.0,0.2,0.4,0.4,24.2,0.0,0.2,0.0,3.4,26.4,0.6,0.0,0.4,2.4,12.0,1.0,14.4,228.81
São Desidério,R. Velha - GR-CL-01,São Desidério,São Desidério - R. Velha - GR-CL-01,-12.898055,-46.157222,Oeste,RPGA do Rio Grande,6.0,0.0,0.0,3.0,0.0,5.0,18.75,0.0,29.75,7.5,0.0,0.0,0.0,0.5,30.5,2.2,4.8,3.3,2.1,2.1,3.1,5.1,4.7,4.7,6.2,13.5,25.3,3.7,4.4,6.1,192.3
Fazenda Evandro,GR-PR-01,Formosa do Rio Preto,Formosa do Rio Preto (Fazenda Evandro) - GR-PR-01,-10.600581,-45.822752,Oeste,RPGA do Rio Grande,0.0,0.0,7.0,0.4,0.0,7.4,11.6,2.0,0.6,1.0,0.0,0.0,0.0,4.8,0.4,12.0,2.2,0.0,0.0,19.6,0.0,0.0,1.2,6.4,1.2,0.6,0.2,71.4,26.2,77.2,253.4
Barra do Tapuio,GR-PR-02,Formosa do Rio Preto,Formosa do Rio Preto (Barra do Tapuio) - GR-PR-02,-11.09476,-45.950259,Oeste,RPGA do Rio Grande,3.0,0.4,0.0,0.0,0.0,40.4,0.2,2.4,16.2,0.4,0.0,0.0,0.0,28.8,5.4,40.2,11.0,1.0,0.0,3.4,0.0,17.8,42.0,2.0,8.8,0.0,3.2,0.8,0.4,0.8,228.61
Fazenda Mingore,GR-PR-03,Formosa do Rio Preto,Formosa do Rio Preto (Fazenda Mingore) - GR-PR-03,-11.043367,-46.296104,Oeste,RPGA do Rio Grande,1.2,2.4,0.0,0.4,0.0,6.8,0.2,0.2,22.8,0.2,0.0,0.0,0.0,7.8,0.0,36.6,6.6,0.2,0.0,9.4,0.0,0.0,4.2,2.0,0.4,0.2,0.2,5.8,23.0,10.4,141.01
Garganta,GR-PR-04,Formosa do Rio Preto,Formosa do Rio Preto (Garganta) - GR-PR-04,-11.384764,-46.505001,Oeste,RPGA do Rio Grande,8.8,12.6,3.8,33.0,0.0,13.4,54.8,5.2,33.8,11.2,0.0,1.0,0.0,4.0,27.8,42.2,3.6,0.0,0.0,0.2,0.2,0.0,17.2,8.2,0.0,9.0,11.6,11.2,10.0,1.8,324.6
Fazenda Santa Rita de Cássia,,Fazenda Santa Rita de Cássia,Fazenda Santa Rita de Cássia,-11.625053,-45.645252,Oeste,RPGA do Rio Grande,0.2,0.0,0.0,0.8,0.0,2.8,2.0,11.8,0.4,0.2,0.0,0.0,0.0,0.0,0.0,0.0,3.4,22.8,0.2,0.0,0.0,0.0,0.2,0.2,0.0,0.2,0.0,0.0,0.4,5.2,50.81
Algocel,,Algocel,Algocel,-11.758942,-46.205271,Oeste,RPGA do Rio Grande,7.8,7.0,8.4,3.0,0.0,0.8,2.0,20.0,0.6,3.2,0.2,0.2,0.0,0.0,7.8,36.4,9.2,0.2,0.0,1.4,0.2,7.2,20.0,2.6,0.0,0.0,7.4,49.0,29.0,4.6,228.21
J. Zoológico,A401,Salvador,Salvador (J. Zoológico) - A401,-13.005515,-38.50576,Recôncavo,RPGA do Recôncavo Norte,0.0,0.0,0.0,0.4,0.0,0.0,0.0,62.0,17.4,75.4,21.0,15.6,7.8,4.4,2.2,0.8,0.6,0.4,0.2,0.2,0.4,0.0,0.4,0.2,0.2,0.4,0.2,0.4,59.6,4.0,274.2
Salvador,Canabrava,Salvador,Salvador - Canabrava,-12.924122,-38.429942,Recôncavo,RPGA do Recôncavo Norte,0.0,0.0,0.6,2.4,3.7,7.2,0.0,36.5,63.0,46.3,53.7,2.2,4.4,0.5,8.2,5.8,0.0,0.3,0.2,0.0,2.0,0.6,10.0,14.3,20.4,15.6,116.1,15.7,22.6,9.4,461.7
Alagoinhas,83249,Alagoinhas,Alagoinhas - 83249,-12.148333,-38.425556,Recôncavo,RPGA do Recôncavo Norte,0.0,0.0,0.0,0.0,0.0,0.0,0.0,8.9,0.0,12.4,49.4,1.7,0.6,8.8,2.3,2.2,0.0,0.6,2.2,0.0,0.0,0.0,0.0,0.0,0.0,7.4,31.4,15.4,0.5,0.8,144.61
Cruz das Almas,83222,Cruz das Almas,Cruz das Almas - 83222,-12.666667,-39.083333,Recôncavo,RPGA do Rio Paraguaçu,0.0,0.0,0.0,0.0,0.3,0.0,0.0,20.6,2.2,0.6,56.5,2.2,0.0,0.0,4.8,0.4,0.0,1.8,0.0,0.0,0.0,0.0,0.0,0.9,12.8,0.0,5.0,0.4,0.0,6.7,115.21
Feira de Santana,83221,Feira de Santana,Feira de Santana - 83221,-12.196111,-38.967222,Recôncavo,RPGA do Recôncavo Norte,0.0,0.0,0.0,0.0,0.0,0.0,0.0,1.0,1.5,20.4,73.6,1.0,0.5,0.0,0.0,0.0,0.0,0.0,0.0,0.0,0.0,0.0,0.0,0.0,0.0,0.4,8.5,1.1,0.0,0.0,108.0
Amargosa,A434,Amargosa,Amargosa - A434,-13.009468,-39.616881,Recôncavo,RPGA do Recôncavo Sul,0.0,0.0,0.0,0.0,0.0,0.0,0.0,112.2,0.0,0.0,1.0,0.2,0.2,0.0,0.0,0.0,0.0,0.4,0.8,0.2,0.0,0.0,0.0,25.4,5.4,70.0,8.4,0.0,1.0,0.2,225.4
Valença,A444,Valença,Valença - A444,-13.34361,-39.12667,Recôncavo,RPGA do Recôncavo Sul,0.2,0.0,0.0,0.2,0.4,0.0,0.0,14.6,2.6,21.6,18.8,2.4,0.0,0.0,0.2,0.4,1.0,0.2,0.8,0.8,0.6,0.0,0.0,47.6,0.4,7.0,14.6,3.4,6.6,0.0,144.4
Mata de São João,ETA - Embasa,Mata de São João,Mata de São João - ETA - Embasa,-12.394946,-37.934649,Recôncavo,RPGA do Recôncavo Norte,0.0,0.0,0.0,0.0,0.0,0.0,0.0,9.5,5.2,6.5,50.2,0.0,0.0,13.9,23.0,0.0,0.0,0.4,0.3,0.28,0.15,0.0,0.0,0.0,9.0,0.8,0.0,53.5,0.0,1.8,174.54
Candeias,EMBASA,Candeias,Candeias - EMBASA,-12.663561,-38.533,Recôncavo,RPGA do Recôncavo Norte,0.0,0.0,0.0,0.0,0.0,0.0,0.0,90.6,60.5,42.0,104.3,96.5,1.2,0.6,21.5,0.0,9.2,3.0,3.6,0.0,0.0,0.9,0.0,11.2,11.9,0.0,0.0,0.0,0.5,0.0,457.5
Dias D´Ávila,EMBASA,Dias D´Ávila,Dias D´Ávila - EMBASA,-12.620505,-38.315217,Recôncavo,RPGA do Recôncavo Norte,0.0,0.0,0.0,0.0,0.0,6.6,0.0,20.9,37.1,28.9,102.7,12.25,27.1,20.8,16.0,0.0,0.0,0.0,6.25,0.0,0.0,0.4,0.0,0.5,38.3,0.0,90.7,10.7,0.87,1.25,421.32
Joanes II,322,Simões Filho,Simões Filho (Joanes II) - 322,-12.674147,-38.376254,Recôncavo,RPGA do Recôncavo Norte,0.0,0.0,0.0,0.0,17.5,4.5,0.0,0.0,47.0,16.6,63.0,8.3,5.0,8.1,36.4,0.0,0.0,0.2,3.4,0.0,2.0,0.0,0.0,0.0,36.0,0.0,66.7,17.3,3.0,18.0,353.0
Santa Helena,323,Camaçari,Camaçari (Santa Helena) - 323,-12.56202,-38.1606,Recôncavo,RPGA do Recôncavo Norte,0.0,0.0,0.0,0.0,11.2,0.0,0.0,0.0,4.1,98.7,52.1,3.0,1.4,9.2,0.0,0.0,0.0,0.0,3.1,0.0,1.3,0.0,0.0,0.6,3.4,0.0,100.3,15.1,0.0,5.3,308.8
Salvador,(MONT SERRAT - PCD),Salvador,Salvador - (MONT SERRAT - PCD),-12.930959,-38.516964,Recôncavo,RPGA do Recôncavo Norte,0.0,0.0,0.0,0.0,1.0,0.0,0.0,30.8,32.2,56.4,33.4,21.4,9.2,2.4,0.0,0.0,0.0,0.0,0.0,0.0,0.0,0.0,2.2,0.0,0.0,0.0,0.0,0.0,0.2,0.0,189.2
Ondina,83229,Salvador,Salvador (Ondina) - 83229,-13.005278,-38.505833,Recôncavo,RPGA do Recôncavo Norte,0.0,0.0,0.0,0.4,0.0,0.0,0.0,62.9,93.0,18.2,42.3,7.5,1.2,1.9,0.9,3.0,0.0,0.0,1.7,0.1,0.0,0.0,3.4,6.0,1.3,0.0,86.0,16.6,41.8,6.0,394.21
Feira de Santana,PG-PR-13,Feira de Santana,Feira de Santana - PG-PR-13,-12.268161,-38.96642,Recôncavo,RPGA do Rio Paraguaçu,0.0,0.0,0.0,0.0,0.0,3.5,0.0,19.25,0.0,17.0,106.0,0.75,0.0,0.0,0.0,0.0,0.0,0.0,0.0,0.0,0.0,0.0,0.0,0.0,0.0,7.0,0.25,0.0,0.0,0.0,153.75
Itatim,PG-PR-14,Itatim,Itatim - PG-PR-14,-12.720391,-39.700059,Recôncavo,RPGA do Rio Paraguaçu,0.0,0.0,0.0,0.0,0.0,0.0,0.0,5.25,0.0,0.0,2.25,0.0,0.0,0.0,0.0,0.0,0.0,3.5,4.0,0.0,0.0,0.0,0.0,0.25,10.0,8.5,0.5,3.0,0.0,2.0,39.25
Centro,292740802A,Salvador,Salvador (Centro) - 292740802A,-12.97821,-38.515945,Recôncavo,RPGA do Recôncavo Norte,0.0,0.0,0.0,0.4,0.2,0.0,0.0,26.2,74.4,41.3,42.0,2.2,1.4,0.0,1.4,7.9,0.0,0.0,1.2,0.0,7.5,0.0,1.4,2.2,0.4,0.2,115.4,35.3,14.2,2.0,377.2
São tomé de Paripe,292740806A,Salvador,Salvador (São tomé de Paripe) - 292740806A,-12.795508,-38.489389,Recôncavo,RPGA do Recôncavo Norte,0.0,0.0,0.0,0.2,1.6,0.8,0.0,7.7,30.8,43.1,51.7,45.0,35.9,4.5,0.2,2.0,0.0,0.2,0.0,0.0,0.0,1.4,0.2,0.4,67.2,0.0,64.9,3.9,0.0,18.6,380.3
Cabula,292740810A,Salvador,Salvador (Cabula) - 292740810A,-12.961347,-38.460778,Recôncavo,RPGA do Recôncavo Norte,0.0,0.0,0.4,5.4,8.3,0.0,0.0,21.1,84.2,46.0,57.3,2.4,4.7,0.0,6.3,12.0,0.0,0.4,0.4,0.0,4.5,0.0,22.6,11.4,4.2,7.1,191.2,24.0,40.0,13.6,567.5
Nova Esperança,292740818A,Salvador,Salvador (Nova Esperança) - 292740818A,-12.861,-38.368,Recôncavo,RPGA do Recôncavo Norte,0.0,0.0,0.0,0.0,0.0,16.3,0.0,53.0,52.1,44.9,53.6,0.0,4.2,0.6,9.1,0.2,0.0,0.2,0.0,0.0,0.0,1.4,0.0,6.7,40.7,27.0,47.8,10.5,10.3,0.0,378.6
Águas Claras,292740808A,Salvador,Salvador (Águas Claras) - 292740808A,-12.8944,-38.441889,Recôncavo,RPGA do Recôncavo Norte,0.0,0.0,0.0,1.6,0.0,37.4,0.0,16.5,34.8,25.2,81.4,0.2,3.4,4.5,4.1,19.9,0.0,0.0,0.0,0.0,7.7,0.0,14.5,25.8,15.5,16.5,89.7,23.6,13.4,7.7,443.4
Alto do Peru,292740812A,Salvador,Salvador (Alto do Peru) - 292740812A,-12.939122,-38.486334,Recôncavo,RPGA do Recôncavo Norte,0.0,0.0,0.2,0.2,12.8,0.0,0.0,5.9,89.3,40.4,62.0,1.4,8.5,0.0,8.5,14.4,0.0,0.2,12.8,0.0,0.8,0.0,8.3,41.6,30.8,14.0,262.6,23.0,16.5,0.4,654.6
CAB,292740811A,Salvador,Salvador (CAB) - 292740811A,-12.943354,-38.421264,Recôncavo,RPGA do Recôncavo Norte,0.0,0.0,0.0,0.0,1.4,0.0,0.0,19.5,44.1,33.3,44.3,0.8,3.4,0.2,22.8,25.1,0.0,0.0,0.0,0.0,2.2,0.0,0.0,7.1,7.9,5.9,169.0,15.8,38.8,1.8,443.41
Cosme de Farias,292740816A,Salvador,Salvador (Cosme de Farias) - 292740816A,-12.979402,-38.4855,Recôncavo,RPGA do Recôncavo Norte,0.0,0.0,0.0,0.4,4.1,0.0,0.0,30.7,108.4,35.7,61.7,2.0,3.2,0.4,1.4,16.0,0.0,0.0,0.0,0.0,0.2,0.0,11.0,17.9,0.2,0.2,138.2,47.0,25.8,1.6,506.1
São Caetano,292740814A,Salvador,Salvador (São Caetano) - 292740814A,-12.939678,-38.474667,Recôncavo,RPGA do Recôncavo Norte,0.0,0.0,0.8,0.0,13.2,0.6,0.0,5.9,69.6,45.1,61.3,1.6,2.2,0.2,12.1,13.0,0.0,0.2,7.9,0.0,0.0,0.0,18.4,46.8,10.8,13.4,252.8,16.4,15.4,0.8,608.5
Pirajá,292740801A,Salvador,Salvador (Pirajá) - 292740801A,-12.8994,-38.458833,Recôncavo,RPGA do Recôncavo Norte,0.0,0.0,0.0,0.0,0.2,7.9,0.0,10.7,23.4,38.7,4.8,0.4,3.0,6.7,17.3,28.8,0.0,0.0,1.8,0.0,4.7,0.0,14.6,46.7,29.1,1.8,155.6,15.7,58.6,10.5,481.0
Rio Sena,292740805A,Salvador,Salvador (Rio Sena) - 292740805A,-12.891344,-38.470778,Recôncavo,RPGA do Recôncavo Norte,0.0,0.0,0.0,0.0,0.0,5.9,0.0,6.0,8.6,65.4,86.5,0.0,2.4,3.4,11.2,29.8,0.0,0.0,1.4,0.0,6.9,0.0,2.6,46.4,25.9,7.5,172.9,16.8,67.9,7.9,575.4
Valéria,292740817A,Salvador,Salvador (Valéria) - 292740817A,-12.8644,-38.438276,Recôncavo,RPGA do Recôncavo Norte,0.0,0.0,0.0,0.0,0.0,21.1,0.0,28.8,36.3,34.0,113.3,1.2,9.4,0.4,2.4,9.9,0.0,0.0,0.2,0.0,47.0,1.8,2.8,2.2,8.5,0.8,72.4,13.8,27.3,1.2,434.8
Santa Terezinha,290650105A,Candeias,Candeias (Santa Terezinha) - 290650105A,-12.647172,-38.539112,Recôncavo,RPGA do Recôncavo Norte,0.0,0.0,0.0,0.0,0.2,0.2,0.2,78.8,50.4,33.7,139.1,0.4,0.8,4.9,22.8,4.9,0.0,0.0,0.0,0.0,0.6,0.0,0.0,8.5,28.3,0.0,148.4,0.0,0.0,1.6,523.81
Centro,290650101A,Candeias,Candeias (Centro) - 290650101A,-12.670229,-38.544112,Recôncavo,RPGA do Recôncavo Norte,0.0,0.0,0.0,0.0,0.0,0.0,0.0,66.9,38.3,65.7,143.7,0.8,0.6,2.2,24.0,1.6,0.0,0.0,1.0,0.0,2.0,0.0,0.0,7.1,9.8,0.0,82.4,1.6,0.0,20.0,467.71
Malemba,290650102A,Candeias,Candeias (Malemba) - 290650102A,-12.678285,-38.544112,Recôncavo,RPGA do Recôncavo Norte,0.0,0.0,0.0,0.0,0.0,0.0,0.0,76.0,45.8,65.7,137.6,1.4,0.8,1.0,24.0,1.0,0.0,0.2,3.1,0.0,2.6,0.0,0.0,7.3,3.9,0.0,62.2,2.8,0.0,8.5,443.91
Salvador,Itapuã - RN-CL-01,Salvador,Salvador - Itapuã - RN-CL-01,-12.931388,-38.361111,Recôncavo,RPGA do Recôncavo Norte,0.0,0.0,1.5,1.8,2.8,5.4,0.0,34.7,54.5,48.1,50.3,4.1,4.3,0.9,9.1,5.1,0.0,0.2,0.1,0.0,1.5,0.5,7.5,24.7,16.3,12.7,109.3,12.5,17.4,14.7,440.0
Santo Antônio,290650103A,Candeias,Candeias (Santo Antônio) - 290650103A,-12.678285,-38.536056,Recôncavo,RPGA do Recôncavo Norte,0.0,0.0,0.0,0.0,0.0,0.0,0.2,65.2,52.8,65.3,146.3,0.4,2.0,5.1,21.1,2.6,0.0,0.2,1.0,0.0,1.4,0.0,0.0,17.7,5.3,0.0,62.2,3.2,2.2,9.1,463.3
Sarandi,290650104A,Candeias,Candeias (Sarandi) - 290650104A,-12.671341,-38.531056,Recôncavo,RPGA do Recôncavo Norte,0.0,0.0,0.0,0.0,0.0,0.0,0.0,64.3,46.6,53.8,159.5,0.0,1.2,2.4,24.8,4.9,0.0,1.2,0.0,0.0,1.0,0.0,0.0,22.5,7.1,0.0,86.2,0.0,2.6,17.8,495.9
Areia Branca,291920706A,Lauro de Freitas,Lauro de Freitas (Areia Branca) - 291920706A,-12.841,-38.337,Recôncavo,RPGA do Recôncavo Norte,0.0,0.0,0.0,0.0,0.0,7.9,0.0,92.7,31.0,59.8,48.6,0.4,0.8,0.0,11.1,0.4,0.2,0.0,0.0,0.6,10.6,1.4,0.0,1.4,14.4,27.9,42.5,19.7,34.6,2.0,408.0
Itinga,291920703A,Lauro de Freitas,Lauro de Freitas (Itinga) - 291920703A,-12.892,-38.336,Recôncavo,RPGA do Recôncavo Norte,0.0,0.0,0.0,0.0,0.0,4.1,0.2,40.6,10.0,53.8,47.6,0.0,2.2,0.8,20.9,7.5,0.0,0.0,0.0,0.2,3.3,0.0,0.0,19.6,10.6,7.7,63.6,10.4,28.7,2.9,334.7
Vila Praiana,291920702A,Lauro de Freitas,Lauro de Freitas (Vila Praiana) - 291920702A,-12.901,-38.308,Recôncavo,RPGA do Recôncavo Norte,0.0,0.0,0.0,0.0,0.0,0.0,0.0,20.3,15.2,38.7,31.1,0.0,0.2,2.0,4.6,16.8,0.2,0.0,0.0,2.6,1.8,0.0,0.0,13.0,17.1,21.7,68.8,8.8,3.9,0.0,266.8
Portão,291920701A,Lauro de Freitas,Lauro de Freitas (Portão) - 291920701A,-12.87,-38.305,Recôncavo,RPGA do Recôncavo Norte,0.0,0.0,0.0,0.0,0.0,0.0,0.2,76.4,13.4,50.9,49.2,0.2,1.0,1.2,12.4,4.2,2.4,0.4,0.0,3.3,39.2,0.0,0.0,14.4,7.1,8.8,51.9,18.8,27.3,15.8,398.51
Rua 02 de Julho,291920705A,Lauro de Freitas,Lauro de Freitas (Rua 02 de Julho) - 291920705A,-12.839,-38.35,Recôncavo,RPGA do Recôncavo Norte,0.0,0.0,0.0,0.0,0.0,16.2,0.0,76.7,27.8,40.4,47.1,0.2,0.4,0.0,9.9,0.0,0.0,0.0,0.0,0.0,14.2,0.0,4.7,4.7,12.8,14.0,46.8,15.4,17.1,0.8,349.2
Muritiba,PG-PR-12,Muritiba,Muritiba - PG-PR-12,-12.617895,-39.005591,Recôncavo,RPGA do Rio Paraguaçu,0.0,0.0,0.0,0.0,4.75,0.0,0.0,58.5,2.0,0.75,66.0,3.0,0.0,0.0,0.0,0.25,0.0,0.0,1.25,0.0,0.0,0.0,0.0,0.0,9.5,1.5,4.5,0.25,0.0,9.0,161.25
Dois de Julho,291120401A,Gandú,Gandú (Dois de Julho) - 291120401A,-13.741357,-39.48303,Recôncavo,RPGA do Recôncavo Sul,0.0,0.0,0.0,0.0,0.0,0.0,0.0,25.4,2.4,0.2,0.0,0.2,0.0,0.0,0.0,0.0,0.0,0.0,0.0,0.0,0.0,0.0,0.0,3.4,3.8,0.2,47.2,9.9,10.3,0.2,103.2
Centro,292250801A,Nazaré,Nazaré (Centro) - 292250801A,-13.032,-39.015,Recôncavo,RPGA do Recôncavo Sul,0.0,0.0,0.2,0.0,0.0,0.0,0.0,14.5,3.0,10.9,138.9,0.2,0.4,0.8,0.0,0.8,0.2,1.8,4.5,0.0,0.0,0.0,0.0,0.2,0.2,6.1,29.9,0.2,10.8,3.4,227.0
Rua São Roque,293290301A,Valença,Valença (Rua São Roque) - 293290301A,-13.363,-39.078,Recôncavo,RPGA do Recôncavo Sul,0.0,0.0,0.2,0.0,0.0,0.0,0.0,13.2,2.0,17.6,16.2,1.6,0.0,0.0,0.0,4.3,0.4,0.0,0.6,0.0,4.9,0.2,0.0,50.1,0.2,0.0,26.0,2.4,5.8,0.2,145.9
Espinheira,,Espinheira,Espinheira,-14.283478,-41.75792,Sudoeste,RPGA do Rio de Contas,0.0,0.0,0.0,0.0,0.0,0.0,54.5,15.0,0.0,0.0,0.0,0.0,0.0,0.0,0.0,0.0,0.0,16.75,0.0,0.0,0.0,0.0,0.0,0.0,0.0,0.0,45.5,0.0,0.25,26.25,158.25
Cândido Sales,53620000,Cândido Sales,Cândido Sales - 53620000,-15.512891,-41.236629,Sudoeste,RPGA do Rio Pardo,0.0,0.0,0.0,0.0,0.0,0.0,0.4,0.6,1.6,0.0,1.2,0.0,0.0,0.0,0.0,0.0,0.0,1.6,0.0,0.0,0.0,0.0,0.0,0.0,2.6,0.0,0.0,0.0,0.0,18.2,26.2
Itiruçu,A407,Itiruçu,Itiruçu - A407,-13.52629,-40.12055,Sudoeste,RPGA do Recôncavo Sul,0.0,0.2,0.0,0.0,0.0,0.8,0.0,0.2,2.0,0.2,1.2,0.0,0.0,0.4,0.0,0.0,15.6,0.0,0.0,0.0,0.0,0.0,0.0,1.6,17.8,0.0,15.0,2.6,6.8,5.8,70.2
Ituaçu,83292,Ituaçu,Ituaçu - 83292,-13.812778,-41.3,Sudoeste,RPGA do Rio de Contas,0.0,0.0,0.0,0.0,0.0,0.0,34.0,7.3,0.0,0.0,0.0,0.0,1.9,0.0,0.0,25.1,0.0,0.0,0.0,0.0,0.0,0.0,0.0,0.0,0.0,0.0,49.5,8.5,3.4,11.7,141.4
Vitória da Conquista,83344,Vitória da Conquista,Vitória da Conquista - 83344,-14.883333,-40.8,Sudoeste,RPGA do Rio Pardo,0.0,0.0,0.0,0.9,0.0,0.0,0.0,0.4,0.8,0.2,2.0,0.0,0.0,0.2,0.0,0.0,0.0,0.0,0.0,0.0,0.0,0.0,0.0,5.1,0.0,13.6,0.0,0.0,0.4,31.7,55.3
Jaguaquara,83295,Ituruçu,Ituruçu (Jaguaquara) - 83295,-13.527828,-40.119752,Sudoeste,RPGA do Recôncavo Sul,0.0,0.0,0.0,0.0,0.0,0.6,0.0,0.0,2.1,0.1,1.0,0.0,0.0,0.3,0.0,0.0,15.8,0.0,0.0,0.0,0.0,0.0,0.0,1.4,18.4,0.0,15.0,2.7,6.9,5.6,69.9
Ipiaú,A445,Ipiaú,Ipiaú - A445,-14.171304,-39.692502,Sudoeste,RPGA do Rio de Contas,0.0,0.0,0.0,0.4,0.0,0.0,0.0,2.8,0.4,0.2,0.0,0.0,0.0,0.0,0.0,0.0,0.0,4.6,0.0,0.0,0.0,0.0,0.0,0.0,3.6,0.0,15.4,0.2,0.0,4.0,31.6
Itapetinga,A446,Itapetinga,Itapetinga - A446,-15.24462,-40.22955,Sudoeste,RPGA do Rio Pardo,0.0,0.2,0.0,0.0,0.0,0.0,0.0,0.2,0.0,0.0,0.0,0.0,0.0,0.0,0.0,0.0,0.0,0.0,0.0,0.0,0.0,0.0,0.0,0.0,0.0,0.0,0.0,0.0,0.0,0.0,0.4
Anagé,CO-CL-01,Anagé,Anagé - CO-CL-01,-14.618055,-41.149722,Sudoeste,RPGA do Rio de Contas,0.0,0.0,0.0,0.0,0.0,0.0,2.5,0.0,1.5,0.0,0.0,0.0,0.0,0.0,0.0,0.0,0.0,1.25,0.0,0.0,0.0,0.0,0.0,0.0,0.0,32.75,6.0,0.0,1.75,30.25,76.0
Planaltino,PG-PR-03,Planaltino,Planaltino - PG-PR-03,-13.259292,-40.373976,Sudoeste,RPGA do Recôncavo Sul,0.0,0.0,0.0,0.0,0.25,7.5,0.0,49.5,0.0,0.0,0.0,0.0,0.0,16.25,0.0,0.0,0.0,29.5,0.0,9.5,0.5,0.0,0.0,0.0,17.5,0.0,14.25,0.25,0.0,1.75,146.75
Centro,293330701A,Vitória da Conquista,Vitória da Conquista (Centro) - 293330701A,-14.852,-40.839,Sudoeste,RPGA do Rio Pardo,0.0,0.2,0.0,0.2,0.0,0.0,1.2,0.0,0.0,0.0,1.0,0.0,0.0,0.6,0.0,0.0,0.0,0.0,0.0,0.0,0.0,0.0,0.0,0.6,0.0,0.0,0.4,0.0,0.2,33.9,38.3
Centro,291710201A,Itororó,Itororó (Centro) - 291710201A,-15.119,-40.065,Sudoeste,RPGA do Leste,0.0,0.0,0.0,0.0,0.0,0.0,0.0,2.6,0.0,1.8,0.8,0.0,0.0,4.3,0.0,0.0,0.0,25.4,0.0,0.0,0.0,0.0,0.0,0.2,0.0,1.4,0.0,0.0,0.4,32.9,69.8
Clerolândia,291640101A,Itapetinga,Itapetinga (Clerolândia) - 291640101A,-15.243,-40.221,Sudoeste,RPGA do Rio Pardo,0.0,0.0,0.0,0.0,0.0,0.0,0.6,5.2,0.4,0.0,0.6,0.2,0.0,0.0,0.0,0.0,0.0,0.0,0.0,0.0,0.0,0.0,0.0,0.0,10.0,0.0,0.0,0.0,0.0,13.7,30.7
Recreio,293330702A,Vitória da Conquista,Vitória da Conquista (Recreio) - 293330702A,-14.861,-40.841,Sudoeste,RPGA do Rio Pardo,0.0,0.2,0.0,0.6,0.0,0.0,0.0,0.0,0.2,0.0,1.4,0.0,0.0,0.2,0.0,0.0,0.0,0.0,0.0,0.0,0.0,0.0,0.0,1.8,0.0,0.0,0.4,0.0,0.2,40.7,45.7
Patagônia,293330704A,Vitória da Conquista,Vitória da Conquista (Patagônia) - 293330704A,-14.87,-40.863,Sudoeste,RPGA do Rio Pardo,0.0,0.2,0.0,0.0,0.0,0.0,0.0,0.0,0.0,0.0,1.0,0.0,0.0,0.0,0.0,0.0,0.0,0.0,0.0,0.0,0.0,0.0,0.0,0.6,0.0,0.2,0.6,0.2,0.4,34.8,38.0
Barcelar,293330705A,Vitória da Conquista,Vitória da Conquista (Barcelar) - 293330705A,-14.838,-40.856,Sudoeste,RPGA do Rio Pardo,0.2,0.0,0.0,0.0,0.2,0.0,0.0,0.2,0.6,0.0,1.2,0.0,0.0,0.4,0.0,0.0,0.0,0.0,0.0,0.0,0.0,0.0,0.0,0.6,0.2,0.0,2.2,0.0,0.0,53.4,59.2
Lomantão,293330703A,Vitória da Conquista,Vitória da Conquista (Lomantão) - 293330703A,-14.87,-40.827,Sudoeste,RPGA do Rio Pardo,0.0,0.2,0.0,0.4,0.2,0.0,1.0,0.0,0.0,0.0,1.6,0.0,0.0,0.0,0.0,0.0,0.0,0.0,0.0,0.0,0.0,0.0,0.0,1.8,0.0,0.0,0.0,0.0,0.2,39.7,45.1
Jaguaquara,RS-CL-01,Jaguaquara,Jaguaquara - RS-CL-01,-13.573055,-39.940833,Sudoeste,RPGA do Recôncavo Sul,0.0,0.0,0.0,6.5,0.0,0.0,0.0,0.0,2.25,0.0,0.25,0.0,0.0,0.0,0.0,0.0,0.0,0.0,0.0,0.0,0.0,0.0,0.0,0.0,0.0,0.0,36.25,1.0,2.25,0.0,48.5
Jequié,CO-CL-03,Jequié,Jequié - CO-CL-03,-13.873055,-40.071944,Sudoeste,RPGA do Rio de Contas,0.0,0.0,0.0,0.0,0.0,0.0,0.0,2.0,0.0,12.5,0.0,0.0,0.0,0.0,0.0,0.0,0.0,0.0,0.0,0.0,0.0,0.0,0.0,2.25,0.0,0.0,3.25,0.0,0.0,0.0,20.0
Vitória da Conquista,PA-CL-01,Vitória da Conquista,Vitória da Conquista - PA-CL-01,-14.886111,-40.800833,Sudoeste,RPGA do Rio Pardo,0.0,0.0,0.0,0.25,0.0,0.0,0.0,0.0,0.25,0.0,1.25,0.0,0.0,0.0,0.0,0.0,0.0,0.0,0.0,0.0,0.0,0.0,0.0,4.75,0.0,14.0,0.0,0.0,0.25,33.0,53.75
Tremedal,CO-PR-03,Tremedal,Tremedal - CO-PR-03,-14.980998,-41.410135,Sudoeste,RPGA do Rio de Contas,0.0,0.0,0.0,0.0,0.0,0.0,1.75,0.0,0.0,0.0,0.0,0.0,0.0,0.0,0.0,0.0,0.0,5.5,0.0,0.0,0.0,0.0,0.0,0.0,0.0,0.0,0.5,0.0,2.25,15.25,25.25
Caravelas,A405,Caravelas,Caravelas - A405,-17.739413,-39.258617,Sul,"RPGA dos Rios Peruípe, Itanhém e Jucuruçu",0.0,0.0,28.2,8.2,3.2,0.2,0.0,5.2,0.0,0.8,0.0,0.6,0.2,0.0,0.0,0.0,0.0,0.6,0.0,0.2,0.0,0.0,2.6,11.8,0.0,38.8,0.0,0.0,0.4,0.2,101.21
Ilhéus,A410,Ilhéus,Ilhéus - A410,-14.658803,-39.181438,Sul,RPGA do Leste,0.0,0.0,0.0,0.0,0.0,0.0,0.0,1.6,13.8,1.4,0.2,0.0,0.0,0.0,0.0,0.4,0.2,0.0,0.0,0.0,0.0,0.4,5.8,10.8,2.2,0.0,0.0,0.0,0.2,6.2,43.2
Canavieiras,83398,Canavieiras,Canavieiras - 83398,-15.666667,-38.95,Sul,RPGA do Rio Pardo,0.0,0.0,0.0,15.2,0.0,0.0,0.0,10.4,7.4,2.6,0.0,0.0,0.0,0.0,0.0,0.0,0.0,0.0,0.0,0.0,0.0,0.0,0.0,4.2,0.9,0.0,0.0,0.0,0.0,21.6,62.31
Caravelas,83498,Caravelas,Caravelas - 83498,-17.739167,-39.258333,Sul,"RPGA dos Rios Peruípe, Itanhém e Jucuruçu",0.0,0.0,26.9,9.2,2.7,0.0,0.0,4.5,0.0,0.5,0.0,0.4,0.0,0.0,0.0,0.0,0.0,0.4,0.0,0.0,0.0,0.0,2.4,11.2,0.0,39.8,0.0,0.0,0.0,0.0,98.0
Guaratinga,83446,Guaratinga,Guaratinga - 83446,-16.58,-39.78,Sul,"RPGA dos Rios dos Frades, Buranhém e Santo Antônio",0.0,0.0,0.0,7.5,0.0,0.0,0.0,0.6,0.0,0.4,0.0,0.0,0.0,0.0,0.0,0.0,0.0,0.0,0.0,0.0,0.0,0.0,11.4,0.2,0.0,15.1,0.0,0.0,0.0,6.6,41.8
Maraú,A438,Maraú,Maraú - A438,-13.90694,-38.97222,Sul,RPGA do Recôncavo Sul,0.0,0.0,0.0,7.2,0.0,0.0,0.0,64.6,10.0,40.2,8.0,0.0,1.2,12.6,0.0,0.0,1.4,0.0,3.6,0.0,3.4,0.6,0.0,8.0,0.0,1.2,68.0,3.2,0.0,10.4,243.6
Abrolhos,A422,Caravelas,Caravelas (Abrolhos) - A422,-17.79052,-39.22789,Sul,"RPGA dos Rios Peruípe, Itanhém e Jucuruçu",0.0,0.0,0.0,1.0,0.0,0.0,9.4,0.0,0.0,3.6,0.0,0.0,0.0,0.0,0.4,9.2,2.0,0.0,0.0,0.0,0.0,0.0,0.0,0.0,0.0,7.8,0.0,0.0,0.0,0.0,33.4
CPLAC,LE-CL-01,Ilhéus,Ilhéus (CPLAC) - LE-CL-01,-14.80184,-39.181444,Sul,RPGA do Leste,0.0,0.0,0.0,0.0,0.0,0.0,0.0,5.25,0.0,3.75,0.0,0.0,0.0,0.0,0.0,0.0,0.0,0.0,0.0,0.0,0.0,0.0,1.25,21.0,5.0,0.0,0.5,0.0,0.0,8.0,44.75
Centro,290560201A,Camacan,Camacan (Centro) - 290560201A,-15.422225,-39.494984,Sul,RPGA do Rio Pardo,0.0,0.0,0.0,0.8,6.0,0.0,1.2,115.6,0.8,0.8,0.4,0.0,0.0,0.0,0.0,0.0,0.0,0.6,0.2,0.0,0.0,0.0,0.0,2.4,1.4,0.4,0.2,0.0,0.0,55.2,186.0
Teixeira de Freitas,PJ-CL-01,Teixeira de Freitas,Teixeira de Freitas - PJ-CL-01,-17.575555,-39.732777,Sul,"RPGA dos Rios Peruípe, Itanhém e Jucuruçu",0.0,0.0,0.0,12.0,0.0,0.0,0.0,4.75,0.25,1.5,1.25,0.0,0.0,0.0,0.0,0.0,0.0,0.25,1.25,0.0,0.0,0.0,0.5,0.5,1.0,14.75,0.0,0.0,0.0,0.0,38.0
Itabuna,Fazenda Barra,Itabuna,Itabuna - Fazenda Barra,-14.8997,-39.3686,Sul,RPGA do Leste,0.0,0.0,0.0,0.0,0.0,0.0,0.0,23.0,0.2,0.2,0.0,0.0,0.0,0.0,0.0,0.0,0.0,0.0,0.0,0.0,0.0,0.0,0.6,4.4,0.0,0.0,0.4,0.0,4.8,5.6,39.2
Centro,290340901A,Belmonte,Belmonte (Centro) - 290340901A,-15.859179,-38.878025,Sul,RPGA do Rio Jequitinhonha,0.0,0.0,0.0,22.2,0.0,0.0,0.0,78.5,34.3,7.1,0.2,0.2,0.0,0.0,0.0,0.0,0.0,0.2,0.0,0.0,0.0,0.0,0.4,18.3,0.2,17.3,0.4,0.0,0.2,25.4,204.9
São João do Panelinha,290560202A,Camacan,Camacan (São João do Panelinha) - 290560202A,-15.375278,-39.489984,Sul,RPGA do Rio Pardo,0.0,0.0,0.0,0.0,10.0,0.0,0.0,113.6,0.8,1.2,0.6,0.0,0.0,0.0,0.0,0.0,0.0,0.0,0.0,0.0,0.0,0.0,0.0,0.4,38.3,1.0,0.6,0.0,1.0,8.9,176.4
Centro,290560203A,Camacan,Camacan (Centro) - 290560203A,-15.416389,-39.493873,Sul,RPGA do Rio Pardo,0.0,0.0,0.0,0.6,2.6,0.2,0.0,100.8,0.8,0.8,0.4,0.0,0.0,0.0,0.0,0.0,0.0,0.6,0.0,0.0,0.0,0.0,0.0,3.2,2.4,1.0,0.2,0.2,0.0,32.3,146.11
Conquista,291360601A,Ilhéus,Ilhéus (Conquista) - 291360601A,-14.797213,-39.04608,Sul,RPGA do Leste,0.0,0.0,0.0,0.0,0.0,0.0,0.0,1.4,0.0,4.5,0.2,0.0,2.4,0.0,0.0,0.0,0.0,0.0,0.0,0.0,0.0,1.2,0.0,7.3,1.4,0.2,0.0,0.0,0.0,21.3,39.9
Malhado,291360602A,Ilhéus,Ilhéus (Malhado) - 291360602A,-14.789158,-39.048858,Sul,RPGA do Leste,0.0,0.0,0.0,0.0,0.0,0.0,0.0,0.6,0.0,3.8,0.2,0.0,2.0,0.0,0.0,0.0,0.0,0.0,0.0,0.0,0.0,0.0,0.0,7.3,1.0,0.0,0.0,0.0,0.0,25.2,40.1
São Caetano,291480202A,Itabuna,Itabuna (São Caetano) - 291480202A,-14.80638,-39.27803,Sul,RPGA do Leste,0.0,0.0,0.0,0.0,0.2,0.0,0.0,14.6,0.0,2.0,0.0,0.0,0.0,0.0,0.0,0.0,0.0,0.0,0.0,0.0,0.0,0.0,8.1,12.6,0.0,0.0,1.0,0.0,0.0,11.6,50.1
Nova Ferradas,291480203A,Itabuna,Itabuna (Nova Ferradas) - 291480203A,-14.857213,-39.346922,Sul,RPGA do Leste,0.2,0.0,0.0,0.0,0.0,0.0,0.0,22.1,1.0,0.4,0.0,0.0,0.0,0.0,0.0,0.0,0.0,0.0,0.0,0.0,0.0,0.0,3.2,2.4,2.4,0.2,1.8,0.0,1.2,7.5,42.4
Planalto I,292110401A,Medeiros Neto,Medeiros Neto (Planalto I) - 292110401A,-17.365,-40.223,Sul,"RPGA dos Rios Peruípe, Itanhém e Jucuruçu",0.0,0.0,3.2,0.4,0.0,0.0,0.0,0.2,0.0,2.6,0.0,0.0,0.0,0.0,0.0,0.0,0.0,0.0,0.0,0.0,0.0,0.0,2.6,2.8,4.7,0.8,33.1,0.0,0.0,0.0,50.41
Centro,292300102A,Nova Viçosa,Nova Viçosa (Centro) - 292300102A,-17.893,-39.372,Sul,"RPGA dos Rios Peruípe, Itanhém e Jucuruçu",0.0,0.0,27.8,14.6,1.4,0.0,0.0,0.0,0.0,0.6,0.0,2.8,0.2,0.0,0.0,0.0,0.0,0.0,0.0,0.0,0.0,0.0,0.0,43.2,0.4,66.6,0.0,3.0,31.7,0.0,192.3
Posto da Mata,292300103A,Nova Viçosa,Nova Viçosa (Posto da Mata) - 292300103A,-17.896,-39.37,Sul,"RPGA dos Rios Peruípe, Itanhém e Jucuruçu",0.0,0.0,28.4,15.0,1.8,0.0,0.4,0.2,0.0,0.6,0.0,3.9,0.2,0.0,0.0,0.0,0.0,0.0,0.0,0.0,0.0,0.0,0.0,38.8,0.6,68.0,0.0,1.8,33.5,0.0,193.2
Areião,292530301A,Porto Seguro,Porto Seguro (Areião) - 292530301A,-16.441,-39.076,Sul,"RPGA dos Rios dos Frades, Buranhém e Santo Antônio",0.0,0.0,0.0,10.1,41.2,0.0,0.0,41.7,0.2,9.3,0.4,0.0,0.0,0.0,0.0,0.0,0.0,0.0,0.0,0.0,0.0,0.0,2.4,0.4,0.0,20.8,0.0,0.0,1.6,52.3,180.41
Paraguai,292530302A,Porto Seguro,Porto Seguro (Paraguai) - 292530302A,-16.41,-39.08,Sul,"RPGA dos Rios dos Frades, Buranhém e Santo Antônio",0.0,0.0,0.0,10.1,88.5,0.0,0.0,58.9,0.8,8.8,1.4,0.0,0.0,0.0,0.0,0.0,0.0,2.4,0.0,0.0,0.0,0.0,0.8,0.0,0.2,33.7,0.0,0.0,0.6,43.6,249.8
Trancoso,292530303A,Porto Seguro,Porto Seguro (Trancoso) - 292530303A,-16.595,-39.109,Sul,"RPGA dos Rios dos Frades, Buranhém e Santo Antônio",0.0,0.0,0.0,5.1,27.4,0.0,0.0,16.8,1.2,1.0,0.0,0.0,0.4,0.0,0.0,0.0,0.0,0.0,0.0,0.0,0.0,0.0,9.5,0.2,0.0,36.4,0.2,0.0,0.0,57.4,155.6
BR367km4,292770501A,Santa Cruz Cabrália,Santa Cruz Cabrália (BR367km4) - 292770501A,-16.321,-39.023,Sul,"RPGA dos Rios dos Frades, Buranhém e Santo Antônio",0.0,0.0,0.0,1.6,9.9,0.0,0.0,76.2,3.7,32.1,0.0,0.0,0.0,0.0,0.0,0.0,0.0,0.0,0.0,0.0,0.0,0.0,13.4,0.0,0.2,6.7,0.0,0.0,0.0,36.5,180.3
Santa Rita de Cássia,A415,Santa Rita de Cássia,Santa Rita de Cássia - A415,-11.002768,-44.524965,São Francisco,RPGA do Rio Grande,0.0,0.0,1.2,0.2,0.4,0.4,0.2,9.4,0.0,0.0,0.0,0.0,0.0,0.0,0.0,0.0,7.0,0.0,0.0,0.2,8.2,29.2,22.8,1.4,0.0,45.8,0.4,0.0,15.6,0.0,142.4
Barra,83179,Barra,Barra - 83179,-11.083333,-43.166667,São Francisco,RPGA do Rio Grande,0.0,0.0,0.0,0.0,0.0,1.5,4.6,3.2,2.8,0.0,0.0,0.0,0.0,0.0,0.0,0.0,0.0,0.0,0.0,0.0,0.0,0.0,4.6,1.1,3.4,27.2,27.2,3.0,0.0,0.0,78.61
Bom Jesus da Lapa,83288,Bom Jesus da Lapa,Bom Jesus da Lapa - 83288,-13.251389,-43.405278,São Francisco,RPGA do Rio Carnaíba de Dentro,0.0,0.0,0.0,0.0,1.0,58.2,0.0,0.0,14.2,0.0,0.0,0.0,0.0,0.0,5.0,0.0,0.4,0.0,0.0,0.0,0.2,0.0,0.0,1.0,2.6,17.0,11.2,0.0,2.1,4.6,117.5
Caetité,83339,Caetité,Caetité - 83339,-14.066667,-42.483333,São Francisco,RPGA do Rio de Contas,0.0,0.0,0.0,0.0,0.0,0.0,7.4,1.2,0.0,0.0,0.0,0.0,0.0,0.0,0.0,0.0,0.0,0.0,0.0,0.0,0.0,0.0,0.0,0.0,0.0,26.4,45.0,0.4,0.4,43.0,123.81
Carinhanha,83408,Carinhanha,Carinhanha - 83408,-14.283333,-43.766667,São Francisco,"RPGA do Rio Corrente e Riachos do Ramalho, Serra Dourada e Brejo Velho",0.0,0.0,0.0,0.0,0.0,1.1,4.8,2.4,0.0,0.0,0.0,0.0,0.0,0.0,0.0,0.0,0.0,1.6,0.0,0.0,0.0,0.0,0.0,6.5,0.0,36.7,11.3,0.2,0.0,1.9,66.51
Santa Rita de Cássia,83076,Santa Rita de Cássia,Santa Rita de Cássia - 83076,-11.016667,-44.516667,São Francisco,RPGA do Rio Grande,0.0,0.0,1.3,0.0,0.3,0.6,0.0,10.0,0.0,0.0,0.0,0.0,0.0,0.2,0.0,0.0,8.0,0.0,0.0,0.2,8.2,35.8,24.0,1.4,0.0,55.0,0.1,0.0,16.0,0.0,161.1
Guanambí,A426,Guanambí,Guanambí - A426,-14.208123,-42.749647,São Francisco,RPGA do Rio Carnaíba de Dentro,0.0,0.0,0.0,0.0,0.0,0.0,11.8,37.0,0.0,0.0,0.0,0.0,0.0,0.0,0.0,0.0,0.0,0.0,0.0,0.0,0.0,0.0,0.0,0.0,0.0,2.8,5.8,0.0,0.4,105.4,163.2
Buritirama,A432,Buritirama,Buritirama - A432,-10.722925,-43.651203,São Francisco,RPGA do Rio Grande,0.0,0.0,0.0,0.0,0.4,20.2,0.0,0.0,15.2,0.2,0.0,0.0,0.0,0.0,0.0,0.0,1.0,0.0,0.0,0.2,17.0,0.0,5.2,2.2,0.2,17.0,0.2,7.4,0.8,0.0,87.21
Ibotirama,A439,Ibotirama,Ibotirama - A439,-12.19306,-43.21342,São Francisco,RPGA dos Rios Paramirim e Santo Onofre,0.0,0.0,0.0,0.0,0.0,3.8,3.8,0.0,0.6,0.2,0.0,9.4,0.4,0.0,0.0,0.0,0.0,3.8,0.0,0.4,0.2,0.0,5.4,8.4,0.0,25.6,5.8,28.4,5.0,0.2,101.4
Gentio do Ouro,,Gentio do Ouro,Gentio do Ouro,-11.42951,-42.513484,São Francisco,RPGA dos Rios Verde e Jacaré,0.0,0.0,0.0,0.0,0.0,0.0,26.4,0.0,0.0,0.0,16.0,0.0,0.0,0.0,0.0,0.0,0.0,0.0,0.0,0.0,0.0,0.0,11.8,0.0,0.0,26.2,12.2,0.0,0.0,0.0,92.61
Faz. Macambira,46675000,Cotegipe,Cotegipe (Faz. Macambira) - 46675000,-11.6106,-44.1567,São Francisco,RPGA do Rio Grande,0.0,0.0,0.0,0.0,0.0,2.0,4.8,0.2,0.2,0.2,0.0,0.8,0.0,0.0,0.0,0.0,0.0,0.0,0.0,0.6,7.0,0.2,0.2,0.0,32.2,32.4,0.2,46.0,0.0,0.0,127.01
Fz.P. Limpo,46870000,Mansidão,Mansidão (Fz.P. Limpo) - 46870000,-11.236845,-43.950633,São Francisco,RPGA do Rio Grande,0.0,0.0,0.0,0.0,3.2,0.2,0.0,0.0,0.0,0.0,0.0,0.0,0.0,0.0,0.0,0.0,0.0,0.0,0.2,1.8,1.0,0.2,9.6,0.0,0.2,57.6,2.8,10.4,23.8,0.0,111.0
Fazenda Caraíbas,,Fazenda Caraíbas,Fazenda Caraíbas,-12.571486,-42.074028,São Francisco,RPGA dos Rios Paramirim e Santo Onofre,0.0,0.0,0.0,0.0,0.0,5.6,23.2,0.0,0.0,0.2,0.2,0.0,0.0,0.8,0.0,0.0,0.0,0.0,0.0,4.6,0.0,0.2,0.0,0.0,0.0,0.4,70.8,4.6,0.0,5.8,116.4
