nome_estacao,codigo,municipio,estacao,latitude,longitude,regiao,rpga,01_07_15,02_07_15,03_07_15,04_07_15,05_07_15,06_07_15,07_07_15,08_07_15,09_07_15,10_07_15,11_07_15,12_07_15,13_07_15,14_07_15,15_07_15,16_07_15,17_07_15,18_07_15,19_07_15,20_07_15,21_07_15,22_07_15,23_07_15,24_07_15,25_07_15,26_07_15,27_07_15,28_07_15,29_07_15,30_07_15,31_07_15,total
Itaberaba,A408,Itaberaba,Itaberaba - A408,-12.524062,-40.299714,Chapada Diamantina,RPGA do Rio Paraguaçu,0.0,0.0,0.0,0.0,0.0,0.0,0.0,0.0,0.0,0.0,0.0,0.0,0.0,0.0,0.0,0.4,4.6,4.6,2.8,0.4,0.8,0.0,0.0,6.8,8.0,0.0,0.0,0.6,0.2,2.6,0.4,32.2
Macajuba,A412,Macajuba,Macajuba - A412,-12.131694,-40.354222,Chapada Diamantina,RPGA do Rio Paraguaçu,1.6,0.2,0.0,0.0,0.0,0.0,1.8,1.0,2.6,0.0,1.6,3.2,0.4,0.6,7.2,2.2,7.2,0.8,1.0,6.8,2.4,0.0,0.2,5.0,2.6,0.4,1.2,0.2,0.0,1.2,1.4,52.81
Itaberaba,83244,Itaberaba,Itaberaba - 83244,-12.516667,-40.283333,Chapada Diamantina,RPGA do Rio Paraguaçu,1.7,0.0,0.0,0.0,0.0,0.0,0.4,0.0,0.0,0.8,3.6,1.0,0.2,4.1,7.4,3.8,4.1,4.6,2.8,0.3,0.6,0.0,0.0,6.2,8.0,0.0,0.0,0.5,0.0,2.3,0.3,52.7
Lençóis,83242,Lençóis,Lençóis - 83242,-12.5575,-41.388889,Chapada Diamantina,RPGA do Rio Paraguaçu,3.0,0.6,0.0,0.0,0.0,0.0,1.2,0.1,0.1,0.6,3.6,10.3,0.0,0.6,3.6,3.9,13.1,0.7,1.4,0.7,0.1,0.0,0.0,3.7,3.1,0.0,0.0,0.0,0.1,0.0,0.0,50.51
Morro do Chapéu,83184,Morro do Chapéu,Morro do Chapéu - 83184,-11.216667,-41.216667,Chapada Diamantina,RPGA do Rio Salitre,6.8,0.0,0.0,0.0,0.0,0.0,1.8,1.2,2.8,0.2,3.2,1.2,3.0,1.2,2.4,0.8,3.0,2.4,0.2,2.0,0.0,0.0,0.0,1.3,3.0,0.0,0.0,0.0,0.0,0.0,0.6,37.1
Piatã,A430,Piatã,Piatã - A430,-13.155681,-41.774125,Chapada Diamantina,RPGA do Rio de Contas,11.2,0.0,0.0,0.0,0.2,2.0,4.0,0.8,0.2,0.0,0.2,5.6,0.0,4.2,8.4,4.6,7.4,7.2,0.6,0.0,0.0,0.0,0.0,7.4,0.2,0.0,0.0,0.0,0.0,0.0,0.0,64.2
Lençóis,A425,Lençóis,Lençóis - A425,-12.557854,-41.388808,Chapada Diamantina,RPGA do Rio Paraguaçu,3.2,0.6,0.0,0.0,0.0,0.0,1.2,0.0,0.2,0.6,3.8,10.6,0.2,1.0,3.8,4.4,13.0,0.8,1.4,0.8,0.2,0.0,0.0,3.6,3.6,0.0,0.0,0.0,0.0,0.0,0.0,53.0
Itaetê,,Itaetê,Itaetê,-12.991944,-40.960833,Chapada Diamantina,RPGA do Rio Paraguaçu,5.0,0.0,0.0,0.0,0.0,0.0,0.2,0.0,0.0,0.0,1.0,2.2,0.2,0.4,2.6,1.0,1.8,2.6,3.0,0.2,1.0,0.0,0.0,0.8,0.6,0.0,0.0,0.0,0.0,0.4,0.2,23.2
Lagoa Bonita,PG-PR-15,Iacú,Iacú (Lagoa Bonita) - PG-PR-15,-12.931506,-40.226468,Chapada Diamantina,RPGA do Rio Paraguaçu,0.25,0.0,0.0,0.0,0.0,0.0,0.5,0.0,0.0,0.0,1.5,2.25,0.0,0.75,1.75,1.25,1.5,0.0,1.0,0.0,0.0,0.0,0.0,0.25,0.5,0.0,0.25,0.0,0.25,0.25,0.0,12.25
João Amaro,PG-PR-16,Iaçu,Iaçu (João Amaro) - PG-PR-16,-12.800391,-40.363139,Chapada Diamantina,RPGA do Rio Paraguaçu,0.5,0.0,0.0,0.0,0.0,0.0,0.5,0.0,0.25,0.0,0.5,0.25,0.5,0.25,7.0,4.25,2.25,0.75,2.5,0.0,0.25,0.0,0.0,0.25,9.75,0.0,0.0,0.0,0.0,0.0,0.0,29.75
Boa Vista Tupim,PG-PR-17,Boa Vista Tupim,Boa Vista Tupim - PG-PR-17,-12.65622,-40.589813,Chapada Diamantina,RPGA do Rio Paraguaçu,1.5,0.0,0.0,0.0,0.0,0.0,2.5,0.0,0.0,0.0,0.0,1.0,0.0,2.0,8.25,3.5,3.0,0.5,0.5,0.0,0.0,0.0,0.0,1.75,0.5,0.0,0.0,0.0,0.0,0.0,0.0,25.0
Ruy Barbosa,PG-PR-18,Ruy Barbosa,Ruy Barbosa - PG-PR-18,-12.285653,-40.513698,Chapada Diamantina,RPGA do Rio Paraguaçu,0.75,0.0,0.0,0.0,0.0,0.0,0.5,0.0,0.0,0.0,2.75,2.25,0.0,0.25,3.75,4.5,4.25,2.5,3.0,0.25,0.5,0.0,0.0,1.25,1.0,0.0,0.0,0.0,0.0,0.0,0.0,27.5
Utinga,PG-PR-23,Utinga,Utinga - PG-PR-23,-12.030089,-41.058714,Chapada Diamantina,RPGA do Rio Paraguaçu,1.25,0.0,0.0,0.0,0.0,0.0,2.75,0.25,0.0,0.25,1.0,0.5,0.0,0.0,5.0,1.5,1.0,0.5,1.25,0.25,1.75,0.0,0.0,0.0,1.0,0.0,0.0,0.0,0.0,0.25,0.0,18.5
Guiné,PG-PR-24,Mucugê,Mucugê (Guiné) - PG-PR-24,-12.771772,-41.540679,Chapada Diamantina,RPGA do Rio Paraguaçu,0.75,0.0,0.0,0.0,0.0,0.25,0.25,0.0,0.0,0.0,0.0,1.5,0.25,1.5,9.5,1.25,3.25,1.75,0.0,0.0,0.0,0.0,0.0,0.5,0.25,0.0,0.0,0.0,0.0,0.0,0.0,21.0
Cascavel,PG-PR-27,Mucugê,Mucugê (Cascavel) - PG-PR-27,-13.285954,-41.287619,Chapada Diamantina,RPGA do Rio Paraguaçu,4.5,0.5,0.0,0.0,0.0,0.0,0.25,0.0,0.0,0.25,0.5,1.75,0.0,2.25,2.5,2.0,4.25,1.75,2.5,0.0,2.25,0.0,0.0,0.25,1.25,0.0,0.0,0.0,0.0,0.0,0.0,26.75
Mulungu do Morro,,Mulungu do Morro,Mulungu do Morro,-11.980363,-41.619012,Chapada Diamantina,RPGA do Rio Paraguaçu,0.8,0.0,0.0,0.0,0.0,0.0,3.8,0.2,1.0,0.0,0.6,1.0,0.0,0.0,1.0,4.4,0.4,1.0,0.4,0.0,0.0,0.0,0.0,0.0,0.0,0.0,0.0,0.0,0.0,0.4,0.0,15.0
Barro Alto,,Barro Alto,Barro Alto,-11.769188,-41.909464,Chapada Diamantina,RPGA dos Rios Verde e Jacaré,0.0,0.0,0.0,0.0,0.0,0.0,2.4,0.0,0.4,0.0,0.2,0.0,0.0,0.0,0.0,1.0,1.4,0.0,0.4,0.6,0.0,0.0,0.0,0.0,0.0,0.0,0.0,0.0,0.0,0.0,0.0,6.4
Canarana,,Canarana,Canarana,-11.69541,-41.78921,Chapada Diamantina,RPGA dos Rios Verde e Jacaré,0.0,0.2,0.0,0.0,0.0,0.0,0.0,0.0,0.0,0.0,0.0,0.0,0.0,0.0,0.0,0.0,0.2,0.4,0.2,0.0,0.0,0.0,0.0,0.0,0.0,0.0,0.0,0.0,0.0,0.0,0.0,1.0
Barra dos Mendes,,Barra dos Mendes,Barra dos Mendes,-11.805077,-42.05708,Chapada Diamantina,RPGA dos Rios Verde e Jacaré,0.0,0.0,0.0,0.0,0.0,0.0,0.0,0.0,0.0,0.0,0.0,0.4,0.0,0.0,0.0,0.8,0.0,0.2,0.4,0.2,0.0,0.0,0.0,0.0,0.0,0.0,0.0,0.0,0.0,0.0,0.0,2.01
Olho D'Água do Francisco,,Olho D'Água do Francisco,Olho D'Água do Francisco,-12.307034,-42.079028,Chapada Diamantina,RPGA dos Rios Verde e Jacaré,0.0,0.0,0.0,0.0,0.0,0.0,0.0,0.0,0.0,0.0,0.0,0.2,0.0,0.0,0.0,0.0,0.0,0.0,0.0,0.0,0.0,0.0,0.0,0.0,0.0,0.0,0.0,0.0,0.0,0.0,0.0,0.2
América Dourada,,América Dourada,América Dourada,-11.464848,-41.442615,Chapada Diamantina,RPGA dos Rios Verde e Jacaré,0.0,0.4,0.0,0.0,0.0,0.0,0.0,0.0,0.0,0.0,0.0,0.0,0.0,0.0,0.0,0.0,0.0,0.0,0.2,0.0,0.0,0.0,0.0,0.0,0.0,0.0,0.0,0.0,0.0,0.0,0.0,0.61
Cafarnaum,,Cafarnaum,Cafarnaum,-11.676688,-41.470143,Chapada Diamantina,RPGA dos Rios Verde e Jacaré,0.0,0.0,0.0,0.0,0.0,0.0,0.0,0.0,0.0,0.0,0.0,0.0,0.0,0.0,0.0,0.2,0.4,0.0,0.0,0.0,0.0,0.0,0.0,0.0,0.0,0.0,0.0,0.0,0.0,0.0,0.0,0.61
Ibiaporã,PG-CL-01,Mundo Novo,Mundo Novo (Ibiaporã) - PG-CL-01,-12.05379,-40.83722,Chapada Diamantina,RPGA do Rio Paraguaçu,5.5,0.0,0.0,0.0,0.0,0.0,5.0,0.75,1.75,0.25,5.0,0.5,1.25,0.5,0.25,8.0,6.5,4.75,2.75,3.75,9.75,0.0,0.0,3.25,3.25,0.0,0.25,0.5,0.0,1.0,0.75,65.25
Marcionílio Souza,PG-CL-03,Marcionílio Souza,Marcionílio Souza - PG-CL-03,-13.00021,-40.537783,Chapada Diamantina,RPGA do Rio Paraguaçu,1.5,0.0,0.0,0.0,0.0,0.0,0.25,0.0,0.0,0.0,1.75,0.5,0.0,0.25,0.5,0.75,0.25,1.75,2.25,0.0,0.25,0.0,0.0,0.0,0.0,0.0,0.0,0.0,0.0,1.75,0.0,11.75
Ventura,PG-PR-10,Morro do Chapéu,Morro do Chapéu (Ventura) - PG-PR-10,-11.650911,-40.951765,Chapada Diamantina,RPGA do Rio Paraguaçu,2.75,0.25,0.0,0.0,0.0,0.0,1.25,0.25,1.5,0.0,1.75,0.0,0.5,0.25,0.5,2.0,4.5,2.25,0.5,0.5,0.0,1.0,0.0,0.0,0.25,0.0,0.0,0.0,0.0,0.0,1.5,21.5
Bonito,PG-PR-11,Bonito,Bonito - PG-PR-11,-11.98993,-41.25429,Chapada Diamantina,RPGA do Rio Paraguaçu,9.0,0.25,0.0,0.5,0.0,1.5,16.75,7.0,2.0,0.25,1.0,2.5,1.0,1.0,10.0,15.0,11.0,5.75,2.25,3.0,4.5,0.0,0.0,10.5,6.5,0.25,0.0,0.0,0.0,1.0,0.0,112.5
Piatã,CO-CL-04,Piatã,Piatã - CO-CL-04,-13.164166,-41.770833,Chapada Diamantina,RPGA do Rio de Contas,8.25,0.0,0.0,0.0,0.0,0.25,2.0,0.25,0.0,0.0,0.0,1.25,0.0,1.5,5.5,3.75,2.5,3.5,1.25,0.0,0.0,0.0,0.0,2.75,0.0,0.0,0.0,0.0,0.0,0.0,0.0,32.75
Paulo Afonso,A411,Paulo Afonso,Paulo Afonso - A411,-9.379325,-38.227424,Nordeste,RPGA dos Rios Macururé e Curaçá,4.8,0.4,5.2,0.4,9.2,0.2,0.0,0.6,0.0,0.0,0.0,0.0,1.6,0.0,3.6,1.2,0.4,0.2,0.2,0.0,0.0,0.0,0.4,2.8,0.2,1.4,1.0,0.2,0.0,8.2,10.0,52.2
Cipó,83192,Cipó,Cipó - 83192,-11.083333,-38.516667,Nordeste,RPGA do Rio Itapicuru,1.2,0.0,0.0,0.0,1.8,4.9,1.2,6.8,2.7,8.9,0.6,0.0,9.0,0.0,3.8,6.3,2.7,1.8,0.0,2.6,0.0,0.0,0.6,5.8,7.1,0.8,0.0,0.8,0.0,1.2,1.4,72.0
Monte Santo,83090,Monte Santo,Monte Santo - 83090,-10.4425,-39.331111,Nordeste,RPGA do Rio Itapicuru,15.6,0.0,0.1,0.0,0.3,0.4,0.4,9.0,0.0,2.4,0.0,0.0,0.8,0.0,0.6,5.0,3.4,1.0,0.0,0.3,1.3,0.0,0.3,12.3,9.5,0.7,0.8,0.0,0.0,2.1,0.4,66.7
Serrinha,83190,Serrinha,Serrinha - 83190,-11.633333,-38.966667,Nordeste,RPGA do Recôncavo Norte,5.6,0.4,0.0,3.5,0.0,0.0,2.0,20.7,0.2,6.7,0.4,0.7,1.5,0.0,6.2,4.5,1.4,1.8,0.1,3.3,0.1,0.0,0.0,1.8,1.4,0.3,0.0,0.0,0.1,0.9,0.5,64.1
Conde,A431,Conde,Conde - A431,-12.03622,-37.68322,Nordeste,RPGA do Rio Itapicuru,4.6,0.0,16.6,0.0,7.8,0.0,0.2,6.6,16.4,2.0,1.0,3.4,9.4,2.2,2.8,9.8,0.6,15.6,2.0,30.0,0.2,0.0,34.6,20.2,0.2,6.8,0.0,7.0,0.4,24.2,0.0,224.6
Uauá,A435,Uauá,Uauá - A435,-9.833617,-39.495631,Nordeste,RPGA do Rio Vaza-Barris,0.4,0.0,0.0,0.0,0.0,0.0,0.0,1.2,0.0,5.0,0.0,0.0,0.0,0.0,0.0,0.4,0.0,0.2,0.0,0.0,0.0,0.0,0.0,2.4,2.2,0.0,2.0,0.0,0.0,0.6,0.0,14.4
Euclides da Cunha,A442,Euclides da Cunha,Euclides da Cunha - A442,-10.537233,-38.996605,Nordeste,RPGA do Rio Itapicuru,1.4,0.6,0.6,0.4,4.0,0.4,1.0,6.0,0.0,6.6,0.0,0.0,0.2,0.0,1.0,1.2,2.2,1.4,0.2,0.6,1.0,0.0,0.2,10.8,2.6,2.6,3.8,0.8,0.0,2.8,0.2,52.6
Queimadas,A436,Queimadas,Queimadas - A436,-10.984645,-39.617009,Nordeste,RPGA do Rio Itapicuru,4.8,0.0,0.2,0.8,0.0,2.2,0.0,7.8,0.2,8.2,0.0,0.0,0.0,0.0,1.0,2.4,1.0,0.2,0.0,4.4,1.4,0.0,0.0,0.6,0.4,0.0,0.0,0.0,0.0,1.2,0.0,36.8
Serrinha,A441,Serrinha,Serrinha - A441,-11.664586,-39.022946,Nordeste,RPGA do Rio Paraguaçu,5.2,0.0,0.2,3.6,0.0,0.0,1.2,16.6,0.2,14.8,0.4,1.0,2.0,0.0,5.6,3.2,0.6,2.6,0.4,3.6,0.2,0.0,0.8,3.8,0.8,0.0,0.0,0.2,0.0,0.8,1.6,69.4
Pedras Altas,50430000,Capim Grosso,Capim Grosso (Pedras Altas) - 50430000,-11.18288,-40.04725,Nordeste,RPGA do Rio Itapicuru,2.0,0.0,0.0,0.2,0.0,1.2,1.2,13.8,0.0,0.0,0.0,0.0,1.4,0.0,2.4,1.8,9.0,0.0,0.2,2.2,0.6,0.0,0.0,0.0,5.2,0.0,0.0,0.0,0.0,0.0,0.0,41.21
Ponto Novo,50380000,Ponto Novo,Ponto Novo - 50380000,-10.845,-40.1128,Nordeste,RPGA do Rio Itapicuru,9.0,0.0,0.0,0.0,0.0,1.0,1.8,13.2,0.2,0.0,0.0,0.0,0.8,0.0,1.0,9.0,4.4,0.4,0.0,5.6,0.6,0.0,0.0,0.0,2.6,0.0,0.0,0.0,0.0,0.0,0.0,49.6
Ipirá,PG-CL-02,Ipirá,Ipirá - PG-CL-02,-12.14986,-39.76454,Nordeste,RPGA do Rio Paraguaçu,3.0,0.0,0.0,0.0,0.0,0.0,2.75,6.75,2.5,0.0,0.25,0.75,0.0,0.0,6.75,0.25,1.5,1.75,4.25,0.75,0.25,0.0,0.25,5.25,1.75,2.0,0.0,0.0,0.0,0.0,0.0,40.75
Serrinha,RN-CL-02,Serrinha,Serrinha - RN-CL-02,-11.648333,-38.982777,Nordeste,RPGA do Recôncavo Norte,5.5,0.25,0.5,3.25,0.0,1.0,1.75,4.0,0.25,7.75,0.0,0.5,1.0,0.25,5.25,0.25,1.75,2.75,0.0,3.5,0.5,0.0,0.75,3.5,3.5,2.75,0.75,0.0,0.0,0.5,1.25,53.0
Valente,PG-PR-04,Valente,Valente - PG-PR-04,-11.40119,-39.458099,Nordeste,RPGA do Rio Paraguaçu,1.25,0.0,0.0,1.5,0.0,1.5,2.25,21.5,0.0,0.0,0.25,0.0,9.25,0.0,0.25,1.25,2.5,0.75,0.0,0.75,3.25,0.0,0.0,0.0,6.0,0.0,0.0,0.0,0.0,0.0,0.0,52.25
Pé de Serra,PG-PR-06,Pé de Serra,Pé de Serra - PG-PR-06,-11.833423,-39.623663,Nordeste,RPGA do Rio Paraguaçu,2.5,0.0,0.0,0.0,0.0,1.25,0.0,0.0,0.25,0.0,0.0,1.25,0.0,0.0,0.0,0.0,0.0,0.0,0.75,0.25,0.25,0.0,0.0,0.25,1.5,0.0,0.0,0.0,0.0,0.0,1.25,9.5
Centro,293010501A,Senhor do Bonfim,Senhor do Bonfim (Centro) - 293010501A,-10.464,-40.19,Nordeste,RPGA do Rio Itapicuru,10.4,0.0,0.0,0.6,0.0,5.5,3.8,7.15,0.0,1.0,0.2,0.0,1.8,0.0,1.4,3.4,4.0,0.8,0.0,4.4,0.0,0.0,0.0,1.0,3.0,0.0,0.0,0.0,0.0,0.8,0.0,49.25
Itapeipu,IT-PR-34,Jacobina,Jacobina (Itapeipu) - IT-PR-34,-11.315629,-40.356742,Nordeste,RPGA do Rio Itapicuru,3.0,0.0,0.0,0.25,0.0,2.75,1.25,8.0,0.0,0.75,5.5,0.0,4.25,0.25,0.75,1.5,3.5,0.0,0.5,0.0,2.0,0.0,0.0,1.75,1.0,0.0,0.25,0.25,0.0,0.5,0.5,38.5
Tombador Araújo,IT-PR-36,Jacobina,Jacobina (Tombador Araújo) - IT-PR-36,-11.168677,-40.670642,Nordeste,RPGA do Rio Itapicuru,5.0,0.0,0.0,0.0,0.0,0.0,0.5,11.5,2.5,0.25,3.0,0.0,5.0,0.0,0.25,2.0,6.75,1.0,0.25,0.25,3.75,0.0,0.0,1.25,1.5,0.0,0.25,0.0,0.0,0.0,0.0,45.0
Riacho da Onça,IT-PR-15,Queimadas,Queimadas (Riacho da Onça) - IT-PR-15,-11.24424,-39.790055,Nordeste,RPGA do Rio Itapicuru,4.75,0.0,0.0,0.0,0.0,1.5,3.75,12.25,0.0,0.0,0.0,0.0,1.75,0.0,1.0,2.75,3.5,0.0,0.75,1.5,0.0,0.0,0.0,0.25,0.0,0.0,0.0,0.0,0.0,0.0,0.0,33.75
Santaluz,IT-PR-17,Santaluz,Santaluz - IT-PR-17,-11.24831,-39.37563,Nordeste,RPGA do Rio Itapicuru,2.0,0.25,0.0,0.5,0.25,1.75,0.5,14.25,0.0,0.5,0.0,0.0,4.0,0.0,0.75,6.0,2.5,0.25,0.0,6.25,0.25,0.0,0.0,0.25,0.0,0.0,0.0,0.0,0.0,1.0,0.25,41.5
Açude Monteiro,IT-PR-23,Nordestina,Nordestina (Açude Monteiro) - IT-PR-23,-10.77645,-39.559491,Nordeste,RPGA do Rio Itapicuru,1.5,0.0,0.0,0.25,0.0,0.0,0.0,10.0,0.0,3.5,0.0,0.0,0.0,0.0,0.25,2.5,0.75,0.0,0.0,1.75,2.0,0.0,0.0,0.75,0.5,0.0,0.0,0.0,0.0,1.0,0.0,24.75
Pedra Vermelha,IT-PR-24,Monte Santo,Monte Santo (Pedra Vermelha) - IT-PR-24,-10.454497,-39.559488,Nordeste,RPGA do Rio Itapicuru,5.5,0.0,0.0,0.0,0.0,0.0,0.0,7.25,0.0,8.0,0.0,0.25,0.25,0.0,0.25,3.5,5.75,0.25,0.0,0.0,0.0,0.0,0.0,2.5,2.75,0.0,0.25,0.0,0.0,0.75,0.0,37.25
Quijingue,IT-PR-25,Quijingue,Quijingue - IT-PR-25,-10.783951,-39.20809,Nordeste,RPGA do Rio Itapicuru,1.5,0.25,0.0,0.25,0.0,0.0,0.0,2.5,0.0,0.0,0.0,0.0,0.0,0.0,0.25,2.5,0.25,0.25,0.0,0.25,0.75,0.0,0.0,8.5,1.5,0.0,0.25,0.0,0.75,0.75,0.0,20.5
Conde,IT-PR-31,Conde,Conde - IT-PR-31,-11.813434,-37.616927,Nordeste,RPGA do Rio Itapicuru,4.0,0.0,14.5,0.0,7.5,0.0,0.0,6.0,13.75,1.5,0.75,2.75,8.5,1.75,2.5,8.0,0.5,13.5,1.5,28.0,0.0,0.0,27.5,23.0,0.25,6.0,0.0,6.25,0.0,6.0,0.0,184.0
Curral Falso,IT-PR-01,Ribeira do Pombal,Ribeira do Pombal (Curral Falso) - IT-PR-01,-10.697843,-38.5714,Nordeste,RPGA do Rio Itapicuru,0.75,1.25,0.25,0.5,7.75,0.25,0.25,0.0,0.0,3.5,0.0,0.0,0.0,0.0,0.5,2.25,0.75,1.5,0.0,0.0,0.0,0.0,0.0,11.5,2.75,1.0,0.0,0.0,0.0,1.0,0.5,36.25
Aribicé,IT-PR-02,Euclides da Cunha,Euclides da Cunha (Aribicé) - IT-PR-02,-10.557835,-38.793352,Nordeste,RPGA do Rio Itapicuru,3.75,0.75,0.25,0.25,4.5,0.25,0.0,0.25,0.0,5.75,0.25,0.0,0.0,0.0,1.25,2.5,0.5,1.75,0.25,0.25,0.0,0.0,0.0,13.0,0.0,1.75,2.0,0.0,0.0,1.25,0.0,40.5
Ribeira do Pombal,IT-PR-04,Ribeira do Pombal,Ribeira do Pombal - IT-PR-04,-10.823399,-38.545844,Nordeste,RPGA do Rio Itapicuru,2.5,2.0,0.5,0.25,11.5,1.75,0.25,4.5,0.0,10.25,0.0,0.0,0.0,0.0,0.75,1.0,1.25,0.75,0.0,0.5,1.0,0.0,0.0,16.75,2.5,2.25,1.5,0.0,0.0,1.25,0.25,63.25
BR 116 E. Cunha / Tucano,IT-PR-05,Quijingue,Quijingue (BR 116 E. Cunha / Tucano) - IT-PR-05,-10.7105,-38.9227,Nordeste,RPGA do Rio Itapicuru,1.5,0.5,0.0,0.75,2.5,0.25,1.0,13.5,0.0,0.25,0.0,0.25,0.0,0.0,0.25,1.0,1.25,0.0,0.0,0.75,1.0,0.0,0.0,4.25,2.0,0.75,2.5,0.0,0.0,0.25,0.0,34.5
Crisópolis,IT-PR-08,Crisópolis,Crisópolis - IT-PR-08,-11.510923,-38.120832,Nordeste,RPGA do Rio Itapicuru,4.5,0.25,0.75,2.5,3.5,1.5,0.5,11.0,0.0,7.25,1.25,0.0,4.25,0.0,2.5,7.0,7.0,2.25,0.25,4.75,0.0,0.0,0.75,6.75,1.25,0.0,0.0,0.0,0.0,4.0,2.25,76.0
Estação Experimental,IT-PR-10,Nova Soure,Nova Soure (Estação Experimental) - IT-PR-10,-11.3083,-38.5361,Nordeste,RPGA do Rio Itapicuru,3.25,0.0,1.0,0.5,0.5,0.0,1.0,6.75,0.25,1.0,0.25,0.0,3.25,0.0,1.25,2.25,2.75,2.0,0.25,3.0,0.0,0.0,0.0,12.5,0.25,0.25,0.0,0.0,0.0,3.25,0.25,45.75
Olindina,IT-PR-11,Olindina,Olindina - IT-PR-11,-11.343693,-38.318892,Nordeste,RPGA do Rio Itapicuru,4.25,0.0,1.0,0.25,0.0,1.25,0.25,6.75,0.0,1.0,0.0,0.0,4.0,0.0,0.75,2.25,4.75,0.75,0.0,3.75,0.0,0.0,0.0,4.0,0.75,1.25,0.5,0.25,0.0,3.0,0.25,41.0
Irecê,83182,Irecê,Irecê - 83182,-11.3,-41.866667,Norte,RPGA dos Rios Verde e Jacaré,0.0,0.0,0.0,0.0,0.0,0.0,0.0,0.0,0.0,0.0,0.4,0.0,0.0,0.0,0.2,0.0,0.0,0.0,0.0,0.0,0.0,0.0,0.0,0.0,0.0,0.0,0.0,0.0,0.0,0.0,0.0,0.61
Remanso,82979,Remanso,Remanso - 82979,-9.633333,-42.1,Norte,RPGA do Lago de Sobradinho,0.0,0.0,0.0,0.0,0.0,0.0,0.0,0.1,0.0,0.0,0.0,0.0,0.0,0.0,0.0,1.7,0.0,0.0,0.0,0.0,0.0,0.0,0.0,0.0,0.0,0.0,0.0,0.0,0.0,0.0,0.0,1.8
Delfino,A443,Umburanas,Umburanas (Delfino) - A443,-10.45492,-41.206996,Norte,RPGA do Rio Salitre,0.6,0.2,0.0,0.0,0.0,0.0,0.0,3.0,0.0,0.0,0.0,0.0,0.0,0.0,0.0,0.6,3.4,2.2,0.0,0.2,0.6,0.0,0.0,0.0,0.2,0.0,0.0,0.0,0.0,0.0,0.0,11.0
Remanso,A423,Remanso,Remanso - A423,-9.625693,-42.077214,Norte,RPGA do Lago de Sobradinho,0.0,0.0,0.0,0.0,0.0,0.0,0.0,0.2,0.0,0.0,0.0,0.0,0.0,0.0,0.0,2.0,0.0,0.0,0.0,0.0,0.0,0.0,0.0,0.0,0.0,0.0,0.0,0.0,0.0,0.0,0.0,2.2
Irecê,A424,Irecê,Irecê - A424,-11.328998,-41.864504,Norte,RPGA dos Rios Verde e Jacaré,0.2,0.0,0.0,0.0,0.0,0.0,0.0,0.0,0.0,0.0,1.0,0.0,0.0,0.0,0.2,0.0,0.8,0.0,0.0,0.0,0.0,0.0,0.0,0.0,0.0,0.0,0.0,0.0,0.0,0.0,0.0,2.2
Mandacaru,Convencional,Juazeiro,Juazeiro (Mandacaru) - Convencional,-9.401263,-40.434428,Norte,RPGA dos Rios Macururé e Curaçá,0.0,0.0,0.0,0.0,0.0,0.4,0.0,2.5,0.0,0.0,0.0,0.0,0.0,0.0,0.0,0.0,0.0,0.0,0.0,0.0,0.0,0.0,0.0,0.0,0.0,0.0,0.0,0.0,0.0,1.2,0.0,4.1
Casa Nova,Faz. Santa Felicidade,Casa Nova,Casa Nova - Faz. Santa Felicidade,-9.333333,-40.8,Norte,RPGA do Lago de Sobradinho,0.0,0.0,0.0,0.0,0.0,0.0,0.0,0.0,2.5,0.0,0.0,0.0,0.0,0.0,0.0,2.0,0.0,0.0,0.0,0.0,0.0,0.0,0.0,0.0,0.0,0.0,0.0,0.0,0.0,0.0,0.0,4.5
Juazeiro,Fazenda Brasil Uvas,Juazeiro,Juazeiro - Fazenda Brasil Uvas,-9.316666,-40.183333,Norte,RPGA dos Rios Macururé e Curaçá,0.0,0.0,0.0,0.0,0.0,1.78,0.0,0.0,1.78,0.0,0.0,0.0,0.0,0.0,0.0,0.0,0.0,0.0,0.0,0.0,0.0,0.0,0.0,0.0,0.0,0.0,0.0,0.0,0.0,0.0,1.27,4.83
Juazeiro,Massaroca,Juazeiro,Juazeiro - Massaroca,-9.8,-40.233333,Norte,RPGA dos Rios Macururé e Curaçá,0.0,0.0,0.0,0.0,0.0,0.0,0.0,2.3,1.0,0.0,0.0,0.0,0.0,0.0,0.3,0.0,0.4,0.0,0.1,0.0,0.0,0.0,0.0,0.1,1.3,0.0,0.0,0.0,0.0,0.0,0.0,5.5
Juazeiro,Santa Helena,Juazeiro,Juazeiro - Santa Helena,-9.566666,-40.3,Norte,RPGA dos Rios Macururé e Curaçá,0.0,0.0,0.0,0.0,0.0,0.0,0.0,1.6,1.6,0.0,0.0,0.0,0.0,0.0,0.0,0.8,1.6,0.0,0.2,0.0,0.0,0.0,0.0,2.4,0.0,0.0,0.0,0.0,0.0,0.0,0.0,8.2
Juazeiro,Salitre,Juazeiro,Juazeiro - Salitre,-9.5,-40.633333,Norte,RPGA dos Rios Macururé e Curaçá,0.0,0.0,0.0,0.0,0.0,0.0,0.0,1.4,1.3,0.0,0.0,0.0,0.0,0.0,0.0,0.0,1.3,0.0,0.0,0.0,0.0,0.0,0.0,0.0,0.0,0.0,0.0,0.0,0.0,0.0,0.1,4.1
Ibitibá,,Ibitibá,Ibitibá,-11.551736,-41.968187,Norte,RPGA dos Rios Verde e Jacaré,0.0,0.0,0.0,0.0,0.0,0.0,0.0,0.0,0.0,0.0,0.0,0.0,0.0,0.0,0.0,0.0,0.2,0.0,0.0,0.0,0.0,0.0,0.0,0.0,0.4,0.0,0.2,0.0,0.0,0.0,0.0,0.8
Jussara,Arrecife,Jussara,Jussara - Arrecife,-11.065335,-41.974853,Norte,RPGA dos Rios Verde e Jacaré,0.0,0.0,0.0,0.0,0.6,0.0,0.0,0.0,0.0,0.0,0.4,0.0,0.0,0.0,0.0,0.0,0.0,0.0,0.0,0.0,0.0,0.0,0.0,0.0,0.0,0.0,0.0,0.0,0.0,0.0,0.0,1.0
Ibipeba,,Ibipeba,Ibipeba,-11.673962,-42.010413,Norte,RPGA dos Rios Verde e Jacaré,0.0,0.0,0.0,0.0,0.0,0.0,0.8,0.0,0.0,0.0,0.0,0.0,0.0,0.0,0.0,0.8,0.8,0.2,0.0,0.0,0.0,0.0,0.0,0.0,0.0,0.2,0.0,0.0,0.0,0.0,0.0,2.81
Central,,Central,Central,-11.135391,-42.093468,Norte,RPGA dos Rios Verde e Jacaré,0.0,0.0,0.0,0.0,0.0,0.0,0.0,0.0,0.0,0.0,1.6,0.0,0.0,0.0,0.2,0.0,0.0,0.0,0.0,0.0,0.0,0.0,0.0,0.0,0.0,0.0,0.0,0.0,0.0,0.0,0.0,1.8
Juazeiro,48020000,Juazeiro,Juazeiro - 48020000,-9.4064,-40.5036,Norte,RPGA dos Rios Macururé e Curaçá,0.0,0.0,0.0,0.0,0.0,0.2,0.0,2.6,0.0,0.0,0.0,0.0,0.0,0.0,0.0,0.0,0.0,0.0,0.0,0.0,0.0,0.0,0.0,0.0,0.0,0.0,0.0,0.0,0.0,0.0,0.0,2.81
Uibai,,Uibai,Uibai,-11.294784,-42.14208,Norte,RPGA dos Rios Verde e Jacaré,0.0,0.0,0.0,0.0,0.0,0.0,0.0,0.0,0.0,0.0,0.0,0.0,0.0,0.0,0.0,0.0,0.0,0.0,0.0,0.0,0.0,0.0,0.0,0.0,0.0,0.0,0.0,0.0,0.0,0.0,0.0,0.0
Irecê,VJ-CL-01,Irecê,Irecê - VJ-CL-01,-11.289166,-41.894166,Norte,RPGA dos Rios Verde e Jacaré,0.0,0.0,0.0,0.0,0.0,0.0,0.0,0.0,0.0,0.0,0.0,0.0,0.0,0.0,0.0,0.0,0.0,0.0,0.0,0.0,0.0,0.0,0.0,0.0,0.0,0.0,0.0,0.0,0.0,0.0,0.0,0.0
Santa Rosa,SM-PR-01,Jaguarari,Jaguarari (Santa Rosa) - SM-PR-01,-10.098374,-39.869774,Norte,RPGA dos Rios Macururé e Curaçá,1.0,0.0,0.0,0.0,0.0,0.0,0.25,5.0,0.0,2.0,0.0,0.0,0.25,0.0,0.5,4.25,1.75,0.0,0.0,0.0,0.0,0.0,0.0,1.75,2.0,0.0,0.0,0.0,0.0,1.25,0.0,20.0
Juazeiro,Mandacaru,Juazeiro,Juazeiro - Mandacaru,-9.4,-40.433333,Norte,RPGA dos Rios Macururé e Curaçá,0.0,0.0,0.0,0.0,0.5,0.0,0.0,2.79,0.0,0.0,0.0,0.0,0.0,0.0,0.0,0.0,0.0,0.0,0.0,0.0,0.0,0.0,0.0,0.0,0.0,0.0,0.0,0.0,0.0,0.76,0.0,4.05
Campo Formoso,IT-PR-27,Campo Formoso,Campo Formoso - IT-PR-27,-10.510327,-40.332849,Norte,RPGA do Rio Itapicuru,9.0,1.0,0.0,2.0,0.0,1.25,5.75,22.75,0.5,0.5,0.0,0.5,2.5,0.0,4.25,11.5,8.5,0.25,0.0,4.75,1.25,0.25,0.25,6.5,7.5,0.75,0.5,0.25,0.5,2.75,0.5,96.0
Jaguarari,IT-PR-28,Jaguarari,Jaguarari - IT-PR-28,-10.269489,-40.200344,Norte,RPGA do Rio Itapicuru,11.5,0.5,0.0,0.25,0.0,4.75,0.75,7.75,0.0,0.0,0.0,0.0,0.5,0.0,2.5,2.0,4.25,0.25,0.0,0.25,1.0,0.0,0.0,1.5,7.0,0.0,0.0,0.0,0.0,2.25,0.0,47.0
Olho D'Água,,Olho D'Água,Olho D'Água,-10.700331,-40.601468,Norte,RPGA do Rio Salitre,2.8,0.0,0.0,0.0,0.0,0.2,1.6,7.6,0.6,0.0,0.2,0.2,0.4,0.0,1.2,2.4,3.4,2.0,0.4,3.6,1.0,0.0,0.0,0.8,4.4,0.0,0.2,0.0,0.0,3.8,0.0,36.8
Taquarendi,,Taquarendi,Taquarendi,-10.893669,-40.687028,Norte,RPGA do Rio Salitre,0.4,0.0,0.0,0.0,0.0,0.2,0.0,1.8,0.0,0.2,0.0,0.0,0.2,0.2,0.2,2.0,2.8,1.2,0.0,1.8,0.6,0.2,0.0,0.2,0.6,0.0,0.0,0.0,0.0,0.0,0.0,12.6
Correntina,A416,Correntina,Correntina - A416,-13.332386,-44.617376,Oeste,"RPGA do Rio Corrente e Riachos do Ramalho, Serra Dourada e Brejo Velho",0.0,0.0,0.0,0.0,0.0,0.0,0.0,0.0,0.0,0.0,0.0,0.0,0.0,0.0,0.0,0.0,0.0,0.0,0.0,0.0,0.0,0.0,0.0,0.0,0.0,0.0,0.0,0.0,0.0,0.0,0.0,0.0
Barreiras,83236,Barreiras,Barreiras - 83236,-12.155556,-45.007778,Oeste,RPGA do Rio Grande,0.0,0.0,0.0,0.0,0.0,0.0,0.0,0.0,0.0,0.0,0.0,0.0,0.0,0.0,0.0,0.0,0.0,0.0,0.0,0.0,0.0,0.0,0.0,0.0,0.0,0.0,0.0,0.0,0.0,0.0,0.0,0.0
Correntina,83286,Correntina,Correntina - 83286,-13.332222,-44.617222,Oeste,"RPGA do Rio Corrente e Riachos do Ramalho, Serra Dourada e Brejo Velho",0.0,0.0,0.0,0.0,0.0,0.0,0.0,0.0,0.0,0.0,0.0,0.0,0.0,0.0,0.0,0.0,0.0,0.0,0.0,0.0,0.0,0.0,0.0,0.0,0.0,0.0,0.0,0.0,0.0,0.0,0.0,0.0
Form. Rio Preto,46550000,Barreiras,Barreiras (Form. Rio Preto) - 46550000,-11.154444,-45.009166,Oeste,RPGA do Rio Grande,0.0,0.0,0.0,0.0,0.0,0.0,0.0,0.0,0.0,0.0,0.0,0.0,0.0,0.0,0.0,0.0,0.0,0.0,0.0,0.0,0.0,0.0,0.0,0.0,0.0,0.0,0.0,0.0,0.0,0.0,0.0,0.0
Arrojado,45770000,Correntina,Correntina (Arrojado) - 45770000,-13.4528,-44.5689,Oeste,"RPGA do Rio Corrente e Riachos do Ramalho, Serra Dourada e Brejo Velho",0.0,0.0,0.0,0.0,0.0,0.0,0.0,0.0,0.0,0.0,0.0,0.0,0.0,0.0,0.0,0.0,0.0,0.0,0.0,0.0,0.0,0.0,0.0,0.0,0.0,0.0,0.0,0.0,0.0,0.0,0.0,0.0
Mocambo,45740001,Correntina,Correntina (Mocambo) - 45740001,-13.28572,-44.56284,Oeste,"RPGA do Rio Corrente e Riachos do Ramalho, Serra Dourada e Brejo Velho",0.0,0.2,0.0,0.0,0.0,0.0,0.0,0.0,0.0,0.0,0.0,0.0,0.0,0.0,0.0,0.0,0.0,0.0,0.0,0.0,0.0,0.0,0.0,0.0,0.0,0.0,0.0,0.0,0.0,0.0,0.0,0.2
PCH Pres. Goulart-J,45600000,Correntina,Correntina (PCH Pres. Goulart-J) - 45600000,-13.3344,-44.6208,Oeste,"RPGA do Rio Corrente e Riachos do Ramalho, Serra Dourada e Brejo Velho",0.0,0.0,0.0,0.0,0.0,0.0,0.0,0.0,0.0,0.0,0.0,0.0,0.0,0.0,0.0,0.0,0.0,0.0,0.0,0.0,0.0,0.0,0.0,0.8,0.0,0.0,0.0,0.0,0.0,0.0,0.0,0.8
PCH Pres. Goulart-M1,45588000,Correntina,Correntina (PCH Pres. Goulart-M1) - 45588000,-13.3408,-44.6414,Oeste,"RPGA do Rio Corrente e Riachos do Ramalho, Serra Dourada e Brejo Velho",0.0,0.0,0.0,0.0,0.0,0.0,0.0,0.0,0.0,0.0,0.0,0.0,0.0,0.0,0.0,0.0,0.0,0.0,0.0,0.0,0.0,0.0,0.0,0.8,0.0,0.0,0.0,0.0,0.0,0.0,0.0,0.8
COACERAL,GR-CL-02,Formosa do Rio Preto,Formosa do Rio Preto (COACERAL) - GR-CL-02,-10.561944,-45.693333,Oeste,RPGA do Rio Grande,0.0,0.0,0.0,0.0,0.0,0.0,0.0,0.0,0.0,0.0,0.0,0.0,0.0,0.0,0.0,0.0,0.0,0.0,0.0,0.0,0.0,0.0,0.0,0.0,0.0,0.0,0.0,0.0,0.0,0.0,0.0,0.0
Barreiras,A402,Barreiras,Barreiras - A402,-12.124715,-45.027049,Oeste,RPGA do Rio Grande,0.0,0.0,0.0,0.0,0.0,0.0,0.0,0.0,0.0,0.0,0.0,0.0,0.0,0.0,0.0,0.0,0.0,0.0,0.0,0.0,0.0,0.0,0.0,0.0,0.0,0.0,0.0,0.0,0.0,0.0,0.0,0.0
São Desidério,R. Velha - GR-CL-01,São Desidério,São Desidério - R. Velha - GR-CL-01,-12.898055,-46.157222,Oeste,RPGA do Rio Grande,0.4,0.0,0.0,0.0,0.0,0.0,0.0,0.2,0.1,0.0,0.0,0.0,0.0,0.3,0.0,0.3,0.0,0.1,0.0,0.0,0.0,0.0,0.0,0.0,0.4,0.6,0.0,0.0,0.0,0.0,0.0,2.41
J. Zoológico,A401,Salvador,Salvador (J. Zoológico) - A401,-13.005515,-38.50576,Recôncavo,RPGA do Recôncavo Norte,12.2,0.4,0.0,3.8,0.0,0.6,21.8,24.4,10.8,10.4,9.0,0.0,1.4,1.6,7.2,8.2,2.6,12.6,4.6,0.0,9.8,0.0,1.4,36.2,5.4,1.4,0.0,0.6,0.6,1.8,0.0,188.8
Salvador,Canabrava,Salvador,Salvador - Canabrava,-12.924122,-38.429942,Recôncavo,RPGA do Recôncavo Norte,5.7,1.7,1.9,1.8,0.0,0.6,25.6,17.7,12.3,1.3,4.1,0.2,10.6,1.1,7.6,6.1,0.8,7.2,1.7,2.4,0.7,1.0,0.8,19.4,6.5,2.8,0.5,0.9,1.8,1.6,0.3,146.71
Feira de Santana,A413,Feira de Santana,Feira de Santana - A413,-12.1962,-38.967384,Recôncavo,RPGA do Recôncavo Norte,0.4,0.2,0.0,1.2,0.0,3.2,24.6,27.0,0.2,0.0,5.8,2.4,0.4,0.2,2.6,2.0,4.0,2.0,2.0,0.6,0.2,0.0,0.0,6.0,1.6,0.4,0.0,0.0,0.0,0.0,4.6,91.6
Alagoinhas,83249,Alagoinhas,Alagoinhas - 83249,-12.148333,-38.425556,Recôncavo,RPGA do Recôncavo Norte,3.8,0.5,1.1,1.3,0.2,0.0,7.5,14.7,5.0,4.5,8.5,0.0,3.0,0.0,6.3,3.8,2.9,2.0,2.2,3.0,0.0,0.0,0.0,9.3,0.5,0.0,0.0,1.1,0.0,3.9,2.5,87.6
Cruz das Almas,83222,Cruz das Almas,Cruz das Almas - 83222,-12.666667,-39.083333,Recôncavo,RPGA do Rio Paraguaçu,4.3,1.9,0.0,0.0,0.0,1.4,14.2,39.0,8.4,1.5,2.7,0.0,2.5,0.6,21.5,4.1,1.0,9.4,0.9,7.2,1.6,0.0,0.0,20.6,3.4,3.1,1.5,0.4,0.0,0.4,1.2,152.8
Feira de Santana,83221,Feira de Santana,Feira de Santana - 83221,-12.196111,-38.967222,Recôncavo,RPGA do Recôncavo Norte,0.2,0.0,0.0,1.2,0.0,2.4,15.8,24.2,0.0,0.0,0.0,6.8,1.0,0.0,3.6,5.8,6.5,2.2,2.5,1.0,0.0,0.0,0.0,7.1,1.6,0.6,0.0,0.0,0.0,0.0,4.6,87.1
Amargosa,A434,Amargosa,Amargosa - A434,-13.009468,-39.616881,Recôncavo,RPGA do Recôncavo Sul,8.4,1.0,0.2,0.0,0.0,0.0,2.6,0.2,0.6,1.2,13.4,2.8,0.0,6.0,21.8,6.4,23.8,7.8,6.0,0.6,1.2,0.4,0.0,11.2,4.2,3.8,1.6,3.2,0.2,1.4,5.6,135.6
Valença,A444,Valença,Valença - A444,-13.34361,-39.12667,Recôncavo,RPGA do Recôncavo Sul,3.6,3.2,0.6,0.4,0.0,14.8,13.8,3.0,6.8,4.2,13.8,0.8,2.2,14.8,21.4,9.6,16.2,17.6,5.0,2.2,4.0,2.6,2.4,29.6,15.8,3.6,0.0,4.2,4.2,10.0,14.2,244.6
Mata de São João,ETA - Embasa,Mata de São João,Mata de São João - ETA - Embasa,-12.394946,-37.934649,Recôncavo,RPGA do Recôncavo Norte,0.0,0.0,0.0,4.1,0.0,0.0,22.4,19.1,42.3,0.0,0.0,40.2,7.5,0.2,0.2,0.0,0.0,0.0,0.0,0.0,0.0,0.0,0.7,39.5,0.0,0.0,0.0,0.0,0.0,0.0,0.0,176.2
Candeias,EMBASA,Candeias,Candeias - EMBASA,-12.663561,-38.533,Recôncavo,RPGA do Recôncavo Norte,0.3,0.0,0.0,5.0,0.0,6.0,16.5,27.0,9.1,3.9,7.2,0.3,19.0,1.9,7.2,7.6,3.6,1.3,8.4,0.0,1.5,2.2,1.8,10.1,0.0,1.2,0.0,0.0,3.9,0.0,1.0,146.0
Dias D´Ávila,EMBASA,Dias D´Ávila,Dias D´Ávila - EMBASA,-12.620505,-38.315217,Recôncavo,RPGA do Recôncavo Norte,1.8,0.0,1.3,11.9,0.0,0.0,9.6,70.7,21.2,1.6,5.4,0.1,1.1,0.1,9.3,4.1,16.8,7.7,0.8,1.2,0.0,8.0,8.0,23.3,3.6,0.8,0.0,1.0,0.0,0.4,0.2,210.0
São Sebastião do Passé-EMBASA,,São Sebastião do Passé-EMBASA,São Sebastião do Passé-EMBASA,-12.517449,-38.492165,Recôncavo,RPGA do Recôncavo Norte,0.9,0.0,0.0,1.2,0.0,1.6,11.2,39.5,4.1,0.8,0.0,0.0,0.4,14.7,8.5,3.8,11.1,2.6,0.3,1.6,0.0,0.0,1.7,29.6,3.6,1.0,0.0,0.0,0.0,0.0,0.0,138.2
Joanes II,322,Simões Filho,Simões Filho (Joanes II) - 322,-12.674147,-38.376254,Recôncavo,RPGA do Recôncavo Norte,2.3,0.0,1.2,1.4,0.0,1.1,1.4,37.1,20.2,7.8,0.8,0.7,2.1,0.0,1.4,3.1,13.3,5.0,2.7,0.4,5.8,0.0,0.9,33.0,8.6,0.0,0.0,4.3,5.4,0.0,0.2,160.2
Santa Helena,323,Camaçari,Camaçari (Santa Helena) - 323,-12.56202,-38.1606,Recôncavo,RPGA do Recôncavo Norte,0.6,0.3,0.6,0.0,0.0,0.2,1.0,31.0,25.6,5.7,2.1,5.3,8.4,1.7,9.0,2.8,10.7,2.1,1.3,8.1,0.2,1.1,5.6,17.8,4.3,0.7,0.0,2.5,0.0,4.7,1.5,154.9
Salvador,(MONT SERRAT - PCD),Salvador,Salvador - (MONT SERRAT - PCD),-12.930959,-38.516964,Recôncavo,RPGA do Recôncavo Norte,5.2,0.0,6.8,0.0,0.0,0.0,8.2,23.4,33.2,0.2,0.0,7.0,0.0,0.0,0.0,0.0,0.0,0.0,20.8,0.2,0.0,0.0,0.0,0.0,51.4,0.2,0.0,0.0,0.0,0.0,0.0,156.6
Ondina,83229,Salvador,Salvador (Ondina) - 83229,-13.005278,-38.505833,Recôncavo,RPGA do Recôncavo Norte,11.9,0.4,0.0,4.0,0.0,0.6,20.8,24.9,10.1,10.1,8.6,0.0,1.5,1.6,7.1,7.7,2.0,11.8,5.2,0.0,10.1,0.0,1.2,35.7,5.2,1.4,0.0,0.3,0.5,1.2,0.0,183.9
Feira de Santana,PG-PR-13,Feira de Santana,Feira de Santana - PG-PR-13,-12.268161,-38.96642,Recôncavo,RPGA do Rio Paraguaçu,0.25,0.25,0.0,0.25,0.0,5.75,24.0,41.5,1.25,0.25,0.25,1.0,0.5,0.0,5.25,0.75,2.0,2.75,1.75,1.75,0.25,0.0,0.0,9.5,6.25,0.5,0.0,0.25,0.25,0.0,4.0,110.5
Itatim,PG-PR-14,Itatim,Itatim - PG-PR-14,-12.720391,-39.700059,Recôncavo,RPGA do Rio Paraguaçu,0.75,0.25,0.0,0.0,0.0,0.0,0.0,0.0,0.25,0.0,2.5,0.5,0.25,4.25,5.0,0.75,4.75,3.75,0.5,0.25,0.75,5.25,0.0,2.0,0.5,0.0,0.25,0.25,0.25,0.0,0.75,33.75
Águas Claras,292740808A,Salvador,Salvador (Águas Claras) - 292740808A,-12.8944,-38.441889,Recôncavo,RPGA do Recôncavo Norte,6.9,0.8,0.8,0.0,0.0,0.0,19.5,17.2,16.4,1.4,5.0,0.0,6.5,0.6,14.8,7.5,0.2,1.0,4.1,3.8,1.4,0.0,15.2,28.6,0.6,2.4,0.0,1.0,0.0,2.0,0.4,158.1
Cosme de Farias,292740816A,Salvador,Salvador (Cosme de Farias) - 292740816A,-12.979402,-38.4855,Recôncavo,RPGA do Recôncavo Norte,7.7,2.6,0.6,1.2,0.0,0.2,25.8,20.7,10.5,4.5,10.5,0.0,2.6,6.7,9.4,9.9,3.0,14.1,4.3,0.0,6.1,0.0,1.4,32.7,9.1,5.6,0.8,1.0,0.2,3.6,0.6,195.4
São Caetano,292740814A,Salvador,Salvador (São Caetano) - 292740814A,-12.939678,-38.474667,Recôncavo,RPGA do Recôncavo Norte,3.2,2.6,2.0,2.4,0.0,1.4,11.9,27.6,10.7,1.0,4.2,1.4,6.8,3.0,7.7,6.5,0.2,13.1,8.8,0.2,0.4,0.0,2.6,24.8,14.3,2.4,0.0,0.4,0.6,1.8,0.0,162.01
Pirajá,292740801A,Salvador,Salvador (Pirajá) - 292740801A,-12.8994,-38.458833,Recôncavo,RPGA do Recôncavo Norte,3.6,0.0,0.6,0.0,0.0,0.0,16.7,17.7,23.6,1.4,5.4,0.0,4.9,2.6,13.6,11.0,0.4,3.1,8.9,5.5,1.2,2.4,12.6,29.3,2.8,2.2,0.0,0.6,0.0,0.2,0.0,170.3
Valéria,292740817A,Salvador,Salvador (Valéria) - 292740817A,-12.8644,-38.438276,Recôncavo,RPGA do Recôncavo Norte,6.3,2.2,2.9,2.4,0.0,0.0,23.6,21.7,19.5,13.6,7.7,0.0,8.5,2.8,15.5,9.3,8.1,2.4,3.7,10.4,0.2,0.2,11.2,31.5,2.8,0.0,0.0,1.0,0.0,4.5,0.4,212.4
Santa Terezinha,290650105A,Candeias,Candeias (Santa Terezinha) - 290650105A,-12.647172,-38.539112,Recôncavo,RPGA do Recôncavo Norte,0.4,0.0,0.8,8.7,0.0,0.4,18.4,36.4,2.6,4.7,4.7,3.0,12.0,1.0,6.9,2.8,6.7,2.8,5.7,0.0,1.0,0.0,1.2,29.2,1.8,1.2,0.2,2.2,2.4,0.0,0.6,157.8
Centro,290650101A,Candeias,Candeias (Centro) - 290650101A,-12.670229,-38.544112,Recôncavo,RPGA do Recôncavo Norte,0.2,0.0,1.4,4.5,0.0,0.4,27.5,41.4,2.2,4.0,4.0,4.8,27.4,1.4,8.3,3.9,6.9,0.4,6.9,0.0,1.6,0.0,2.2,32.6,3.2,0.2,0.0,1.4,4.8,1.2,3.4,196.2
Malemba,290650102A,Candeias,Candeias (Malemba) - 290650102A,-12.678285,-38.544112,Recôncavo,RPGA do Recôncavo Norte,0.2,0.0,0.2,6.7,0.0,0.4,26.8,42.9,2.4,4.0,5.5,0.0,28.7,1.2,7.7,5.7,7.5,0.0,5.9,0.4,0.8,0.0,1.8,32.1,3.4,0.0,0.0,0.6,3.4,1.4,2.0,191.71
Salvador,Itapuã - RN-CL-01,Salvador,Salvador - Itapuã - RN-CL-01,-12.931388,-38.361111,Recôncavo,RPGA do Recôncavo Norte,6.2,1.1,1.6,1.2,0.0,0.4,22.2,18.1,12.2,2.4,2.7,0.1,11.1,0.7,6.2,5.9,0.6,6.8,1.1,3.7,1.0,1.4,1.4,21.3,4.3,2.7,0.4,0.7,1.3,1.7,0.2,140.7
Sarandi,290650104A,Candeias,Candeias (Sarandi) - 290650104A,-12.671341,-38.531056,Recôncavo,RPGA do Recôncavo Norte,0.2,0.0,0.2,7.5,0.0,0.6,23.2,38.2,1.8,5.2,5.2,0.0,26.8,0.6,7.5,3.3,7.3,1.0,7.5,0.0,1.8,0.0,2.2,36.6,2.2,0.2,0.0,3.1,4.4,0.4,5.7,192.7
Itinga,291920703A,Lauro de Freitas,Lauro de Freitas (Itinga) - 291920703A,-12.892,-38.336,Recôncavo,RPGA do Recôncavo Norte,2.4,1.2,4.7,3.2,0.0,0.0,20.5,18.2,14.6,0.8,2.2,0.0,9.9,0.2,9.1,7.7,3.0,2.2,3.0,2.2,1.2,0.2,0.2,26.4,0.6,0.4,0.0,0.4,0.2,1.4,0.0,136.11
Vila Praiana,291920702A,Lauro de Freitas,Lauro de Freitas (Vila Praiana) - 291920702A,-12.901,-38.308,Recôncavo,RPGA do Recôncavo Norte,3.7,0.2,0.4,1.4,0.2,0.0,20.0,10.9,10.7,2.6,0.6,0.0,10.1,0.4,7.9,8.1,0.8,3.6,5.7,0.4,2.8,0.0,0.4,22.1,0.8,0.8,0.2,0.2,0.0,0.6,0.0,115.6
Rua 02 de Julho,291920705A,Lauro de Freitas,Lauro de Freitas (Rua 02 de Julho) - 291920705A,-12.839,-38.35,Recôncavo,RPGA do Recôncavo Norte,2.0,0.6,1.2,1.8,0.0,0.2,29.2,37.6,11.1,2.2,1.4,0.0,9.7,0.2,0.6,6.3,5.3,1.8,4.9,6.5,5.1,0.0,0.0,28.8,0.4,1.6,0.0,0.6,8.1,2.0,0.6,169.8
Muritiba,PG-PR-12,Muritiba,Muritiba - PG-PR-12,-12.617895,-39.005591,Recôncavo,RPGA do Rio Paraguaçu,3.75,0.75,0.0,0.25,0.0,7.75,12.25,22.75,6.25,0.25,5.0,0.0,2.25,1.75,11.25,4.25,9.0,8.0,3.75,4.0,0.75,0.25,0.5,35.25,6.25,0.5,0.0,0.25,2.5,1.75,1.75,153.0
Dois de Julho,291120401A,Gandú,Gandú (Dois de Julho) - 291120401A,-13.741357,-39.48303,Recôncavo,RPGA do Recôncavo Sul,4.8,0.6,0.0,0.0,0.0,0.6,2.8,0.0,0.2,3.0,9.9,1.4,5.1,9.9,7.8,5.6,11.3,3.2,8.7,6.2,1.6,0.2,1.8,11.7,1.8,8.3,0.2,1.8,1.6,2.0,4.4,116.5
Centro,292060101A,Maragogipe,Maragogipe (Centro) - 292060101A,-12.78,-38.917,Recôncavo,RPGA do Rio Paraguaçu,3.8,1.0,0.8,1.4,0.0,3.0,18.5,45.5,16.0,0.0,8.4,0.2,1.2,1.0,10.3,5.7,5.0,8.5,3.5,7.1,4.3,3.4,0.0,20.1,3.2,1.2,0.2,1.8,2.6,1.0,1.8,180.5
Centro,292250801A,Nazaré,Nazaré (Centro) - 292250801A,-13.032,-39.015,Recôncavo,RPGA do Recôncavo Sul,3.4,7.7,0.0,0.0,0.0,7.7,15.1,9.7,10.4,0.0,11.9,1.0,0.4,5.5,15.6,5.0,11.4,4.9,8.2,3.8,1.4,0.0,8.9,37.5,6.5,1.8,0.4,3.4,8.3,5.5,12.2,207.61
Rua São Roque,293290301A,Valença,Valença (Rua São Roque) - 293290301A,-13.363,-39.078,Recôncavo,RPGA do Recôncavo Sul,4.4,2.8,0.0,0.0,0.0,9.7,9.6,2.6,14.7,1.0,4.4,1.0,2.6,15.4,18.0,6.9,8.6,14.5,6.8,2.2,2.6,0.0,0.4,28.5,19.5,0.8,0.2,7.3,7.1,7.5,4.9,204.0
Abaeté,RN-PR-01,Salvador,Salvador (Abaeté) - RN-PR-01,-12.945407,-38.361404,Recôncavo,RPGA do Recôncavo Norte,7.2,0.0,1.0,0.0,0.0,0.0,15.2,19.0,12.0,4.6,0.0,0.0,12.0,0.0,3.2,5.4,2.0,6.0,0.0,6.4,1.6,2.2,2.6,27.0,0.0,2.2,0.0,0.0,0.0,1.8,0.0,131.4
Espinheira,,Espinheira,Espinheira,-14.283478,-41.75792,Sudoeste,RPGA do Rio de Contas,0.5,0.0,0.0,0.0,0.0,0.0,0.0,0.0,0.0,0.0,0.0,0.0,0.25,7.25,0.25,0.25,0.25,0.0,0.0,0.5,0.0,0.0,0.0,0.0,0.0,0.0,0.0,0.0,0.0,0.0,0.0,9.25
Cândido Sales,53620000,Cândido Sales,Cândido Sales - 53620000,-15.512891,-41.236629,Sudoeste,RPGA do Rio Pardo,0.2,0.2,0.0,0.0,0.0,0.0,0.0,0.0,0.2,0.0,0.2,1.6,0.0,0.4,0.4,2.2,3.4,2.0,0.4,4.4,0.0,0.0,0.0,0.0,0.0,0.2,0.0,0.0,0.0,0.0,0.0,15.8
Ituaçu,83292,Ituaçu,Ituaçu - 83292,-13.812778,-41.3,Sudoeste,RPGA do Rio de Contas,0.0,0.0,0.0,0.0,0.0,1.1,0.0,0.0,0.0,0.0,0.0,0.0,0.0,5.5,0.0,1.9,0.0,0.0,0.0,0.0,0.0,0.0,0.0,0.0,0.0,0.0,0.0,0.0,0.0,0.0,0.0,8.5
Vitória da Conquista,83344,Vitória da Conquista,Vitória da Conquista - 83344,-14.883333,-40.8,Sudoeste,RPGA do Rio Pardo,1.4,0.3,0.0,0.0,0.0,0.4,1.3,1.0,0.0,0.1,0.0,1.4,0.0,3.2,1.6,0.8,2.3,2.8,3.0,1.6,0.0,0.0,0.0,0.7,0.0,0.0,0.0,0.0,0.0,0.0,0.2,22.1
Jaguaquara,83295,Ituruçu,Ituruçu (Jaguaquara) - 83295,-13.527828,-40.119752,Sudoeste,RPGA do Recôncavo Sul,0.8,2.6,0.0,0.0,0.0,1.1,6.3,2.2,0.3,0.2,1.8,1.8,2.0,7.6,6.4,3.5,1.6,5.2,3.6,3.0,0.8,0.2,0.3,11.8,3.6,0.0,0.5,0.0,0.0,2.4,1.3,70.9
Brumado,A433,Brumado,Brumado - A433,-14.181886,-41.672281,Sudoeste,RPGA do Rio de Contas,1.0,0.0,0.0,0.0,0.0,0.0,0.0,0.0,0.0,0.0,0.0,0.0,1.2,7.8,1.6,0.6,0.4,0.6,2.4,0.2,0.0,0.0,0.0,0.0,0.0,0.0,0.0,0.0,0.0,0.0,0.0,15.8
Ipiaú,A445,Ipiaú,Ipiaú - A445,-14.171304,-39.692502,Sudoeste,RPGA do Rio de Contas,4.4,3.4,0.2,0.2,0.0,0.2,7.4,0.0,0.0,0.8,2.6,0.6,11.6,12.2,8.4,6.4,11.4,8.6,3.2,3.0,3.2,0.0,3.0,11.2,3.8,0.2,3.6,0.2,2.2,3.2,2.4,117.61
Itapetinga,A446,Itapetinga,Itapetinga - A446,-15.24462,-40.22955,Sudoeste,RPGA do Rio Pardo,0.0,0.0,0.0,0.0,0.0,0.0,0.0,0.0,0.0,0.0,0.0,0.0,0.0,0.0,0.0,0.0,0.0,6.4,8.6,2.6,0.8,0.0,0.0,2.2,0.0,0.0,0.0,0.0,0.8,0.2,0.0,21.6
Anagé,CO-CL-01,Anagé,Anagé - CO-CL-01,-14.618055,-41.149722,Sudoeste,RPGA do Rio de Contas,4.0,0.0,0.0,0.0,0.0,0.0,0.0,0.0,0.0,0.0,0.0,0.0,0.0,1.5,0.0,0.0,0.0,0.0,0.0,0.0,0.0,0.0,0.0,0.0,0.0,0.0,1.5,0.0,0.0,0.25,0.0,7.25
Planaltino,PG-PR-03,Planaltino,Planaltino - PG-PR-03,-13.259292,-40.373976,Sudoeste,RPGA do Recôncavo Sul,0.25,0.0,0.0,0.0,0.0,0.0,0.0,0.0,0.0,0.0,1.5,2.75,0.5,8.0,3.5,4.25,1.25,4.75,3.0,0.25,0.0,0.0,0.0,0.0,0.25,0.0,0.0,0.0,0.0,3.25,0.0,33.5
Centro,293330701A,Vitória da Conquista,Vitória da Conquista (Centro) - 293330701A,-14.852,-40.839,Sudoeste,RPGA do Rio Pardo,1.4,0.0,0.0,0.0,0.0,0.0,0.4,0.8,0.0,0.0,0.0,0.2,0.2,1.2,0.6,0.4,1.6,0.6,2.2,0.6,0.0,0.0,0.0,0.0,0.0,0.0,0.0,0.0,0.0,0.0,0.0,10.21
Centro,291710201A,Itororó,Itororó (Centro) - 291710201A,-15.119,-40.065,Sudoeste,RPGA do Leste,0.8,0.2,0.0,0.0,0.0,0.0,0.0,0.6,0.0,0.0,0.6,5.4,3.6,1.8,0.4,2.7,7.5,6.7,7.8,1.6,0.0,0.0,3.6,0.8,0.2,6.2,0.6,0.0,0.8,0.0,1.4,53.31
Clerolândia,291640101A,Itapetinga,Itapetinga (Clerolândia) - 291640101A,-15.243,-40.221,Sudoeste,RPGA do Rio Pardo,4.1,0.2,0.0,0.0,0.0,0.0,0.2,0.0,0.0,0.0,0.4,2.8,0.2,4.8,0.0,3.2,1.8,6.7,7.2,2.0,0.6,0.0,0.0,0.2,0.0,0.0,0.0,0.0,0.0,0.2,0.0,34.6
Recreio,293330702A,Vitória da Conquista,Vitória da Conquista (Recreio) - 293330702A,-14.861,-40.841,Sudoeste,RPGA do Rio Pardo,1.6,0.2,0.0,0.0,0.0,0.0,0.6,0.4,0.2,0.0,0.0,0.2,0.2,1.6,0.0,0.4,1.0,1.0,2.2,0.8,0.2,0.0,0.0,0.4,0.0,0.0,0.0,0.0,0.0,0.0,0.2,11.21
Patagônia,293330704A,Vitória da Conquista,Vitória da Conquista (Patagônia) - 293330704A,-14.87,-40.863,Sudoeste,RPGA do Rio Pardo,0.6,0.2,0.0,0.0,0.0,0.0,0.4,0.4,0.0,0.0,0.0,0.0,0.0,1.4,0.0,0.2,0.6,1.8,1.6,1.8,0.0,0.0,0.0,0.2,0.0,0.0,0.0,0.0,0.0,0.0,0.0,9.21
Barcelar,293330705A,Vitória da Conquista,Vitória da Conquista (Barcelar) - 293330705A,-14.838,-40.856,Sudoeste,RPGA do Rio Pardo,1.0,0.0,0.2,0.0,0.0,0.2,0.6,0.8,0.2,0.0,0.0,0.6,0.0,7.9,0.8,1.0,2.2,1.4,2.6,1.4,0.0,0.0,0.0,0.2,0.0,0.0,0.2,0.0,0.0,0.0,0.0,21.3
Lomantão,293330703A,Vitória da Conquista,Vitória da Conquista (Lomantão) - 293330703A,-14.87,-40.827,Sudoeste,RPGA do Rio Pardo,0.6,0.0,0.0,0.0,0.0,0.0,0.4,0.6,0.0,0.0,0.0,0.6,0.0,1.2,0.0,0.2,1.2,1.4,3.0,1.4,0.0,0.0,0.0,0.2,0.0,0.0,0.0,0.0,0.0,0.0,0.0,10.8
Jaguaquara,RS-CL-01,Jaguaquara,Jaguaquara - RS-CL-01,-13.573055,-39.940833,Sudoeste,RPGA do Recôncavo Sul,2.5,1.5,0.0,0.0,0.0,0.25,7.0,1.25,1.0,0.0,1.25,1.0,0.75,11.5,12.25,9.25,11.5,12.0,4.25,3.5,1.0,0.0,0.0,8.25,8.25,2.25,0.0,0.0,1.5,1.75,3.0,106.75
Jequié,CO-CL-03,Jequié,Jequié - CO-CL-03,-13.873055,-40.071944,Sudoeste,RPGA do Rio de Contas,1.75,0.75,0.0,0.0,0.0,0.0,0.0,0.25,0.0,0.0,0.0,0.75,0.5,0.75,2.5,2.25,3.75,3.75,3.0,2.5,2.25,0.0,0.0,1.75,1.0,0.0,0.0,0.0,0.0,0.0,0.0,27.5
Vitória da Conquista,PA-CL-01,Vitória da Conquista,Vitória da Conquista - PA-CL-01,-14.886111,-40.800833,Sudoeste,RPGA do Rio Pardo,0.75,0.25,0.0,0.0,0.0,0.0,1.0,0.5,0.0,0.0,0.0,0.5,0.0,2.5,1.0,0.5,1.5,2.25,2.25,1.25,0.0,0.0,0.0,0.25,0.0,0.0,0.0,0.0,0.0,0.0,0.0,14.5
PCH Cach. da Lixa M,55354000,Jucuruçu,Jucuruçu (PCH Cach. da Lixa M) - 55354000,-17.06703,-40.068619,Sul,"RPGA dos Rios Peruípe, Itanhém e Jucuruçu",0.0,0.0,0.0,0.0,0.0,0.0,0.0,0.0,0.0,0.0,0.0,0.0,0.0,0.0,0.0,0.0,0.0,0.0,0.0,0.0,0.0,0.0,0.0,0.0,0.0,0.0,0.0,0.0,0.0,0.0,0.0,0.0
Caravelas,A405,Caravelas,Caravelas - A405,-17.739413,-39.258617,Sul,"RPGA dos Rios Peruípe, Itanhém e Jucuruçu",7.6,2.0,6.2,3.4,0.2,3.0,0.8,0.2,0.2,0.2,0.0,0.2,0.0,0.2,0.6,6.2,4.4,0.2,20.2,8.0,8.2,0.4,10.4,6.4,0.4,0.0,0.2,0.0,0.2,0.0,0.2,90.21
Ilhéus,A410,Ilhéus,Ilhéus - A410,-14.658803,-39.181438,Sul,RPGA do Leste,3.6,1.2,0.2,2.0,0.0,0.0,5.8,0.4,0.0,2.6,13.2,1.6,14.0,4.8,17.6,11.0,16.0,17.6,9.6,0.8,4.6,0.0,7.2,4.4,2.2,1.4,0.2,3.6,7.4,0.4,7.2,160.6
Canavieiras,83398,Canavieiras,Canavieiras - 83398,-15.666667,-38.95,Sul,RPGA do Rio Pardo,6.1,6.1,3.1,0.0,0.0,0.0,1.1,1.6,0.0,0.0,13.6,0.0,5.7,5.3,7.6,9.7,1.6,2.3,5.3,0.6,0.0,0.0,14.5,0.0,0.0,0.0,0.0,10.4,3.5,2.3,1.5,101.9
Caravelas,83498,Caravelas,Caravelas - 83498,-17.739167,-39.258333,Sul,"RPGA dos Rios Peruípe, Itanhém e Jucuruçu",7.2,1.6,5.8,3.2,0.0,2.6,0.7,0.2,0.0,0.0,0.0,0.0,0.0,0.0,0.4,5.9,4.2,0.1,19.7,7.8,7.7,0.0,9.8,6.2,0.2,0.0,0.0,0.0,0.2,0.7,10.4,94.61
Guaratinga,83446,Guaratinga,Guaratinga - 83446,-16.58,-39.78,Sul,"RPGA dos Rios dos Frades, Buranhém e Santo Antônio",0.0,2.0,0.6,0.0,0.0,0.0,0.2,0.2,0.0,0.0,9.4,2.9,2.0,0.6,0.8,5.2,8.5,3.9,17.9,2.3,0.5,0.5,0.0,4.4,2.0,0.0,0.5,0.0,0.4,5.7,4.0,74.51
Una,A437,Una,Una - A437,-15.280215,-39.09127,Sul,RPGA do Leste,2.0,0.6,3.2,0.2,0.2,0.0,1.2,5.0,0.0,0.4,5.4,0.6,22.6,6.8,10.6,8.4,2.2,5.6,21.2,1.4,4.0,0.0,7.4,13.0,3.0,2.6,2.0,16.2,15.6,1.4,9.2,172.0
Porto Seguro,A427,Porto Seguro,Porto Seguro - A427,-16.388977,-39.182389,Sul,"RPGA dos Rios dos Frades, Buranhém e Santo Antônio",1.0,0.0,0.4,0.2,0.2,1.6,2.6,1.0,0.0,0.4,12.8,0.2,3.0,1.0,5.6,11.2,12.6,1.4,21.6,2.8,11.6,0.0,4.6,0.4,0.8,2.2,0.6,0.0,2.0,2.0,2.2,106.0
Abrolhos,A422,Caravelas,Caravelas (Abrolhos) - A422,-17.79052,-39.22789,Sul,"RPGA dos Rios Peruípe, Itanhém e Jucuruçu",1.4,0.0,0.8,4.6,19.2,15.2,0.8,0.0,0.0,0.0,1.8,0.0,0.0,0.0,4.4,0.4,0.0,1.8,3.2,4.8,0.0,0.0,0.0,3.6,0.0,0.0,0.0,0.0,0.0,0.2,0.6,62.8
Belmonte,A447,Belmonte,Belmonte - A447,-16.08487,-39.21726,Sul,"RPGA dos Rios dos Frades, Buranhém e Santo Antônio",2.0,0.0,0.0,0.2,0.0,0.0,0.0,0.0,0.0,0.0,0.2,0.0,0.0,0.0,0.2,0.0,0.0,0.0,0.0,0.2,1.0,0.2,0.2,0.0,0.0,0.0,0.0,0.0,0.0,0.0,0.0,4.21
CPLAC,LE-CL-01,Ilhéus,Ilhéus (CPLAC) - LE-CL-01,-14.80184,-39.181444,Sul,RPGA do Leste,7.25,3.5,0.0,0.0,0.0,0.25,0.5,0.0,0.0,5.5,3.5,1.5,16.5,11.25,28.0,8.5,37.5,0.75,0.0,0.0,0.0,0.0,0.0,0.0,0.0,0.0,0.0,0.0,0.0,0.0,0.0,124.5
Centro,290560201A,Camacan,Camacan (Centro) - 290560201A,-15.422225,-39.494984,Sul,RPGA do Rio Pardo,3.2,0.2,2.2,0.0,0.0,0.0,2.2,1.2,0.0,0.0,4.6,11.8,14.9,7.2,6.2,6.5,7.9,8.3,24.2,1.8,0.8,0.0,11.2,4.7,2.8,1.2,3.0,0.0,6.5,0.8,2.4,135.81
Teixeira de Freitas,PJ-CL-01,Teixeira de Freitas,Teixeira de Freitas - PJ-CL-01,-17.575555,-39.732777,Sul,"RPGA dos Rios Peruípe, Itanhém e Jucuruçu",1.75,0.25,0.25,0.25,0.0,0.0,1.0,4.25,0.0,0.0,0.0,0.0,0.0,0.0,0.25,3.5,1.75,0.75,25.0,2.5,7.75,0.0,5.0,0.75,0.0,0.0,0.0,0.0,0.0,0.0,7.75,62.75
Itabuna,Fazenda Barra,Itabuna,Itabuna - Fazenda Barra,-14.8997,-39.3686,Sul,RPGA do Leste,2.8,4.0,1.0,1.6,0.0,0.2,1.0,0.6,0.0,0.0,2.6,6.0,5.6,5.2,1.6,4.4,9.0,1.4,10.6,3.4,1.4,6.0,11.8,0.0,3.8,7.4,5.8,2.8,4.0,0.4,5.0,109.4
Centro,290340901A,Belmonte,Belmonte (Centro) - 290340901A,-15.859179,-38.878025,Sul,RPGA do Rio Jequitinhonha,0.0,0.0,1.2,0.2,0.0,0.0,1.0,8.3,0.0,12.1,2.8,0.0,1.4,2.0,5.2,3.5,0.2,3.4,13.8,3.9,0.4,0.0,3.6,3.8,4.7,3.0,0.2,2.0,0.4,0.8,0.4,78.31
Centro,290560203A,Camacan,Camacan (Centro) - 290560203A,-15.416389,-39.493873,Sul,RPGA do Rio Pardo,2.4,0.2,2.6,0.0,0.0,1.0,1.8,1.4,0.2,0.0,7.2,5.4,15.2,8.3,4.8,7.3,8.7,7.3,22.3,2.6,0.4,0.0,8.5,8.5,2.0,1.4,3.0,0.0,9.9,0.8,4.8,138.01
Conquista,291360601A,Ilhéus,Ilhéus (Conquista) - 291360601A,-14.797213,-39.04608,Sul,RPGA do Leste,3.2,2.8,0.2,0.2,0.0,0.0,19.2,0.4,0.0,5.7,6.4,4.6,8.3,5.4,24.2,4.3,16.4,0.2,6.2,0.2,3.6,0.0,9.5,5.8,5.0,10.6,0.8,6.5,6.6,2.0,0.8,159.1
Malhado,291360602A,Ilhéus,Ilhéus (Malhado) - 291360602A,-14.789158,-39.048858,Sul,RPGA do Leste,6.6,4.5,0.0,0.2,0.0,0.2,18.3,0.2,0.2,4.0,6.0,6.0,7.4,6.9,24.6,2.9,16.2,0.0,6.9,0.2,1.0,0.0,7.3,3.8,4.6,7.5,6.3,6.3,4.2,0.8,0.6,153.71
São Caetano,291480202A,Itabuna,Itabuna (São Caetano) - 291480202A,-14.80638,-39.27803,Sul,RPGA do Leste,6.7,4.4,0.2,0.0,0.0,0.0,0.0,0.8,0.0,0.8,3.6,7.9,12.1,1.6,5.6,5.4,10.0,2.8,6.6,0.2,6.5,2.2,8.9,6.5,4.7,6.1,0.0,2.0,4.8,0.4,4.1,114.9
Nova Ferradas,291480203A,Itabuna,Itabuna (Nova Ferradas) - 291480203A,-14.857213,-39.346922,Sul,RPGA do Leste,4.3,6.7,1.0,0.2,0.0,0.6,0.8,0.0,0.0,0.0,2.2,5.35,5.6,4.4,4.0,7.5,10.3,2.8,10.1,0.8,4.1,0.2,4.5,1.8,5.7,7.1,2.2,0.0,7.32,2.2,6.7,108.47
Planalto I,292110401A,Medeiros Neto,Medeiros Neto (Planalto I) - 292110401A,-17.365,-40.223,Sul,"RPGA dos Rios Peruípe, Itanhém e Jucuruçu",0.0,0.2,0.2,0.0,0.0,0.4,2.8,3.4,0.0,0.0,0.0,1.8,0.0,0.0,0.2,4.4,4.0,1.2,13.4,5.0,0.0,0.0,0.0,0.8,0.2,0.0,0.0,0.0,2.2,0.2,2.8,43.2
Posto da Mata,292300103A,Nova Viçosa,Nova Viçosa (Posto da Mata) - 292300103A,-17.896,-39.37,Sul,"RPGA dos Rios Peruípe, Itanhém e Jucuruçu",3.0,0.0,1.8,5.0,0.2,0.8,0.2,4.7,0.0,0.0,0.0,0.0,0.0,0.0,0.2,0.4,3.8,0.0,12.2,3.6,2.0,0.0,65.5,5.3,0.0,0.0,0.0,1.2,0.8,0.2,0.6,111.5
Paraguai,292530302A,Porto Seguro,Porto Seguro (Paraguai) - 292530302A,-16.41,-39.08,Sul,"RPGA dos Rios dos Frades, Buranhém e Santo Antônio",0.4,0.0,3.6,1.0,0.0,2.4,0.2,0.8,0.0,0.6,17.7,0.4,1.8,2.0,7.3,4.1,6.3,3.6,33.2,1.4,10.4,0.0,2.4,1.8,1.6,1.6,0.0,0.0,0.0,3.2,0.8,108.61
Trancoso,292530303A,Porto Seguro,Porto Seguro (Trancoso) - 292530303A,-16.595,-39.109,Sul,"RPGA dos Rios dos Frades, Buranhém e Santo Antônio",0.2,0.0,2.0,0.8,0.0,3.95,5.1,2.4,0.0,1.2,17.8,0.2,10.1,0.2,5.5,4.1,1.2,0.2,21.1,0.0,5.7,0.2,15.0,3.7,2.8,3.0,0.0,0.2,0.8,0.2,0.4,108.06
BR367km4,292770501A,Santa Cruz Cabrália,Santa Cruz Cabrália (BR367km4) - 292770501A,-16.321,-39.023,Sul,"RPGA dos Rios dos Frades, Buranhém e Santo Antônio",0.4,0.0,0.2,0.0,0.0,1.2,1.4,0.2,0.0,4.5,7.1,0.0,0.2,0.0,6.1,5.5,8.7,1.2,16.6,6.1,8.3,0.0,3.8,0.0,1.6,0.0,0.2,0.6,0.0,5.7,1.2,80.8
Estádio Municipal,291530401A,Itagimirim,Itagimirim (Estádio Municipal) - 291530401A,-16.089181,-39.615546,Sul,RPGA do Rio Jequitinhonha,1.4,0.4,0.0,0.0,0.2,0.0,0.2,2.0,0.0,0.0,1.8,4.4,0.8,2.2,1.4,5.8,1.4,6.9,26.4,1.0,1.2,0.2,1.6,0.0,1.0,1.0,0.4,0.0,4.4,0.8,5.5,72.4
Bom Jesus da Lapa,A418,Bom Jesus da Lapa,Bom Jesus da Lapa - A418,-13.251094,-43.405365,São Francisco,RPGA do Rio Carnaíba de Dentro,0.0,0.0,0.0,0.0,0.0,0.0,0.0,0.0,0.0,0.0,0.0,0.0,0.0,0.0,0.0,0.0,0.0,0.0,0.0,0.0,0.0,0.0,0.0,0.0,0.0,0.0,0.0,0.0,0.0,0.0,0.0,0.0
Barra,83179,Barra,Barra - 83179,-11.083333,-43.166667,São Francisco,RPGA do Rio Grande,0.0,0.0,0.0,0.0,0.0,0.0,0.0,0.0,0.0,0.0,0.0,0.0,0.0,0.0,0.0,0.0,0.0,0.0,0.0,0.0,0.0,0.0,0.0,0.0,0.0,0.0,0.0,0.0,0.0,0.0,0.0,0.0
Bom Jesus da Lapa,83288,Bom Jesus da Lapa,Bom Jesus da Lapa - 83288,-13.251389,-43.405278,São Francisco,RPGA do Rio Carnaíba de Dentro,0.0,0.0,0.0,0.0,0.0,0.0,0.0,0.0,0.0,0.0,0.0,0.0,0.0,0.0,0.0,0.0,0.0,0.0,0.0,0.0,0.0,0.0,0.0,0.0,0.0,0.0,0.0,0.0,0.0,0.0,0.0,0.0
Caetité,83339,Caetité,Caetité - 83339,-14.066667,-42.483333,São Francisco,RPGA do Rio de Contas,0.2,0.0,0.0,0.0,0.0,0.0,0.2,0.0,0.0,0.0,0.0,0.0,0.0,2.0,1.0,0.8,0.8,5.1,3.2,0.0,0.0,0.0,0.0,0.0,0.0,0.0,0.0,0.0,0.0,0.0,0.0,13.3
Carinhanha,83408,Carinhanha,Carinhanha - 83408,-14.283333,-43.766667,São Francisco,"RPGA do Rio Corrente e Riachos do Ramalho, Serra Dourada e Brejo Velho",0.0,0.0,0.0,0.0,0.0,0.0,0.0,0.0,0.0,0.0,0.0,0.0,0.0,0.0,0.0,0.0,0.0,0.0,0.0,0.0,0.0,0.0,0.0,0.0,0.0,0.0,0.0,0.0,0.0,0.0,0.0,0.0
Santa Rita de Cássia,83076,Santa Rita de Cássia,Santa Rita de Cássia - 83076,-11.016667,-44.516667,São Francisco,RPGA do Rio Grande,0.0,0.0,0.0,0.0,0.0,0.0,0.0,0.0,0.0,0.0,0.0,0.0,0.0,0.0,0.0,0.0,0.0,0.0,0.0,0.0,0.0,0.0,0.0,0.0,0.0,0.0,0.0,0.0,0.0,0.0,0.0,0.0
Guanambí,A426,Guanambí,Guanambí - A426,-14.208123,-42.749647,São Francisco,RPGA do Rio Carnaíba de Dentro,0.0,0.0,0.0,0.0,0.0,0.0,0.0,0.0,0.0,0.0,0.0,0.0,0.0,0.0,0.0,0.0,0.0,0.2,0.0,0.0,0.0,0.0,0.0,0.0,0.0,0.0,0.0,0.0,0.0,0.0,0.0,0.2
Buritirama,A432,Buritirama,Buritirama - A432,-10.722925,-43.651203,São Francisco,RPGA do Rio Grande,0.0,0.0,0.0,0.0,0.0,0.0,0.0,0.0,0.0,0.0,0.0,0.0,0.0,0.0,0.0,0.0,0.0,0.0,0.0,0.0,0.0,0.0,0.0,0.0,0.0,0.0,0.0,0.0,0.0,0.0,0.0,0.0
Barra,A429,Barra,Barra - A429,-11.084858,-43.138998,São Francisco,RPGA do Rio Grande,0.2,0.0,0.0,0.0,0.0,0.0,0.0,0.0,0.0,0.0,0.0,0.0,0.0,0.0,0.0,0.0,0.0,0.0,0.0,0.0,0.0,0.0,0.0,0.0,0.0,0.0,0.0,0.0,0.0,0.0,0.0,0.2
Ibotirama,A439,Ibotirama,Ibotirama - A439,-12.19306,-43.21342,São Francisco,RPGA dos Rios Paramirim e Santo Onofre,0.0,0.0,0.0,0.0,0.0,0.0,0.0,0.0,0.0,0.0,0.0,0.0,0.0,0.0,0.0,0.0,0.0,0.0,0.0,0.0,0.0,0.0,0.0,0.0,0.0,0.0,0.0,0.0,0.0,0.0,0.0,0.0
Gentio do Ouro,,Gentio do Ouro,Gentio do Ouro,-11.42951,-42.513484,São Francisco,RPGA dos Rios Verde e Jacaré,0.0,0.0,0.0,0.0,0.0,0.0,1.0,0.0,0.0,0.0,0.0,0.2,0.0,0.0,0.0,0.6,0.6,0.2,0.0,0.0,0.0,0.0,0.0,0.0,0.0,0.4,0.0,0.0,0.0,0.0,0.0,3.0
Faz. Macambira,46675000,Cotegipe,Cotegipe (Faz. Macambira) - 46675000,-11.6106,-44.1567,São Francisco,RPGA do Rio Grande,0.0,0.0,0.0,0.0,0.0,0.0,0.0,0.0,0.0,0.0,0.0,0.0,0.0,0.0,0.0,0.0,0.0,0.0,0.0,0.0,0.0,0.0,0.0,0.0,0.0,0.0,0.0,0.0,0.0,0.0,0.0,0.0
Fz.P. Limpo,46870000,Mansidão,Mansidão (Fz.P. Limpo) - 46870000,-11.236845,-43.950633,São Francisco,RPGA do Rio Grande,0.0,0.0,0.0,0.0,0.0,0.0,0.0,0.0,0.0,0.0,0.0,0.0,0.0,0.0,0.0,0.0,0.0,0.0,0.0,0.0,0.0,0.0,0.0,0.0,0.0,0.0,0.0,0.0,0.0,0.0,0.0,0.0
Fazenda Caraíbas,,Fazenda Caraíbas,Fazenda Caraíbas,-12.571486,-42.074028,São Francisco,RPGA dos Rios Paramirim e Santo Onofre,0.2,0.0,0.0,0.0,0.0,0.0,0.0,0.0,0.0,0.0,2.4,0.4,0.0,0.0,0.8,0.2,3.6,2.8,0.2,0.2,0.0,0.0,0.2,0.0,0.4,0.0,0.0,0.0,0.0,0.0,0.0,11.4
