nome_estacao,codigo,municipio,estacao,latitude,longitude,regiao,rpga,01_06_15,02_06_15,03_06_15,04_06_15,05_06_15,06_06_15,07_06_15,08_06_15,09_06_15,10_06_15,11_06_15,12_06_15,13_06_15,14_06_15,15_06_15,16_06_15,17_06_15,18_06_15,19_06_15,20_06_15,21_06_15,22_06_15,23_06_15,24_06_15,25_06_15,26_06_15,27_06_15,28_06_15,29_06_15,30_06_15,total
Macajuba,A412,Macajuba,Macajuba - A412,-12.131694,-40.354222,Chapada Diamantina,RPGA do Rio Paraguaçu,1.4,7.8,1.2,1.2,3.4,12.4,11.6,12.2,3.0,4.0,10.6,0.2,0.0,1.4,7.2,0.2,0.0,0.2,0.2,0.2,0.0,2.2,0.6,0.6,2.6,6.4,0.8,0.8,0.2,4.6,97.2
Itaberaba,83244,Itaberaba,Itaberaba - 83244,-12.516667,-40.283333,Chapada Diamantina,RPGA do Rio Paraguaçu,0.0,2.3,0.0,0.1,0.7,8.4,2.9,3.5,0.7,1.9,2.3,0.0,0.0,0.0,2.9,0.3,0.0,0.0,0.0,0.0,0.0,1.9,1.7,0.0,0.0,1.3,0.4,0.0,2.3,4.3,37.9
Lençóis,83242,Lençóis,Lençóis - 83242,-12.5575,-41.388889,Chapada Diamantina,RPGA do Rio Paraguaçu,0.5,0.8,1.0,0.0,0.0,0.8,14.5,21.2,0.0,6.9,14.0,0.0,0.0,0.0,3.8,0.0,0.0,0.0,0.0,0.0,0.0,5.0,1.4,2.7,0.6,1.0,0.0,0.1,0.1,5.0,79.4
Morro do Chapéu,83184,Morro do Chapéu,Morro do Chapéu - 83184,-11.216667,-41.216667,Chapada Diamantina,RPGA do Rio Salitre,0.0,3.2,0.5,0.1,1.4,1.2,5.8,4.4,0.5,1.2,2.6,0.4,0.2,1.6,9.2,0.0,0.0,0.0,0.0,0.0,0.0,0.6,0.0,1.2,1.4,4.4,1.4,1.2,0.2,8.4,51.1
Piatã,A430,Piatã,Piatã - A430,-13.155681,-41.774125,Chapada Diamantina,RPGA do Rio de Contas,0.0,0.2,0.6,0.0,2.6,6.6,4.6,17.2,0.4,2.8,1.8,0.2,0.0,0.2,0.0,2.8,0.0,0.8,0.2,0.0,0.0,7.0,0.2,0.0,2.4,5.4,0.2,3.4,2.2,16.8,78.6
Lençóis,A425,Lençóis,Lençóis - A425,-12.557854,-41.388808,Chapada Diamantina,RPGA do Rio Paraguaçu,0.4,1.0,1.2,0.0,0.0,1.0,14.6,20.8,0.0,7.2,13.6,0.0,0.2,0.0,3.8,0.0,0.2,0.0,0.0,0.0,0.0,5.4,1.4,2.8,0.6,1.0,0.0,0.2,0.0,5.4,80.81
Itaetê,,Itaetê,Itaetê,-12.991944,-40.960833,Chapada Diamantina,RPGA do Rio Paraguaçu,0.0,0.2,0.0,0.0,0.0,4.0,1.0,3.4,2.2,0.4,0.8,0.0,0.0,0.0,7.6,0.0,0.0,0.0,0.0,0.0,0.0,1.0,0.0,0.0,0.4,0.0,0.0,0.0,0.6,3.6,25.21
Lagoa Bonita,PG-PR-15,Iacú,Iacú (Lagoa Bonita) - PG-PR-15,-12.931506,-40.226468,Chapada Diamantina,RPGA do Rio Paraguaçu,0.0,0.25,0.0,0.0,0.25,0.25,0.0,0.25,3.5,1.75,1.25,0.0,0.0,0.0,3.25,0.0,0.0,0.0,0.0,0.0,0.0,0.0,1.75,0.0,0.0,0.0,0.0,0.0,0.0,0.75,13.25
João Amaro,PG-PR-16,Iaçu,Iaçu (João Amaro) - PG-PR-16,-12.800391,-40.363139,Chapada Diamantina,RPGA do Rio Paraguaçu,0.0,0.0,0.0,0.0,0.25,3.5,0.75,1.25,3.0,3.0,0.25,0.0,0.0,0.0,2.75,0.0,0.0,0.0,0.0,0.0,0.0,1.0,0.25,0.0,0.0,0.25,0.0,0.0,0.25,6.0,22.5
Boa Vista Tupim,PG-PR-17,Boa Vista Tupim,Boa Vista Tupim - PG-PR-17,-12.65622,-40.589813,Chapada Diamantina,RPGA do Rio Paraguaçu,0.0,0.25,0.0,0.0,0.0,3.75,2.0,1.5,1.25,1.25,4.25,0.0,0.0,0.0,0.25,0.25,0.0,0.0,0.0,0.0,0.0,0.0,0.0,0.0,0.0,0.5,0.75,0.25,0.0,6.5,22.75
Wagner,PG-PR-22,Wagner,Wagner - PG-PR-22,-12.289538,-41.161774,Chapada Diamantina,RPGA do Rio Paraguaçu,0.75,0.0,0.0,0.0,0.0,1.0,1.5,1.5,0.0,0.75,2.75,0.0,0.0,0.0,0.5,0.25,0.0,0.0,0.0,0.0,0.0,0.25,0.0,0.25,0.25,3.25,0.0,0.0,0.25,1.25,14.5
Utinga,PG-PR-23,Utinga,Utinga - PG-PR-23,-12.030089,-41.058714,Chapada Diamantina,RPGA do Rio Paraguaçu,0.0,0.25,1.25,0.0,1.25,2.5,1.75,2.0,0.0,2.25,6.5,0.0,0.0,0.5,2.75,0.0,0.0,0.0,0.0,0.0,0.0,0.5,0.0,0.25,0.0,0.75,0.0,0.5,1.25,3.0,27.25
Guiné,PG-PR-24,Mucugê,Mucugê (Guiné) - PG-PR-24,-12.771772,-41.540679,Chapada Diamantina,RPGA do Rio Paraguaçu,0.0,0.0,0.25,0.0,0.25,1.5,1.0,2.5,0.0,0.25,5.75,0.0,0.0,0.0,0.0,0.0,0.5,0.0,0.0,0.0,0.0,0.75,0.0,0.0,0.0,0.25,0.0,0.0,0.0,0.5,13.5
Cascavel,PG-PR-27,Mucugê,Mucugê (Cascavel) - PG-PR-27,-13.285954,-41.287619,Chapada Diamantina,RPGA do Rio Paraguaçu,0.0,1.0,0.5,0.25,0.0,1.75,2.25,1.0,0.0,0.5,3.25,0.0,0.25,0.0,0.0,0.0,2.0,2.0,0.0,0.0,0.0,2.5,0.5,0.0,0.0,1.25,0.0,0.25,0.75,3.0,23.0
Mulungu do Morro,,Mulungu do Morro,Mulungu do Morro,-11.980363,-41.619012,Chapada Diamantina,RPGA do Rio Paraguaçu,0.2,0.2,0.2,0.0,1.2,0.8,0.4,3.4,0.0,0.0,6.4,0.4,0.0,0.0,0.6,0.2,0.0,0.0,0.0,0.0,0.0,0.0,0.2,0.0,0.4,1.2,0.0,0.0,0.0,1.4,17.2
Barro Alto,,Barro Alto,Barro Alto,-11.769188,-41.909464,Chapada Diamantina,RPGA dos Rios Verde e Jacaré,0.6,0.0,0.0,0.0,0.0,0.0,0.4,1.2,0.2,0.4,3.4,0.4,0.0,0.0,0.0,0.0,0.0,0.0,0.0,0.0,0.0,0.0,0.2,0.0,0.0,0.6,0.2,0.2,0.0,0.0,7.81
Canarana,,Canarana,Canarana,-11.69541,-41.78921,Chapada Diamantina,RPGA dos Rios Verde e Jacaré,0.0,0.0,0.0,0.0,0.0,0.0,0.0,0.2,0.0,0.0,1.6,0.0,0.0,0.0,0.0,0.0,0.0,0.0,0.0,0.0,0.0,0.0,0.0,0.0,0.0,0.0,0.0,0.0,0.0,0.0,1.8
Barra dos Mendes,,Barra dos Mendes,Barra dos Mendes,-11.805077,-42.05708,Chapada Diamantina,RPGA dos Rios Verde e Jacaré,0.4,0.0,0.0,0.0,0.0,0.0,0.0,0.6,0.2,0.0,4.8,0.2,0.0,0.0,0.0,0.0,0.0,0.0,0.0,0.0,0.0,0.0,0.0,0.0,0.0,0.0,0.0,0.0,0.0,0.0,6.2
Olho D'Água do Francisco,,Olho D'Água do Francisco,Olho D'Água do Francisco,-12.307034,-42.079028,Chapada Diamantina,RPGA dos Rios Verde e Jacaré,0.0,0.0,0.0,0.0,0.0,0.0,0.0,0.0,0.0,0.0,0.0,0.0,0.0,0.0,0.0,0.0,0.0,0.0,0.0,0.0,0.0,0.0,0.0,0.0,0.0,0.0,0.0,0.0,0.0,0.0,0.0
América Dourada,,América Dourada,América Dourada,-11.464848,-41.442615,Chapada Diamantina,RPGA dos Rios Verde e Jacaré,0.0,0.0,0.0,0.0,0.0,0.0,0.0,0.6,0.0,0.0,3.4,0.0,0.0,0.0,1.0,0.0,0.0,0.0,0.0,0.0,0.0,0.0,0.0,0.0,0.0,0.4,0.0,0.0,0.0,0.0,5.4
Cafarnaum,,Cafarnaum,Cafarnaum,-11.676688,-41.470143,Chapada Diamantina,RPGA dos Rios Verde e Jacaré,0.0,0.0,0.0,0.0,0.0,0.0,0.0,0.4,0.0,0.0,0.6,0.0,0.0,0.0,0.2,0.0,0.0,0.0,0.0,0.0,0.0,0.0,0.0,0.0,0.0,0.0,0.0,0.0,0.0,0.0,1.2
Ibiaporã,PG-CL-01,Mundo Novo,Mundo Novo (Ibiaporã) - PG-CL-01,-12.05379,-40.83722,Chapada Diamantina,RPGA do Rio Paraguaçu,1.5,5.5,4.25,0.75,6.25,12.75,8.25,7.0,0.0,1.25,11.75,0.0,0.0,0.75,6.25,0.0,0.0,0.0,0.0,0.0,0.0,3.75,3.75,0.0,5.25,11.25,2.75,4.0,1.5,6.5,105.0
Marcionílio Souza,PG-CL-03,Marcionílio Souza,Marcionílio Souza - PG-CL-03,-13.00021,-40.537783,Chapada Diamantina,RPGA do Rio Paraguaçu,0.0,0.0,0.0,0.0,0.5,3.5,1.0,0.25,0.25,3.25,8.25,0.0,0.0,0.25,4.75,0.0,0.0,0.0,0.0,0.0,0.0,2.5,0.0,0.0,0.0,0.0,0.0,0.0,0.0,6.0,30.5
Iraquara,PG-PR-02,Iraquara,Iraquara - PG-PR-02,-12.255093,-41.61679,Chapada Diamantina,RPGA do Rio Paraguaçu,0.5,0.0,0.0,0.0,0.25,0.5,1.5,10.5,0.0,1.25,4.0,0.0,0.0,0.0,0.0,0.0,0.0,0.0,0.0,0.0,0.0,0.25,0.0,0.0,1.0,0.5,0.0,0.0,0.25,0.75,21.25
Ventura,PG-PR-10,Morro do Chapéu,Morro do Chapéu (Ventura) - PG-PR-10,-11.650911,-40.951765,Chapada Diamantina,RPGA do Rio Paraguaçu,0.25,2.5,0.25,0.0,0.75,0.5,1.5,1.5,0.25,0.5,3.5,0.0,0.0,0.0,7.25,0.25,0.0,0.0,0.0,0.25,0.0,0.25,0.0,0.5,0.25,1.5,0.25,0.5,0.0,2.75,25.25
Bonito,PG-PR-11,Bonito,Bonito - PG-PR-11,-11.98993,-41.25429,Chapada Diamantina,RPGA do Rio Paraguaçu,0.5,1.75,4.25,2.5,7.25,13.25,15.25,15.75,0.75,2.75,6.5,0.0,0.5,0.0,3.25,0.0,0.0,0.0,0.0,0.0,0.0,2.25,0.5,0.75,3.5,18.25,3.0,3.25,4.0,12.25,122.0
Piatã,CO-CL-04,Piatã,Piatã - CO-CL-04,-13.164166,-41.770833,Chapada Diamantina,RPGA do Rio de Contas,0.0,0.0,0.25,0.0,1.0,5.5,2.25,9.75,0.25,1.75,1.25,0.0,0.0,0.0,0.0,1.5,0.0,0.25,0.0,0.0,0.0,3.0,0.5,0.0,1.25,9.0,0.0,2.75,1.5,10.0,51.75
Paulo Afonso,A411,Paulo Afonso,Paulo Afonso - A411,-9.379325,-38.227424,Nordeste,RPGA dos Rios Macururé e Curaçá,0.0,0.0,0.0,0.0,0.0,0.0,0.0,0.0,0.0,0.0,0.0,0.0,0.0,0.0,0.0,0.0,0.0,1.2,0.2,2.4,6.6,0.8,3.0,0.4,2.0,2.0,0.2,0.4,9.6,3.8,32.6
Cipó,83192,Cipó,Cipó - 83192,-11.083333,-38.516667,Nordeste,RPGA do Rio Itapicuru,0.6,0.0,4.0,1.6,7.6,2.8,3.6,9.7,8.8,0.0,1.8,0.0,2.5,1.6,5.6,0.0,0.0,0.0,0.7,7.8,1.2,1.8,1.3,10.9,1.8,3.8,0.8,2.6,3.7,3.3,89.9
Jacobina,83186,Jacobina,Jacobina - 83186,-11.172778,-40.534167,Nordeste,RPGA do Rio Itapicuru,4.3,2.2,2.1,0.0,7.1,4.0,11.7,2.6,4.4,1.4,0.0,3.1,0.0,0.0,2.6,0.0,0.0,0.0,0.0,0.0,0.0,0.0,0.0,1.3,8.6,6.4,0.0,0.0,0.0,0.7,62.5
Monte Santo,83090,Monte Santo,Monte Santo - 83090,-10.4425,-39.331111,Nordeste,RPGA do Rio Itapicuru,1.0,0.5,3.9,3.5,5.1,0.5,5.8,1.0,2.8,0.0,2.0,0.7,0.0,0.1,2.0,0.0,0.0,0.0,0.2,11.1,0.1,2.2,1.0,11.2,4.6,3.3,2.9,2.8,3.9,1.2,73.4
Serrinha,83190,Serrinha,Serrinha - 83190,-11.633333,-38.966667,Nordeste,RPGA do Recôncavo Norte,0.6,1.6,0.2,7.1,7.1,7.5,13.2,1.5,4.7,1.5,0.9,0.0,0.0,1.4,4.4,0.0,0.1,0.0,0.0,26.2,1.2,1.2,0.6,4.0,10.9,4.4,3.5,1.0,1.4,15.3,121.51
Conde,A431,Conde,Conde - A431,-12.03622,-37.68322,Nordeste,RPGA do Rio Itapicuru,2.8,14.8,9.8,27.0,11.4,31.4,0.0,2.0,9.6,1.0,2.8,6.6,3.2,27.6,0.8,0.2,0.0,0.4,4.0,6.0,0.2,4.4,10.6,50.0,1.2,2.8,6.6,10.4,0.0,15.6,263.2
Uauá,A435,Uauá,Uauá - A435,-9.833617,-39.495631,Nordeste,RPGA do Rio Vaza-Barris,0.0,0.0,0.4,0.2,3.4,0.6,0.2,1.2,0.0,0.0,0.0,0.2,0.0,0.0,0.0,0.0,0.0,0.0,0.0,0.4,0.0,0.0,0.8,2.2,0.2,0.8,0.4,0.0,0.0,0.0,11.01
Euclides da Cunha,A442,Euclides da Cunha,Euclides da Cunha - A442,-10.537233,-38.996605,Nordeste,RPGA do Rio Itapicuru,2.4,0.0,6.2,7.0,6.0,0.8,8.0,5.0,0.4,0.0,3.4,1.2,0.0,0.2,3.4,4.8,0.0,0.2,0.2,4.8,0.8,3.6,1.0,19.4,4.0,0.6,4.4,2.6,7.0,0.2,97.61
Queimadas,A436,Queimadas,Queimadas - A436,-10.984645,-39.617009,Nordeste,RPGA do Rio Itapicuru,0.6,0.0,2.6,3.2,12.0,1.0,7.4,0.2,3.2,1.2,4.0,0.2,0.4,0.2,1.8,0.6,0.2,0.0,0.2,14.8,0.2,0.0,0.4,9.4,1.0,3.0,0.4,0.6,0.0,2.2,71.0
Serrinha,A441,Serrinha,Serrinha - A441,-11.664586,-39.022946,Nordeste,RPGA do Rio Paraguaçu,0.4,2.0,0.8,8.4,6.8,7.0,12.8,1.6,4.4,1.4,2.2,0.0,0.0,1.0,4.0,0.0,0.2,0.0,0.2,24.0,1.4,2.2,1.2,7.2,12.0,4.4,5.2,1.2,1.0,13.8,126.81
Pedras Altas,50430000,Capim Grosso,Capim Grosso (Pedras Altas) - 50430000,-11.18288,-40.04725,Nordeste,RPGA do Rio Itapicuru,0.0,5.4,0.0,0.2,3.8,0.0,2.4,3.0,4.4,0.0,3.4,0.0,1.2,0.0,2.6,0.0,0.0,0.0,0.0,6.2,0.4,1.2,0.0,2.0,1.0,1.8,0.0,0.6,0.0,0.0,39.6
Ponto Novo,50380000,Ponto Novo,Ponto Novo - 50380000,-10.845,-40.1128,Nordeste,RPGA do Rio Itapicuru,0.2,13.4,0.0,1.6,12.8,0.85,5.0,0.4,2.2,6.6,1.0,5.8,1.4,0.0,2.6,0.0,0.0,0.0,0.0,8.2,8.2,0.0,0.0,4.6,5.6,2.8,1.0,0.6,0.8,0.2,85.85
Ipirá,PG-CL-02,Ipirá,Ipirá - PG-CL-02,-12.14986,-39.76454,Nordeste,RPGA do Rio Paraguaçu,0.0,3.75,0.75,2.75,1.0,6.5,8.75,4.75,4.5,0.25,0.25,0.0,0.0,2.0,2.25,0.0,0.0,0.0,0.0,6.0,0.25,0.25,1.25,3.5,1.75,4.0,0.0,54.8,6.25,4.25,119.8
Serrinha,RN-CL-02,Serrinha,Serrinha - RN-CL-02,-11.648333,-38.982777,Nordeste,RPGA do Recôncavo Norte,4.75,7.0,0.0,10.0,15.5,9.75,11.0,2.25,4.0,0.0,3.75,0.0,1.0,0.75,0.5,0.5,0.0,0.5,0.25,28.75,4.75,1.0,1.5,6.5,25.75,3.25,2.5,1.0,0.5,22.25,169.25
Valente,PG-PR-04,Valente,Valente - PG-PR-04,-11.40119,-39.458099,Nordeste,RPGA do Rio Paraguaçu,0.0,0.5,0.5,2.5,6.75,1.5,3.25,0.25,4.25,0.0,2.25,0.0,0.0,0.0,8.5,0.0,0.0,0.0,0.0,10.25,0.0,0.5,1.5,3.5,1.75,3.25,2.75,1.75,0.0,0.5,56.0
Pé de Serra,PG-PR-06,Pé de Serra,Pé de Serra - PG-PR-06,-11.833423,-39.623663,Nordeste,RPGA do Rio Paraguaçu,0.0,1.75,0.0,1.5,1.0,3.0,8.0,5.5,2.0,0.0,1.0,0.25,0.0,0.0,19.0,0.0,0.25,0.25,0.0,5.25,1.0,0.25,0.25,2.25,0.25,0.5,1.75,1.75,0.5,1.5,58.75
Centro,293010501A,Senhor do Bonfim,Senhor do Bonfim (Centro) - 293010501A,-10.464,-40.19,Nordeste,RPGA do Rio Itapicuru,0.2,4.7,6.5,3.6,11.6,1.0,4.5,1.2,14.6,1.4,1.2,3.7,0.0,0.4,5.9,0.0,0.0,0.0,0.0,12.4,1.0,0.0,0.2,6.5,0.6,3.6,1.0,2.2,1.0,1.4,90.4
Itapeipu,IT-PR-34,Jacobina,Jacobina (Itapeipu) - IT-PR-34,-11.315629,-40.356742,Nordeste,RPGA do Rio Itapicuru,0.0,5.75,1.25,0.25,12.5,2.0,4.25,1.5,13.25,1.5,0.0,3.0,0.75,0.75,4.5,0.0,0.0,0.0,0.0,6.0,1.5,0.0,0.0,10.0,0.75,3.5,0.25,1.5,0.25,1.0,76.0
Tombador Araújo,IT-PR-36,Jacobina,Jacobina (Tombador Araújo) - IT-PR-36,-11.168677,-40.670642,Nordeste,RPGA do Rio Itapicuru,2.5,0.75,9.0,0.0,12.5,1.25,1.5,2.75,7.0,2.0,2.75,4.75,0.25,0.25,4.0,0.25,0.0,0.0,0.0,3.75,0.0,0.0,0.0,3.5,1.75,2.75,0.25,0.75,0.5,0.25,65.0
Riacho da Onça,IT-PR-15,Queimadas,Queimadas (Riacho da Onça) - IT-PR-15,-11.24424,-39.790055,Nordeste,RPGA do Rio Itapicuru,0.0,0.5,0.25,1.25,4.25,0.0,13.25,0.0,5.25,0.0,1.5,0.0,0.25,0.25,10.5,0.0,0.0,0.0,0.0,8.5,0.0,0.25,0.0,3.75,2.0,1.75,3.25,0.75,0.5,3.5,61.5
Santaluz,IT-PR-17,Santaluz,Santaluz - IT-PR-17,-11.24831,-39.37563,Nordeste,RPGA do Rio Itapicuru,1.5,0.25,2.0,0.5,4.5,0.5,0.25,0.0,0.75,0.0,4.25,0.25,0.0,0.25,1.75,0.0,0.0,0.0,0.0,8.75,0.75,0.0,0.25,4.75,2.5,2.5,0.5,0.0,0.0,2.75,39.5
Açude Monteiro,IT-PR-23,Nordestina,Nordestina (Açude Monteiro) - IT-PR-23,-10.77645,-39.559491,Nordeste,RPGA do Rio Itapicuru,0.25,2.25,0.5,1.5,14.5,0.5,3.25,1.75,10.75,0.0,0.75,0.5,0.25,0.0,0.0,0.0,0.0,0.0,0.25,7.5,0.0,0.5,0.75,9.0,5.0,1.0,2.0,2.0,0.0,1.5,66.25
Pedra Vermelha,IT-PR-24,Monte Santo,Monte Santo (Pedra Vermelha) - IT-PR-24,-10.454497,-39.559488,Nordeste,RPGA do Rio Itapicuru,0.0,5.25,1.5,0.5,4.0,0.25,2.75,3.5,2.75,0.0,1.0,0.5,0.0,0.0,2.5,0.0,0.0,0.0,0.0,2.5,0.25,0.5,0.5,7.75,0.75,4.5,2.0,2.0,0.5,0.75,46.5
Quijingue,IT-PR-25,Quijingue,Quijingue - IT-PR-25,-10.783951,-39.20809,Nordeste,RPGA do Rio Itapicuru,0.5,1.5,0.75,1.25,2.25,0.75,1.0,3.25,4.75,0.0,0.25,1.75,0.0,0.0,1.5,1.0,0.0,0.0,0.0,4.0,0.25,1.0,0.25,14.0,0.75,1.0,1.0,1.0,0.25,0.25,44.25
Conde,IT-PR-31,Conde,Conde - IT-PR-31,-11.813434,-37.616927,Nordeste,RPGA do Rio Itapicuru,2.0,13.25,8.25,23.5,11.25,27.5,0.0,1.25,7.75,0.75,2.0,5.75,2.5,24.0,0.5,0.0,0.0,0.25,3.0,5.25,0.0,3.75,9.0,44.0,0.75,2.5,5.5,8.75,0.25,13.25,226.5
Curral Falso,IT-PR-01,Ribeira do Pombal,Ribeira do Pombal (Curral Falso) - IT-PR-01,-10.697843,-38.5714,Nordeste,RPGA do Rio Itapicuru,0.25,3.0,10.75,7.5,4.0,2.5,2.5,2.0,0.0,0.0,3.25,0.25,0.0,1.75,1.25,0.25,0.0,0.0,0.0,1.25,0.25,2.25,0.0,17.75,12.25,2.75,0.25,0.75,1.0,1.5,79.25
Aribicé,IT-PR-02,Euclides da Cunha,Euclides da Cunha (Aribicé) - IT-PR-02,-10.557835,-38.793352,Nordeste,RPGA do Rio Itapicuru,0.25,0.0,0.75,6.25,3.5,0.25,7.0,1.25,0.0,0.0,2.5,0.5,0.0,1.75,0.5,0.25,0.0,0.0,0.0,2.25,0.75,2.25,0.0,10.75,8.5,0.5,0.25,1.75,0.25,0.5,52.5
Ribeira do Pombal,IT-PR-04,Ribeira do Pombal,Ribeira do Pombal - IT-PR-04,-10.823399,-38.545844,Nordeste,RPGA do Rio Itapicuru,1.25,0.0,0.25,3.25,4.75,0.0,8.75,3.25,0.25,0.0,1.75,0.5,0.25,2.75,0.25,0.0,0.0,0.0,0.25,0.75,0.5,0.25,3.25,15.75,5.25,2.25,0.5,2.5,4.5,0.5,63.5
BR 116 E. Cunha / Tucano,IT-PR-05,Quijingue,Quijingue (BR 116 E. Cunha / Tucano) - IT-PR-05,-10.7105,-38.9227,Nordeste,RPGA do Rio Itapicuru,0.0,0.0,2.5,2.0,1.5,0.25,4.0,6.75,1.25,0.0,0.5,1.0,0.0,0.0,0.5,0.25,1.5,0.75,0.0,2.25,0.0,0.25,0.25,10.0,2.75,0.5,1.0,2.0,0.25,2.0,44.0
Crisópolis,IT-PR-08,Crisópolis,Crisópolis - IT-PR-08,-11.510923,-38.120832,Nordeste,RPGA do Rio Itapicuru,0.0,2.5,5.5,10.0,3.0,3.75,8.5,3.25,1.0,0.0,5.5,1.0,0.0,1.5,1.0,0.0,0.0,0.75,1.75,9.5,1.5,0.75,0.75,15.0,6.5,4.75,0.0,0.75,1.0,7.5,97.0
Fazenda Laranjeiras III,IT-PR-09,Araci,Araci (Fazenda Laranjeiras III) - IT-PR-09,-11.334248,-38.968638,Nordeste,RPGA do Rio Itapicuru,0.25,0.25,8.5,0.5,4.5,0.5,3.25,0.0,4.0,0.0,9.5,0.0,0.0,0.75,7.0,0.0,0.0,0.0,0.25,6.75,0.0,1.0,0.0,5.75,2.0,6.25,2.5,0.25,0.25,2.5,66.5
Estação Experimental,IT-PR-10,Nova Soure,Nova Soure (Estação Experimental) - IT-PR-10,-11.3083,-38.5361,Nordeste,RPGA do Rio Itapicuru,1.25,0.25,8.25,1.75,2.25,6.0,7.5,1.5,2.25,0.0,5.0,3.5,0.0,0.75,2.0,0.0,0.0,0.0,0.25,7.25,0.0,0.25,0.0,4.25,11.75,2.25,0.0,0.0,1.5,2.25,72.0
Olindina,IT-PR-11,Olindina,Olindina - IT-PR-11,-11.343693,-38.318892,Nordeste,RPGA do Rio Itapicuru,0.0,0.0,1.5,1.75,3.5,6.25,3.25,3.75,13.0,0.0,8.25,0.75,0.0,0.25,2.25,0.0,0.0,0.75,0.5,5.25,0.5,1.5,0.25,10.75,0.5,4.5,0.0,1.75,0.0,2.25,73.0
Boa Hora,IT-PR-13,Ribeira do Amparo,Ribeira do Amparo (Boa Hora) - IT-PR-13,-10.965,-38.5234,Nordeste,RPGA do Rio Itapicuru,0.75,0.0,0.0,0.0,4.5,0.75,6.0,2.0,13.0,0.25,0.0,2.25,2.0,0.25,2.5,0.0,0.0,0.0,0.0,1.75,0.25,0.25,0.5,14.25,2.75,0.25,0.75,0.25,2.25,6.0,63.5
Irecê,83182,Irecê,Irecê - 83182,-11.3,-41.866667,Norte,RPGA dos Rios Verde e Jacaré,0.0,0.0,0.0,0.0,0.0,0.0,0.0,0.0,0.0,0.0,0.6,0.0,0.0,0.0,0.0,0.0,0.0,0.0,0.0,0.0,0.0,0.0,0.0,0.0,0.0,0.0,0.0,0.0,0.0,0.0,0.6
Remanso,82979,Remanso,Remanso - 82979,-9.633333,-42.1,Norte,RPGA do Lago de Sobradinho,0.0,0.0,0.0,0.0,0.1,0.0,0.0,0.0,0.0,0.0,0.0,0.0,0.0,0.0,0.0,0.0,0.0,0.0,0.0,0.0,0.0,0.0,0.0,0.0,0.0,0.0,0.0,0.0,0.0,0.0,0.1
Delfino,A443,Umburanas,Umburanas (Delfino) - A443,-10.45492,-41.206996,Norte,RPGA do Rio Salitre,0.8,0.2,0.2,0.0,1.2,0.4,0.8,0.0,1.0,0.8,2.8,1.4,0.2,0.0,0.0,0.0,0.0,0.0,0.0,2.2,0.2,0.0,0.0,0.0,0.0,2.6,1.0,1.8,0.0,0.0,17.6
Remanso,A423,Remanso,Remanso - A423,-9.625693,-42.077214,Norte,RPGA do Lago de Sobradinho,0.0,0.0,0.0,0.0,0.4,0.0,0.0,0.0,0.0,0.0,0.0,0.0,0.0,0.0,0.0,0.0,0.0,0.0,0.0,0.0,0.0,0.0,0.0,0.0,0.0,0.0,0.0,0.0,0.0,0.0,0.4
Irecê,A424,Irecê,Irecê - A424,-11.328998,-41.864504,Norte,RPGA dos Rios Verde e Jacaré,0.0,0.0,0.8,0.0,0.0,0.0,0.4,0.0,0.0,1.0,0.8,0.0,0.0,0.0,0.0,0.0,0.0,0.0,0.0,0.0,0.0,0.0,0.0,0.0,0.0,0.0,0.0,0.0,0.0,0.0,3.0
Mandacaru,Convencional,Juazeiro,Juazeiro (Mandacaru) - Convencional,-9.401263,-40.434428,Norte,RPGA dos Rios Macururé e Curaçá,0.0,0.0,0.0,0.0,1.9,0.0,0.0,0.2,0.0,0.0,0.0,0.0,0.0,0.0,0.0,0.0,0.0,0.0,0.0,0.0,0.0,0.0,0.0,0.0,0.0,0.0,0.0,0.0,0.0,0.0,2.1
Casa Nova,Faz. Santa Felicidade,Casa Nova,Casa Nova - Faz. Santa Felicidade,-9.333333,-40.8,Norte,RPGA do Lago de Sobradinho,0.0,0.0,0.0,0.0,0.0,0.25,0.0,0.0,0.0,0.0,0.0,0.0,0.0,0.0,0.0,0.0,0.0,0.0,0.0,0.0,0.0,0.0,0.0,0.0,0.0,0.0,0.25,0.0,0.0,0.0,0.5
Juazeiro,Fazenda Brasil Uvas,Juazeiro,Juazeiro - Fazenda Brasil Uvas,-9.316666,-40.183333,Norte,RPGA dos Rios Macururé e Curaçá,0.0,0.0,0.0,0.0,0.0,0.0,0.0,0.0,0.0,0.0,0.0,0.0,0.0,0.0,0.0,0.0,0.0,0.0,0.0,0.0,0.0,0.0,0.0,0.0,0.0,0.0,0.5,0.0,0.0,0.0,0.5
Juazeiro,Massaroca,Juazeiro,Juazeiro - Massaroca,-9.8,-40.233333,Norte,RPGA dos Rios Macururé e Curaçá,0.0,0.0,0.0,0.4,4.0,0.6,1.3,0.1,0.4,0.0,0.0,0.0,0.0,0.0,0.1,0.0,0.0,0.0,0.0,0.0,1.9,0.0,0.0,0.0,0.0,0.0,0.1,0.2,0.0,0.3,9.4
Juazeiro,Santa Helena,Juazeiro,Juazeiro - Santa Helena,-9.566666,-40.3,Norte,RPGA dos Rios Macururé e Curaçá,0.0,0.0,0.0,0.0,1.8,0.0,0.2,2.3,0.2,0.0,0.0,0.1,0.0,0.0,0.1,0.0,0.0,0.0,0.0,0.0,0.0,0.0,0.0,0.0,0.0,0.0,0.0,0.3,0.0,0.0,5.0
Juazeiro,Salitre,Juazeiro,Juazeiro - Salitre,-9.5,-40.633333,Norte,RPGA dos Rios Macururé e Curaçá,0.0,0.0,0.0,0.0,2.0,0.1,0.0,0.0,1.2,0.0,0.0,0.0,0.0,0.0,0.0,0.0,0.0,0.0,0.0,0.0,1.6,0.0,0.0,0.0,0.0,0.1,0.4,0.0,0.0,0.0,5.4
Ibitibá,,Ibitibá,Ibitibá,-11.551736,-41.968187,Norte,RPGA dos Rios Verde e Jacaré,0.0,0.0,0.0,0.0,0.0,0.0,0.2,0.2,0.0,0.0,1.8,0.0,0.0,0.0,0.0,0.0,0.0,0.0,0.0,0.0,0.0,0.0,0.0,0.0,0.0,0.0,0.0,0.0,0.0,0.0,2.2
Jussara,Arrecife,Jussara,Jussara - Arrecife,-11.065335,-41.974853,Norte,RPGA dos Rios Verde e Jacaré,0.0,0.0,0.0,0.0,0.0,0.0,0.0,0.0,0.0,0.0,0.0,0.0,0.0,0.0,0.0,0.0,0.0,0.0,0.0,0.0,0.0,0.0,0.0,0.0,0.0,0.0,0.0,0.0,0.0,0.0,0.0
Ibipeba,,Ibipeba,Ibipeba,-11.673962,-42.010413,Norte,RPGA dos Rios Verde e Jacaré,0.0,0.0,0.0,0.0,0.0,0.0,0.2,0.4,0.0,0.4,2.0,0.0,0.0,0.0,0.0,0.0,0.0,0.0,0.0,0.0,0.0,0.0,0.0,0.0,0.0,0.4,0.0,0.0,0.0,0.0,3.4
Central,,Central,Central,-11.135391,-42.093468,Norte,RPGA dos Rios Verde e Jacaré,0.0,0.0,0.0,0.0,0.0,0.0,0.0,0.0,0.0,0.0,0.0,0.0,0.0,0.0,0.0,0.0,0.0,0.0,0.0,0.0,0.0,0.0,0.0,0.0,0.0,0.0,0.0,0.0,0.0,0.0,0.0
Juazeiro,48020000,Juazeiro,Juazeiro - 48020000,-9.4064,-40.5036,Norte,RPGA dos Rios Macururé e Curaçá,0.0,0.0,0.0,0.0,0.0,0.8,0.0,0.2,0.0,0.0,0.0,0.0,0.0,0.0,0.0,0.0,0.0,0.0,0.0,0.0,0.0,0.0,0.0,0.0,0.0,0.0,0.0,0.0,0.0,0.0,1.0
Uibai,,Uibai,Uibai,-11.294784,-42.14208,Norte,RPGA dos Rios Verde e Jacaré,0.0,0.0,0.0,0.0,0.0,0.0,0.0,0.0,0.0,0.0,0.0,0.0,0.0,0.0,0.0,0.0,0.0,0.0,0.0,0.0,0.0,0.0,0.0,0.0,0.0,0.0,0.0,0.0,0.0,0.0,0.0
Irecê,VJ-CL-01,Irecê,Irecê - VJ-CL-01,-11.289166,-41.894166,Norte,RPGA dos Rios Verde e Jacaré,0.0,0.0,0.0,0.0,0.0,0.0,0.0,0.0,0.0,0.0,0.0,0.0,0.0,0.0,0.0,0.0,0.0,0.0,0.0,0.0,0.0,0.0,0.0,0.0,0.0,0.0,0.0,0.0,0.0,0.0,0.0
Santa Rosa,SM-PR-01,Jaguarari,Jaguarari (Santa Rosa) - SM-PR-01,-10.098374,-39.869774,Norte,RPGA dos Rios Macururé e Curaçá,0.75,0.0,5.0,1.75,3.25,0.25,3.5,1.25,5.75,0.0,0.0,2.0,0.0,0.0,0.5,0.0,0.0,0.0,0.0,0.75,1.5,0.5,0.25,0.0,0.75,1.0,5.25,3.75,1.75,0.0,39.5
Juazeiro,Mandacaru,Juazeiro,Juazeiro - Mandacaru,-9.4,-40.433333,Norte,RPGA dos Rios Macururé e Curaçá,0.0,0.0,0.0,1.5,0.0,0.0,0.0,0.25,0.0,0.0,0.0,0.0,0.0,0.0,0.0,0.0,0.0,0.0,0.0,0.0,0.0,0.0,0.0,0.0,0.0,0.0,0.0,0.0,0.0,0.0,1.75
Campo Formoso,IT-PR-27,Campo Formoso,Campo Formoso - IT-PR-27,-10.510327,-40.332849,Norte,RPGA do Rio Itapicuru,0.75,5.75,13.25,8.25,17.0,4.0,25.5,3.0,24.5,2.25,6.25,2.75,0.0,3.0,2.75,0.0,0.0,0.0,0.0,15.25,6.0,0.25,0.0,6.5,0.25,3.0,2.0,6.75,1.75,3.75,164.5
Jaguarari,IT-PR-28,Jaguarari,Jaguarari - IT-PR-28,-10.269489,-40.200344,Norte,RPGA do Rio Itapicuru,0.5,3.25,4.75,3.5,9.75,3.25,0.5,11.0,7.5,0.5,0.0,1.5,0.0,0.0,0.25,0.0,0.0,0.0,0.0,9.0,2.25,0.0,0.75,1.5,0.0,1.75,1.5,3.25,0.25,0.0,66.5
Olho D'Água,,Olho D'Água,Olho D'Água,-10.700331,-40.601468,Norte,RPGA do Rio Salitre,1.2,4.0,0.8,0.6,7.0,1.6,4.2,3.0,4.4,1.0,2.4,0.6,0.0,0.4,0.2,0.0,0.0,0.0,0.0,4.8,1.8,0.2,0.0,0.4,0.2,3.4,1.2,3.6,0.0,0.2,47.2
Taquarendi,,Taquarendi,Taquarendi,-10.893669,-40.687028,Norte,RPGA do Rio Salitre,0.6,0.6,0.2,0.0,1.4,1.4,4.0,3.4,0.2,6.6,0.4,0.4,0.0,0.0,0.0,0.2,0.0,0.0,0.0,0.8,1.2,0.0,0.0,1.0,0.6,3.8,1.4,3.0,0.2,0.0,31.4
Fazenda Vila Verde,,Fazenda Vila Verde,Fazenda Vila Verde,-12.032839,-46.054434,Oeste,RPGA do Rio Grande,0.0,0.0,0.0,0.0,0.0,0.0,0.0,0.0,0.0,0.0,0.0,0.0,0.0,0.0,0.0,0.0,0.0,0.0,0.0,0.0,0.0,0.2,0.0,0.0,0.0,0.0,0.6,0.0,0.0,0.0,0.8
Fazenda Novo Horizonte,GR-PR-13,Barreiras,Barreiras (Fazenda Novo Horizonte) - GR-PR-13,-12.064787,-45.560529,Oeste,RPGA do Rio Grande,0.0,0.0,0.0,0.0,0.0,0.0,0.0,0.0,0.0,0.0,0.0,0.0,0.0,0.0,0.0,0.0,0.0,0.0,0.0,0.0,0.0,0.0,0.0,0.0,0.0,0.0,0.0,0.0,0.0,0.0,0.0
Fazenda Dona Izeta,GR-PR-15,Barreiras,Barreiras (Fazenda Dona Izeta) - GR-PR-15,-12.073399,-45.490807,Oeste,RPGA do Rio Grande,0.0,0.0,0.0,0.0,0.0,0.0,0.0,0.0,0.0,0.0,0.0,0.0,0.0,0.0,0.0,0.0,0.0,0.0,0.0,0.0,0.0,0.0,0.0,0.0,0.0,0.0,0.0,0.0,0.0,0.0,0.0
Fazenda Pró Café,GR-PR-19,Barreiras,Barreiras (Fazenda Pró Café) - GR-PR-19,-12.160625,-45.330802,Oeste,RPGA do Rio Grande,0.0,0.0,0.0,0.0,0.0,0.0,0.0,0.2,0.0,0.0,0.0,0.0,0.0,0.0,0.0,0.0,0.0,0.0,0.0,0.0,0.0,0.0,0.0,0.0,0.0,0.0,0.0,0.0,0.0,0.0,0.2
Fazenda Rio Brilhante,,Fazenda Rio Brilhante,Fazenda Rio Brilhante,-12.802859,-45.729985,Oeste,RPGA do Rio Grande,0.0,0.0,0.0,0.0,0.0,0.0,0.0,0.0,0.0,0.0,0.0,0.0,0.0,0.0,0.0,0.0,0.0,0.0,0.0,0.0,0.0,0.0,0.0,0.0,0.0,0.0,0.0,0.0,0.0,0.0,0.0
Fazenda Catarinense,,Fazenda Catarinense,Fazenda Catarinense,-13.286201,-46.028331,Oeste,RPGA do Rio Grande,0.0,0.0,0.0,0.0,0.0,0.0,0.0,0.0,0.0,0.0,0.0,0.0,0.0,0.0,0.0,0.0,0.0,0.0,0.0,0.0,0.0,0.0,0.0,0.0,0.0,0.0,0.0,0.0,0.0,0.0,0.0
Fazenda Morete,,Fazenda Morete,Fazenda Morete,-13.222316,-45.154969,Oeste,"RPGA do Rio Corrente e Riachos do Ramalho, Serra Dourada e Brejo Velho",0.0,0.0,0.0,0.0,0.0,0.0,0.0,0.0,0.0,0.0,0.0,0.0,0.0,0.0,0.0,0.0,0.0,0.0,0.0,0.0,0.0,0.0,0.0,0.0,0.0,0.0,0.0,0.0,0.0,0.0,0.0
Rosário,CT-PR-03,Correntina,Correntina (Rosário) - CT-PR-03,-13.940105,-46.188064,Oeste,"RPGA do Rio Corrente e Riachos do Ramalho, Serra Dourada e Brejo Velho",0.0,0.0,0.0,0.0,0.0,0.0,0.0,0.0,0.0,0.0,0.0,0.0,0.0,0.0,0.0,0.0,0.0,0.0,0.0,0.0,0.0,0.0,0.0,0.0,0.0,0.0,0.0,0.0,0.0,0.0,0.0
Fazenda Nova Esperança,,Fazenda Nova Esperança,Fazenda Nova Esperança,-13.987891,-45.389148,Oeste,"RPGA do Rio Corrente e Riachos do Ramalho, Serra Dourada e Brejo Velho",0.0,0.0,0.0,0.0,0.0,0.0,0.0,0.0,0.0,0.0,0.0,0.0,0.0,0.0,0.0,0.0,0.0,0.0,0.0,0.0,0.0,0.0,0.0,0.0,0.0,0.0,0.0,0.0,0.0,0.0,0.0
Ponte do Fortunato,,Ponte do Fortunato,Ponte do Fortunato,-14.642348,-45.503045,Oeste,RPGA do Rio Carinhanha,0.0,0.0,0.0,0.0,0.0,0.0,0.0,0.0,0.0,0.0,0.0,0.0,0.0,0.0,0.0,0.0,0.0,0.0,0.0,0.0,0.0,0.0,0.0,0.0,0.0,0.0,0.0,0.0,0.0,0.0,0.0
Ponte do Itaguari,CA-PR-02,Cocos,Cocos (Ponte do Itaguari) - CA-PR-02,-14.234011,-44.626902,Oeste,RPGA do Rio Carinhanha,0.0,0.0,0.0,0.0,0.0,0.0,0.0,0.0,0.0,0.0,0.0,0.0,0.0,0.0,0.0,0.0,0.0,0.2,0.0,0.0,0.0,0.0,0.0,0.0,0.0,0.0,0.0,0.0,0.0,0.0,0.2
Correntina,A416,Correntina,Correntina - A416,-13.332386,-44.617376,Oeste,"RPGA do Rio Corrente e Riachos do Ramalho, Serra Dourada e Brejo Velho",0.0,0.0,0.0,0.0,0.0,0.0,0.0,0.0,0.0,0.0,0.0,0.0,0.0,0.0,0.0,0.0,0.0,0.0,0.0,0.0,0.0,0.0,0.0,0.0,0.0,0.0,0.0,0.0,0.0,0.0,0.0
Barreiras,83236,Barreiras,Barreiras - 83236,-12.155556,-45.007778,Oeste,RPGA do Rio Grande,0.0,0.0,0.0,0.0,0.0,0.0,0.0,0.0,0.0,0.0,0.0,0.0,0.0,0.0,0.0,0.0,0.0,0.0,0.0,0.0,0.0,0.0,0.0,0.0,0.0,0.0,0.0,0.0,0.0,0.0,0.0
Correntina,83286,Correntina,Correntina - 83286,-13.332222,-44.617222,Oeste,"RPGA do Rio Corrente e Riachos do Ramalho, Serra Dourada e Brejo Velho",0.0,0.0,0.0,0.0,0.0,0.0,0.0,0.0,0.0,0.0,0.0,0.0,0.0,0.0,0.0,0.0,0.0,0.0,0.0,0.0,0.0,0.0,0.0,0.0,0.0,0.0,0.0,0.0,0.0,0.0,0.0
Form. Rio Preto,46550000,Barreiras,Barreiras (Form. Rio Preto) - 46550000,-11.154444,-45.009166,Oeste,RPGA do Rio Grande,0.0,0.0,0.0,0.0,0.0,0.0,0.0,0.0,0.0,0.0,0.0,0.0,0.0,0.0,0.0,0.0,0.0,0.0,0.0,0.0,0.0,0.0,0.0,0.0,0.0,0.0,0.0,0.0,0.0,0.0,0.0
Arrojado,45770000,Correntina,Correntina (Arrojado) - 45770000,-13.4528,-44.5689,Oeste,"RPGA do Rio Corrente e Riachos do Ramalho, Serra Dourada e Brejo Velho",0.0,2.0,0.0,0.0,0.0,0.0,0.0,0.0,0.0,0.0,0.0,0.0,0.0,0.0,0.0,0.0,0.0,0.0,0.0,0.0,0.0,0.0,0.0,0.0,0.0,0.0,0.0,0.0,0.0,0.0,2.0
Mocambo,45740001,Correntina,Correntina (Mocambo) - 45740001,-13.28572,-44.56284,Oeste,"RPGA do Rio Corrente e Riachos do Ramalho, Serra Dourada e Brejo Velho",0.2,0.0,0.0,0.2,0.0,0.2,0.0,0.0,0.0,0.0,0.0,0.0,0.0,0.0,0.0,0.2,0.0,0.0,0.0,0.2,0.0,0.0,0.0,0.0,0.0,0.0,0.0,0.0,0.0,0.0,1.0
PCH Pres. Goulart-J,45600000,Correntina,Correntina (PCH Pres. Goulart-J) - 45600000,-13.3344,-44.6208,Oeste,"RPGA do Rio Corrente e Riachos do Ramalho, Serra Dourada e Brejo Velho",0.0,0.0,0.0,0.0,0.0,0.0,0.0,0.0,0.0,0.0,0.0,0.0,0.0,0.0,0.0,0.0,0.0,0.0,0.0,0.0,0.0,0.0,0.0,0.0,0.0,0.0,0.0,0.0,0.0,0.0,0.0
PCH Pres. Goulart-M1,45588000,Correntina,Correntina (PCH Pres. Goulart-M1) - 45588000,-13.3408,-44.6414,Oeste,"RPGA do Rio Corrente e Riachos do Ramalho, Serra Dourada e Brejo Velho",0.0,0.0,0.0,0.0,0.0,0.0,0.0,0.0,0.0,0.0,0.0,0.0,0.0,0.0,0.0,0.0,0.0,0.0,0.0,0.0,0.0,0.0,0.0,0.0,0.0,0.0,0.0,0.0,0.0,0.0,0.0
PCH Sítio Grande-J,46453500,São Desidério,São Desidério (PCH Sítio Grande-J) - 46453500,-12.4286,-45.1528,Oeste,RPGA do Rio Grande,0.0,0.0,0.0,0.0,0.0,0.0,0.0,1.1,0.0,0.0,0.0,0.0,0.0,0.0,0.0,0.0,0.0,0.0,0.0,0.0,0.0,0.0,0.0,0.0,0.0,0.0,0.0,0.0,0.0,0.0,1.1
COACERAL,GR-CL-02,Formosa do Rio Preto,Formosa do Rio Preto (COACERAL) - GR-CL-02,-10.561944,-45.693333,Oeste,RPGA do Rio Grande,0.0,0.0,0.0,0.0,0.0,0.0,0.0,0.0,0.0,0.0,0.0,0.0,0.0,0.0,0.0,0.0,0.0,0.0,0.0,0.0,0.0,0.0,0.0,0.0,0.0,0.0,0.0,0.0,0.0,0.0,0.0
Barreiras,A402,Barreiras,Barreiras - A402,-12.124715,-45.027049,Oeste,RPGA do Rio Grande,0.0,0.0,0.0,0.0,0.0,0.0,0.0,0.2,0.0,0.0,0.0,0.0,0.0,0.0,0.0,0.0,0.0,0.0,0.0,0.0,0.0,0.0,0.0,0.0,0.0,0.2,0.0,0.0,0.0,0.0,0.4
Luís Eduardo Magalhães,A404,Luís Eduardo Magalhães,Luís Eduardo Magalhães - A404,-12.152394,-45.829745,Oeste,RPGA do Rio Grande,0.0,0.0,0.0,0.0,0.0,0.0,0.0,0.4,0.0,0.0,0.0,0.0,0.0,0.0,0.0,0.0,0.0,0.0,0.0,0.0,0.0,0.0,0.0,0.0,0.0,0.0,0.0,0.0,0.0,0.0,0.4
São Desidério,R. Velha - GR-CL-01,São Desidério,São Desidério - R. Velha - GR-CL-01,-12.898055,-46.157222,Oeste,RPGA do Rio Grande,0.0,0.0,0.0,0.0,0.7,0.0,0.1,0.2,0.0,0.3,0.5,0.0,0.0,0.0,0.0,0.0,0.5,0.0,0.0,0.0,0.0,0.0,0.0,0.0,0.4,0.1,0.0,0.0,0.0,0.2,3.0
Fazenda Evandro,GR-PR-01,Formosa do Rio Preto,Formosa do Rio Preto (Fazenda Evandro) - GR-PR-01,-10.600581,-45.822752,Oeste,RPGA do Rio Grande,0.0,0.0,0.0,0.0,0.0,0.0,0.0,0.0,0.0,0.0,0.0,0.0,0.0,0.0,0.0,0.0,0.0,0.0,0.0,0.0,0.0,0.0,0.0,0.0,0.0,0.0,0.0,0.0,0.0,0.0,0.0
Barra do Tapuio,GR-PR-02,Formosa do Rio Preto,Formosa do Rio Preto (Barra do Tapuio) - GR-PR-02,-11.09476,-45.950259,Oeste,RPGA do Rio Grande,0.0,0.0,0.0,0.0,0.0,0.0,0.0,0.0,0.0,0.0,0.0,0.2,0.0,0.0,0.0,0.0,0.0,0.0,0.0,0.0,0.0,0.0,0.0,0.0,0.0,0.0,0.0,0.0,0.0,0.0,0.2
Fazenda Mingore,GR-PR-03,Formosa do Rio Preto,Formosa do Rio Preto (Fazenda Mingore) - GR-PR-03,-11.043367,-46.296104,Oeste,RPGA do Rio Grande,0.0,0.0,0.0,0.0,0.0,0.0,0.0,0.0,0.0,0.0,0.0,0.0,0.0,0.0,0.0,0.0,0.0,0.0,0.0,0.0,0.0,1.6,0.0,0.0,0.0,0.0,0.0,0.0,0.0,0.0,1.6
Garganta,GR-PR-04,Formosa do Rio Preto,Formosa do Rio Preto (Garganta) - GR-PR-04,-11.384764,-46.505001,Oeste,RPGA do Rio Grande,0.0,0.0,0.0,0.0,0.0,0.0,0.0,0.0,0.0,0.0,0.0,0.0,0.0,0.0,0.0,0.0,0.0,0.0,0.0,0.0,0.0,0.0,0.0,0.0,0.0,0.0,0.0,0.0,0.0,0.0,0.0
Algocel,,Algocel,Algocel,-11.758942,-46.205271,Oeste,RPGA do Rio Grande,0.0,0.0,0.0,0.0,0.0,1.4,7.0,1.4,17.0,0.2,0.0,0.0,0.0,0.0,0.0,0.0,0.0,4.8,0.8,0.4,4.6,38.6,1.6,0.0,1.4,5.2,36.4,37.2,6.8,2.8,167.61
J. Zoológico,A401,Salvador,Salvador (J. Zoológico) - A401,-13.005515,-38.50576,Recôncavo,RPGA do Recôncavo Norte,2.6,11.2,1.0,11.6,20.0,3.4,12.6,3.4,21.4,14.4,1.6,1.8,0.4,7.2,4.0,0.0,0.0,2.2,0.8,12.4,6.4,0.0,0.8,16.0,9.2,16.2,38.6,64.6,38.2,35.6,357.6
Cruz das Almas,A406,Cruz das Almas,Cruz das Almas - A406,-12.675422,-39.08958,Recôncavo,RPGA do Rio Paraguaçu,2.6,12.6,2.0,25.2,14.6,16.2,6.2,17.2,4.0,3.0,0.6,0.0,0.0,7.8,6.8,0.2,0.0,0.0,0.0,5.8,1.2,9.2,0.6,8.0,8.6,12.2,0.4,2.4,10.0,22.0,199.4
Salvador,Canabrava,Salvador,Salvador - Canabrava,-12.924122,-38.429942,Recôncavo,RPGA do Recôncavo Norte,4.8,14.7,7.1,32.4,12.4,7.3,8.0,5.7,20.1,7.7,9.5,0.2,1.0,3.3,3.2,0.4,0.0,1.1,0.6,14.2,2.0,6.4,5.3,11.8,8.1,27.7,38.9,62.6,29.2,29.5,375.2
Feira de Santana,A413,Feira de Santana,Feira de Santana - A413,-12.1962,-38.967384,Recôncavo,RPGA do Recôncavo Norte,0.4,0.8,0.4,10.0,3.8,7.2,14.8,1.8,3.0,0.6,3.8,0.0,0.0,1.6,2.2,0.0,0.0,0.0,0.0,5.6,0.2,0.0,0.0,2.8,2.6,0.6,12.2,3.4,1.8,3.8,83.4
Alagoinhas,83249,Alagoinhas,Alagoinhas - 83249,-12.148333,-38.425556,Recôncavo,RPGA do Recôncavo Norte,3.3,5.4,1.9,15.4,10.8,9.8,16.8,4.4,4.9,0.2,7.9,0.0,0.0,10.0,3.4,0.0,0.0,0.0,0.8,8.6,5.0,1.2,0.3,1.9,9.4,19.6,8.5,7.6,0.6,13.5,171.21
Cruz das Almas,83222,Cruz das Almas,Cruz das Almas - 83222,-12.666667,-39.083333,Recôncavo,RPGA do Rio Paraguaçu,2.5,14.5,1.8,30.6,17.0,18.8,6.1,18.2,4.9,2.6,0.5,0.0,0.0,8.5,7.2,0.0,0.0,0.0,0.0,5.8,1.3,9.4,0.4,8.9,10.8,14.3,0.5,3.2,10.6,23.8,222.21
Feira de Santana,83221,Feira de Santana,Feira de Santana - 83221,-12.196111,-38.967222,Recôncavo,RPGA do Recôncavo Norte,1.0,1.8,1.0,11.3,5.0,7.8,14.6,2.6,5.0,1.2,4.2,0.0,0.0,2.4,2.6,0.0,0.0,0.0,0.0,6.2,0.0,0.0,0.0,3.2,2.8,0.6,13.6,5.6,2.2,5.0,99.7
Amargosa,A434,Amargosa,Amargosa - A434,-13.009468,-39.616881,Recôncavo,RPGA do Recôncavo Sul,0.2,3.0,0.0,1.4,4.4,18.4,15.6,22.2,8.2,5.2,1.6,0.0,0.2,5.2,8.6,0.2,6.6,0.0,0.0,0.0,2.6,4.2,12.0,0.2,0.4,9.4,0.2,0.0,0.2,9.6,139.8
Valença,A444,Valença,Valença - A444,-13.34361,-39.12667,Recôncavo,RPGA do Recôncavo Sul,2.6,4.4,1.0,15.6,6.2,31.4,34.8,56.0,43.8,19.8,6.4,0.4,6.2,4.8,15.0,0.0,1.2,2.6,0.2,2.2,6.2,10.0,1.4,2.0,11.2,25.2,2.8,16.2,9.2,42.8,381.6
Mata de São João,ETA - Embasa,Mata de São João,Mata de São João - ETA - Embasa,-12.394946,-37.934649,Recôncavo,RPGA do Recôncavo Norte,6.5,0.0,11.3,11.3,2.8,24.0,8.2,0.0,0.9,2.9,0.3,25.4,0.0,25.5,0.0,0.0,0.0,0.0,0.0,12.4,0.0,6.9,0.0,0.2,0.0,0.0,10.4,0.0,4.8,0.0,153.81
Candeias,EMBASA,Candeias,Candeias - EMBASA,-12.663561,-38.533,Recôncavo,RPGA do Recôncavo Norte,0.2,11.0,8.7,23.8,7.9,11.2,8.3,8.1,12.6,1.4,19.6,0.0,0.5,1.1,3.2,0.0,0.0,0.0,0.0,10.6,1.4,0.3,1.8,9.9,13.6,18.5,104.6,25.5,0.3,0.0,304.1
Dias D´Ávila,EMBASA,Dias D´Ávila,Dias D´Ávila - EMBASA,-12.620505,-38.315217,Recôncavo,RPGA do Recôncavo Norte,1.5,3.0,3.5,20.7,6.9,16.6,7.1,3.3,9.8,0.1,24.0,2.9,0.0,8.2,1.5,0.0,0.0,0.0,0.9,15.3,0.0,0.0,4.9,20.1,12.5,10.0,26.0,23.8,4.2,16.1,242.9
São Sebastião do Passé-EMBASA,,São Sebastião do Passé-EMBASA,São Sebastião do Passé-EMBASA,-12.517449,-38.492165,Recôncavo,RPGA do Recôncavo Norte,0.3,1.4,1.9,21.3,6.2,11.0,7.4,9.5,7.2,1.0,3.9,0.0,0.0,10.4,6.7,0.0,0.0,0.0,0.0,0.8,0.1,0.4,2.2,14.2,2.5,9.9,36.2,30.0,11.04,2.4,197.94
Joanes II,322,Simões Filho,Simões Filho (Joanes II) - 322,-12.674147,-38.376254,Recôncavo,RPGA do Recôncavo Norte,1.8,8.1,16.6,22.0,13.6,9.7,7.1,11.5,18.1,7.5,41.0,0.0,0.0,3.3,3.1,0.0,0.0,0.0,0.0,9.9,0.8,0.3,2.1,25.5,3.8,32.1,69.1,54.0,4.7,11.0,376.7
Santa Helena,323,Camaçari,Camaçari (Santa Helena) - 323,-12.56202,-38.1606,Recôncavo,RPGA do Recôncavo Norte,1.2,11.2,4.7,16.4,3.4,21.1,11.5,6.8,44.5,1.9,6.7,3.3,1.0,0.9,3.2,0.0,0.0,0.0,0.6,2.1,1.0,0.7,4.6,2.8,6.3,3.7,40.0,35.1,40.6,16.4,291.7
Salvador,(MONT SERRAT - PCD),Salvador,Salvador - (MONT SERRAT - PCD),-12.930959,-38.516964,Recôncavo,RPGA do Recôncavo Norte,0.2,0.0,0.0,8.2,25.8,1.8,8.8,7.4,29.0,3.2,10.0,0.0,0.0,4.6,4.6,0.0,0.0,0.6,0.2,6.8,3.0,8.2,6.4,39.2,19.4,23.0,30.8,58.2,21.8,23.2,344.41
Ondina,83229,Salvador,Salvador (Ondina) - 83229,-13.005278,-38.505833,Recôncavo,RPGA do Recôncavo Norte,2.3,11.9,0.8,11.2,20.9,3.7,12.9,3.7,20.5,13.9,1.5,2.0,0.4,6.8,4.0,0.0,0.0,2.6,0.8,12.2,6.1,0.0,0.7,15.2,8.7,16.4,38.8,61.6,39.3,33.9,352.8
Feira de Santana,PG-PR-13,Feira de Santana,Feira de Santana - PG-PR-13,-12.268161,-38.96642,Recôncavo,RPGA do Rio Paraguaçu,0.0,0.0,3.25,12.0,1.0,4.25,8.0,9.0,5.5,0.0,3.0,0.0,0.0,1.75,2.25,0.0,0.0,0.0,0.0,8.0,0.0,0.25,0.25,1.5,3.0,2.25,12.25,2.5,0.75,6.25,87.0
Itatim,PG-PR-14,Itatim,Itatim - PG-PR-14,-12.720391,-39.700059,Recôncavo,RPGA do Rio Paraguaçu,0.0,0.5,0.0,0.0,0.25,3.25,10.75,3.0,1.5,1.75,0.25,0.0,0.0,1.25,5.75,0.0,0.0,0.0,0.0,0.25,0.0,0.25,0.0,0.0,0.0,0.0,0.25,0.0,0.5,3.75,33.25
Águas Claras,292740808A,Salvador,Salvador (Águas Claras) - 292740808A,-12.8944,-38.441889,Recôncavo,RPGA do Recôncavo Norte,1.2,11.2,1.4,28.9,5.7,9.7,3.2,6.5,36.1,2.4,13.4,0.0,0.0,7.5,4.0,0.2,0.0,0.2,2.6,12.2,1.0,6.9,5.1,7.1,22.4,9.9,80.6,34.3,16.8,11.0,341.5
Cosme de Farias,292740816A,Salvador,Salvador (Cosme de Farias) - 292740816A,-12.979402,-38.4855,Recôncavo,RPGA do Recôncavo Norte,2.0,16.7,13.6,18.5,14.0,2.2,12.1,1.6,27.2,7.3,0.6,0.0,0.2,11.4,1.4,0.0,0.0,5.7,0.8,12.6,4.5,0.2,0.4,26.8,18.3,24.0,49.1,47.1,49.8,31.3,399.41
Valéria,292740817A,Salvador,Salvador (Valéria) - 292740817A,-12.8644,-38.438276,Recôncavo,RPGA do Recôncavo Norte,9.6,6.7,3.9,40.6,4.0,9.7,4.9,11.3,42.3,5.9,11.5,0.4,0.0,5.0,4.3,0.0,0.0,0.0,0.0,18.3,3.9,1.2,1.2,18.5,19.3,19.9,71.9,28.4,17.4,16.7,376.8
Centro,290650101A,Candeias,Candeias (Centro) - 290650101A,-12.670229,-38.544112,Recôncavo,RPGA do Recôncavo Norte,5.7,24.8,7.1,34.6,13.6,12.2,7.9,6.5,12.1,0.8,20.7,0.0,0.0,7.1,3.0,0.0,0.0,0.0,0.6,14.2,2.9,0.4,2.0,11.4,31.5,15.6,142.5,28.6,1.0,21.9,428.7
Malemba,290650102A,Candeias,Candeias (Malemba) - 290650102A,-12.678285,-38.544112,Recôncavo,RPGA do Recôncavo Norte,6.1,23.0,8.3,30.9,15.6,10.2,9.4,6.3,13.4,0.6,15.0,0.0,0.0,7.1,4.0,0.0,0.0,0.2,0.6,11.6,3.5,0.2,2.4,9.7,36.1,19.0,135.9,34.5,2.0,12.2,417.8
Salvador,Itapuã - RN-CL-01,Salvador,Salvador - Itapuã - RN-CL-01,-12.931388,-38.361111,Recôncavo,RPGA do Recôncavo Norte,3.8,12.3,6.2,32.9,10.0,6.3,8.5,6.6,23.9,6.8,9.1,0.1,1.3,4.5,4.0,0.6,0.0,0.7,0.4,12.5,2.4,4.4,4.4,8.5,9.9,24.9,39.3,54.8,22.8,22.1,344.01
Sarandi,290650104A,Candeias,Candeias (Sarandi) - 290650104A,-12.671341,-38.531056,Recôncavo,RPGA do Recôncavo Norte,3.6,17.5,10.9,29.1,11.1,10.3,9.4,10.2,11.5,0.8,25.1,0.0,0.0,6.3,3.4,0.0,0.0,0.4,0.2,14.4,1.6,0.2,3.9,10.6,33.1,10.4,129.4,24.8,0.8,24.4,403.4
Itinga,291920703A,Lauro de Freitas,Lauro de Freitas (Itinga) - 291920703A,-12.892,-38.336,Recôncavo,RPGA do Recôncavo Norte,2.6,17.7,1.8,48.0,12.8,16.1,1.6,3.8,35.8,8.9,5.7,2.8,1.8,10.8,8.4,0.0,0.0,0.0,0.6,13.6,4.3,0.8,2.6,18.1,23.1,11.0,71.8,23.5,9.5,2.2,359.7
Vila Praiana,291920702A,Lauro de Freitas,Lauro de Freitas (Vila Praiana) - 291920702A,-12.901,-38.308,Recôncavo,RPGA do Recôncavo Norte,1.2,17.7,5.1,35.1,7.1,5.5,2.8,1.2,32.1,4.9,7.0,2.0,0.2,9.9,5.2,0.0,0.0,0.0,1.2,6.7,0.6,0.6,0.0,16.5,19.5,10.6,53.2,26.1,7.1,1.6,280.71
Rua 02 de Julho,291920705A,Lauro de Freitas,Lauro de Freitas (Rua 02 de Julho) - 291920705A,-12.839,-38.35,Recôncavo,RPGA do Recôncavo Norte,1.2,18.9,3.8,43.5,13.1,11.6,8.1,3.9,38.2,12.0,18.1,0.0,0.0,4.1,2.6,0.0,5.1,0.0,1.8,7.1,3.7,0.0,0.0,15.8,46.6,12.7,69.7,34.6,19.5,13.8,409.5
Muritiba,PG-PR-12,Muritiba,Muritiba - PG-PR-12,-12.617895,-39.005591,Recôncavo,RPGA do Rio Paraguaçu,2.5,5.0,3.25,19.75,7.75,7.0,9.75,10.0,8.25,0.25,1.75,0.0,0.0,5.0,4.5,0.0,0.25,0.25,0.0,14.5,1.5,2.75,0.75,1.25,12.5,17.0,1.25,3.75,3.25,7.25,151.0
Dois de Julho,291120401A,Gandú,Gandú (Dois de Julho) - 291120401A,-13.741357,-39.48303,Recôncavo,RPGA do Recôncavo Sul,3.8,6.8,6.3,2.8,3.2,15.4,8.9,17.7,7.8,6.0,35.4,0.2,0.0,6.9,7.3,0.2,0.6,2.8,0.2,0.0,1.2,9.4,0.6,1.0,8.0,12.5,0.6,2.6,13.7,16.7,198.6
Centro,292060101A,Maragogipe,Maragogipe (Centro) - 292060101A,-12.78,-38.917,Recôncavo,RPGA do Rio Paraguaçu,0.4,16.6,7.1,22.6,15.4,21.1,9.5,9.7,38.1,1.4,2.8,0.2,0.0,6.0,8.9,0.0,0.0,0.0,0.0,9.9,1.8,14.2,1.2,11.4,9.9,15.2,1.2,2.6,8.5,17.0,252.7
Rua São Roque,293290301A,Valença,Valença (Rua São Roque) - 293290301A,-13.363,-39.078,Recôncavo,RPGA do Recôncavo Sul,1.4,6.2,1.4,24.3,13.6,27.4,32.4,27.2,53.8,15.1,9.6,0.2,2.0,3.4,17.0,0.2,0.2,3.6,0.2,3.0,3.2,5.7,3.9,0.8,11.5,14.5,3.4,21.0,18.1,27.6,351.9
Abaeté,RN-PR-01,Salvador,Salvador (Abaeté) - RN-PR-01,-12.945407,-38.361404,Recôncavo,RPGA do Recôncavo Norte,1.0,5.0,3.6,34.3,3.0,3.4,10.0,9.2,35.2,4.0,8.0,0.0,2.2,8.0,6.4,0.0,0.0,0.0,0.0,9.1,3.2,0.4,2.6,2.0,13.6,19.4,40.0,39.2,9.8,7.4,280.0
Espinheira,,Espinheira,Espinheira,-14.283478,-41.75792,Sudoeste,RPGA do Rio de Contas,0.0,0.0,0.0,0.0,0.0,0.0,0.0,0.0,0.0,5.75,0.0,0.0,0.0,0.0,0.0,0.0,0.0,0.0,0.0,0.0,0.0,0.0,0.0,0.0,0.5,0.0,0.0,0.0,0.0,0.0,6.25
Cândido Sales,53620000,Cândido Sales,Cândido Sales - 53620000,-15.512891,-41.236629,Sudoeste,RPGA do Rio Pardo,0.0,0.0,0.2,0.0,0.0,0.4,0.8,1.6,0.6,2.6,0.2,0.0,0.0,0.0,0.0,0.0,8.0,6.8,0.0,0.2,0.6,0.6,0.2,0.8,0.0,0.0,0.0,0.0,1.2,0.4,25.2
Itiruçu,A407,Itiruçu,Itiruçu - A407,-13.52629,-40.12055,Sudoeste,RPGA do Recôncavo Sul,1.6,0.4,0.0,0.8,3.6,7.0,3.6,5.8,4.0,18.0,9.6,0.2,0.0,1.4,10.2,0.2,0.4,1.4,0.2,0.4,0.2,6.0,2.8,0.2,4.8,7.6,6.0,7.8,4.6,6.6,115.4
Ituaçu,83292,Ituaçu,Ituaçu - 83292,-13.812778,-41.3,Sudoeste,RPGA do Rio de Contas,0.0,0.0,0.0,0.0,0.0,3.8,2.9,0.0,0.0,4.6,3.2,0.0,0.0,0.0,0.0,0.0,0.0,0.0,0.0,0.0,0.0,0.0,0.0,0.0,0.0,0.0,0.0,0.0,0.0,5.7,20.2
Vitória da Conquista,83344,Vitória da Conquista,Vitória da Conquista - 83344,-14.883333,-40.8,Sudoeste,RPGA do Rio Pardo,0.0,0.0,0.0,0.0,1.7,4.3,2.9,6.4,0.9,0.3,1.7,0.0,0.2,0.0,0.0,0.0,3.0,0.3,0.0,0.0,0.7,0.6,0.8,0.4,0.5,2.6,0.7,2.1,4.1,0.2,34.41
Jaguaquara,83295,Ituruçu,Ituruçu (Jaguaquara) - 83295,-13.527828,-40.119752,Sudoeste,RPGA do Recôncavo Sul,1.1,0.4,0.0,0.6,3.3,6.4,3.1,5.4,3.9,17.4,9.2,0.0,0.0,1.0,10.7,0.0,0.3,1.5,0.0,0.4,0.1,5.5,2.4,0.0,3.2,7.9,6.0,7.6,4.4,6.0,107.81
Brumado,A433,Brumado,Brumado - A433,-14.181886,-41.672281,Sudoeste,RPGA do Rio de Contas,0.0,0.0,0.0,0.0,0.0,0.2,0.0,1.2,0.0,17.8,0.6,0.0,0.0,0.0,0.0,0.0,0.0,0.0,0.0,0.0,0.0,0.0,1.4,0.0,0.0,0.0,0.0,0.0,0.2,2.0,23.4
Ipiaú,A445,Ipiaú,Ipiaú - A445,-14.171304,-39.692502,Sudoeste,RPGA do Rio de Contas,2.2,0.0,0.0,0.2,5.2,19.4,24.0,13.4,2.0,16.6,2.8,0.2,3.6,5.8,2.6,0.0,0.2,2.6,0.2,0.0,0.2,12.2,9.8,2.8,6.4,2.4,0.0,0.4,13.8,26.0,175.0
Anagé,CO-CL-01,Anagé,Anagé - CO-CL-01,-14.618055,-41.149722,Sudoeste,RPGA do Rio de Contas,0.0,0.0,0.0,0.0,0.5,0.0,0.0,0.0,0.0,4.0,3.0,0.0,0.0,0.0,0.0,0.0,0.0,0.0,0.0,0.0,0.0,0.0,0.0,0.0,1.0,0.0,0.0,0.0,0.25,0.25,9.0
Planaltino,PG-PR-03,Planaltino,Planaltino - PG-PR-03,-13.259292,-40.373976,Sudoeste,RPGA do Recôncavo Sul,0.0,0.25,0.0,0.0,0.0,0.25,0.75,1.0,0.25,1.5,1.75,0.0,0.0,3.25,8.75,0.0,0.0,0.0,0.0,0.0,0.0,1.25,0.5,0.0,0.25,0.0,0.0,0.0,0.0,2.25,22.0
Centro,293330701A,Vitória da Conquista,Vitória da Conquista (Centro) - 293330701A,-14.852,-40.839,Sudoeste,RPGA do Rio Pardo,0.0,0.0,0.0,0.0,0.6,2.2,1.4,2.0,0.0,0.2,0.0,0.0,0.0,0.0,0.0,0.0,1.4,0.0,0.0,0.0,0.4,0.0,0.0,1.0,0.0,1.2,0.2,1.2,2.0,0.2,14.0
Centro,291710201A,Itororó,Itororó (Centro) - 291710201A,-15.119,-40.065,Sudoeste,RPGA do Leste,0.0,0.0,0.0,0.0,7.9,3.2,15.8,0.2,0.2,2.8,14.2,0.0,0.0,0.8,0.2,0.0,4.9,1.0,0.0,0.0,0.0,0.0,2.0,3.0,10.6,5.2,0.2,1.0,14.7,0.2,88.11
Clerolândia,291640101A,Itapetinga,Itapetinga (Clerolândia) - 291640101A,-15.243,-40.221,Sudoeste,RPGA do Rio Pardo,0.8,0.2,0.0,0.0,1.8,8.9,0.8,3.4,0.2,1.2,2.2,0.2,0.0,0.0,0.0,0.0,0.8,0.0,0.0,0.0,1.2,0.2,0.4,5.3,0.6,1.0,0.2,0.4,9.8,0.6,40.2
Recreio,293330702A,Vitória da Conquista,Vitória da Conquista (Recreio) - 293330702A,-14.861,-40.841,Sudoeste,RPGA do Rio Pardo,0.0,0.0,0.0,0.0,0.6,2.6,1.6,3.6,0.4,0.0,0.0,0.0,0.0,0.0,0.0,0.0,2.0,0.0,0.2,0.0,0.4,0.2,0.4,0.4,0.2,0.4,0.0,0.6,2.2,0.0,15.8
Patagônia,293330704A,Vitória da Conquista,Vitória da Conquista (Patagônia) - 293330704A,-14.87,-40.863,Sudoeste,RPGA do Rio Pardo,0.0,0.0,0.0,0.0,0.4,2.8,1.6,3.6,0.6,0.0,0.0,0.0,0.0,0.0,0.0,0.0,3.8,0.0,0.0,0.0,0.0,0.2,0.2,0.0,0.0,0.0,0.0,0.4,1.0,0.0,14.6
Barcelar,293330705A,Vitória da Conquista,Vitória da Conquista (Barcelar) - 293330705A,-14.838,-40.856,Sudoeste,RPGA do Rio Pardo,0.0,0.0,0.0,0.0,0.8,2.0,2.4,2.2,0.2,1.2,0.2,0.0,0.0,0.0,0.0,0.0,1.2,0.4,0.0,0.0,0.4,0.0,0.4,0.8,0.2,1.0,0.4,1.2,2.0,0.2,17.2
Lomantão,293330703A,Vitória da Conquista,Vitória da Conquista (Lomantão) - 293330703A,-14.87,-40.827,Sudoeste,RPGA do Rio Pardo,0.0,0.0,0.0,0.0,0.6,3.2,1.8,4.2,0.4,0.0,0.0,0.0,0.0,0.0,0.0,0.0,3.0,0.0,0.0,0.0,0.4,0.2,0.8,0.6,0.0,1.2,0.6,1.2,2.4,0.0,20.6
Jaguaquara,RS-CL-01,Jaguaquara,Jaguaquara - RS-CL-01,-13.573055,-39.940833,Sudoeste,RPGA do Recôncavo Sul,1.75,1.5,0.0,1.5,2.5,11.5,4.75,7.25,2.0,7.75,1.5,0.0,0.0,0.5,1.75,0.0,0.0,1.25,0.0,0.0,0.0,8.25,4.75,0.5,4.0,3.0,3.5,6.5,2.75,7.25,86.0
Jequié,CO-CL-03,Jequié,Jequié - CO-CL-03,-13.873055,-40.071944,Sudoeste,RPGA do Rio de Contas,0.0,0.0,0.0,0.0,2.75,2.5,4.5,0.5,0.25,2.75,1.0,0.0,0.0,0.5,1.25,0.0,0.0,3.25,0.0,0.0,0.0,4.25,2.75,0.0,1.0,0.5,0.0,0.0,2.25,10.25,40.25
Vitória da Conquista,PA-CL-01,Vitória da Conquista,Vitória da Conquista - PA-CL-01,-14.886111,-40.800833,Sudoeste,RPGA do Rio Pardo,0.0,0.0,0.0,0.0,1.0,3.5,2.0,6.25,0.5,0.0,1.5,0.0,0.0,0.0,0.0,0.0,2.5,0.0,0.0,0.0,0.0,0.25,0.25,0.5,0.0,2.25,0.25,1.25,3.25,0.25,25.5
Tremedal,CO-PR-03,Tremedal,Tremedal - CO-PR-03,-14.980998,-41.410135,Sudoeste,RPGA do Rio de Contas,0.0,0.0,0.0,0.0,0.0,0.5,0.0,0.0,0.0,2.25,0.0,0.0,0.0,0.0,0.0,0.0,0.75,0.0,0.0,0.0,0.0,0.0,0.0,0.0,1.0,0.0,0.0,0.0,0.5,0.25,5.25
Caravelas,A405,Caravelas,Caravelas - A405,-17.739413,-39.258617,Sul,"RPGA dos Rios Peruípe, Itanhém e Jucuruçu",0.6,0.2,0.6,8.2,4.4,0.0,0.0,1.2,4.0,3.4,0.2,0.2,0.2,0.0,0.2,0.0,25.0,0.2,0.2,19.0,99.6,0.8,0.2,2.8,13.6,8.8,5.2,1.4,7.2,2.2,209.6
Ilhéus,A410,Ilhéus,Ilhéus - A410,-14.658803,-39.181438,Sul,RPGA do Leste,3.2,7.2,1.4,5.4,3.8,70.6,55.4,10.2,17.8,19.6,16.8,0.6,1.0,1.4,12.8,0.0,0.6,12.4,0.4,0.6,0.0,22.4,0.8,4.2,8.8,3.4,9.6,5.4,123.4,46.2,465.41
Canavieiras,83398,Canavieiras,Canavieiras - 83398,-15.666667,-38.95,Sul,RPGA do Rio Pardo,0.5,0.0,0.0,2.7,19.8,55.8,31.7,4.4,6.1,7.2,1.0,0.0,0.0,0.0,0.0,0.0,0.0,0.0,0.0,0.0,0.0,0.0,8.6,8.3,19.8,30.3,31.1,53.8,130.9,3.1,415.1
Guaratinga,83446,Guaratinga,Guaratinga - 83446,-16.58,-39.78,Sul,"RPGA dos Rios dos Frades, Buranhém e Santo Antônio",6.8,0.0,1.0,0.0,0.6,7.0,7.4,5.2,2.2,2.7,5.6,0.0,0.0,0.2,0.0,0.0,17.5,6.4,0.0,0.0,5.8,0.0,6.6,7.4,1.0,0.2,0.0,0.0,11.2,5.6,100.4
Una,A437,Una,Una - A437,-15.280215,-39.09127,Sul,RPGA do Leste,0.8,0.2,0.0,1.6,4.0,32.6,74.2,2.8,4.6,3.6,8.4,0.2,0.6,3.2,0.0,0.2,1.8,9.4,0.2,0.0,0.8,3.0,6.0,1.4,18.4,40.0,27.6,22.0,66.4,9.2,343.2
Porto Seguro,A427,Porto Seguro,Porto Seguro - A427,-16.388977,-39.182389,Sul,"RPGA dos Rios dos Frades, Buranhém e Santo Antônio",0.6,0.0,0.2,2.2,34.2,20.0,11.4,1.4,10.8,6.8,5.2,0.0,0.2,0.0,0.0,0.0,8.2,0.8,0.0,0.0,2.2,0.0,18.8,16.0,4.6,16.2,2.0,19.8,46.0,5.8,233.4
Abrolhos,A422,Caravelas,Caravelas (Abrolhos) - A422,-17.79052,-39.22789,Sul,"RPGA dos Rios Peruípe, Itanhém e Jucuruçu",0.0,0.0,0.0,4.0,0.0,0.8,0.0,0.0,10.2,1.0,0.0,0.0,0.0,0.0,0.0,0.0,28.2,0.2,0.0,0.0,60.2,0.0,0.0,0.4,0.8,0.6,3.6,3.2,0.2,0.0,113.4
Belmonte,A447,Belmonte,Belmonte - A447,-16.08487,-39.21726,Sul,"RPGA dos Rios dos Frades, Buranhém e Santo Antônio",0.0,0.0,0.2,0.4,7.0,12.0,3.8,2.0,3.8,2.0,4.4,0.0,0.2,8.6,0.0,0.2,5.2,1.2,0.0,0.0,1.2,0.0,7.8,8.0,7.4,11.0,0.4,0.4,67.2,1.8,156.21
CPLAC,LE-CL-01,Ilhéus,Ilhéus (CPLAC) - LE-CL-01,-14.80184,-39.181444,Sul,RPGA do Leste,1.25,3.0,0.0,3.5,2.25,36.5,59.75,0.75,10.25,24.0,30.5,0.0,0.0,3.0,1.0,0.0,3.0,13.25,0.0,0.0,0.0,14.0,2.5,11.75,14.0,18.25,4.0,8.0,45.5,49.25,359.25
Centro,290560201A,Camacan,Camacan (Centro) - 290560201A,-15.422225,-39.494984,Sul,RPGA do Rio Pardo,1.0,1.4,0.0,2.4,15.6,24.2,40.8,2.0,5.7,5.6,8.7,0.0,0.0,0.6,0.0,0.0,10.3,0.4,0.0,0.0,0.4,0.6,1.2,7.5,20.5,5.5,4.4,16.2,47.2,4.7,226.9
Teixeira de Freitas,PJ-CL-01,Teixeira de Freitas,Teixeira de Freitas - PJ-CL-01,-17.575555,-39.732777,Sul,"RPGA dos Rios Peruípe, Itanhém e Jucuruçu",0.0,0.0,0.0,5.0,3.75,2.0,0.0,0.0,0.0,2.25,1.5,0.0,0.25,0.0,0.0,0.0,20.0,2.75,0.0,1.5,71.0,0.75,0.0,3.5,1.5,1.0,0.0,0.75,4.25,0.5,122.25
Itabuna,Fazenda Barra,Itabuna,Itabuna - Fazenda Barra,-14.8997,-39.3686,Sul,RPGA do Leste,1.0,1.0,0.2,0.0,4.6,21.2,32.2,3.6,5.8,3.4,11.8,0.2,0.0,0.0,3.4,0.2,1.4,4.8,0.0,1.4,0.0,0.8,8.6,1.6,10.8,5.0,2.8,4.0,34.6,12.0,176.4
Centro,290340901A,Belmonte,Belmonte (Centro) - 290340901A,-15.859179,-38.878025,Sul,RPGA do Rio Jequitinhonha,1.6,0.4,0.0,10.9,24.2,10.6,2.4,15.3,6.9,3.6,0.2,0.0,0.0,0.0,0.0,0.0,1.2,1.4,0.0,0.0,1.6,1.6,5.7,11.6,19.5,27.2,43.2,73.5,39.5,0.6,302.71
Centro,290560203A,Camacan,Camacan (Centro) - 290560203A,-15.416389,-39.493873,Sul,RPGA do Rio Pardo,1.0,0.0,0.0,2.9,11.5,22.3,35.2,4.0,5.3,11.8,13.4,0.0,0.0,0.6,0.0,0.0,14.4,0.8,0.0,0.0,0.2,0.2,0.8,6.5,16.0,5.4,4.2,16.8,45.0,5.0,223.3
Conquista,291360601A,Ilhéus,Ilhéus (Conquista) - 291360601A,-14.797213,-39.04608,Sul,RPGA do Leste,0.2,2.0,9.7,7.1,3.4,61.3,39.8,7.7,23.3,55.2,41.2,0.2,1.2,1.0,11.2,0.2,0.0,9.5,0.6,0.0,0.0,40.8,0.2,0.2,38.3,8.0,12.1,6.8,80.3,80.2,541.7
Malhado,291360602A,Ilhéus,Ilhéus (Malhado) - 291360602A,-14.789158,-39.048858,Sul,RPGA do Leste,2.4,2.2,9.5,7.3,4.3,45.2,43.0,7.9,22.5,48.9,35.8,0.2,1.2,3.6,7.7,0.0,0.0,8.9,0.0,0.0,0.0,43.1,1.2,0.2,31.3,8.6,12.1,5.9,61.8,65.9,480.71
Planalto I,292110401A,Medeiros Neto,Medeiros Neto (Planalto I) - 292110401A,-17.365,-40.223,Sul,"RPGA dos Rios Peruípe, Itanhém e Jucuruçu",0.0,0.0,2.0,5.9,3.6,1.0,0.6,0.2,3.2,0.0,0.2,0.2,0.0,0.0,0.0,0.0,1.2,1.2,0.0,0.0,17.6,0.6,0.8,3.2,0.2,0.0,0.2,1.0,0.8,3.4,47.1
Posto da Mata,292300103A,Nova Viçosa,Nova Viçosa (Posto da Mata) - 292300103A,-17.896,-39.37,Sul,"RPGA dos Rios Peruípe, Itanhém e Jucuruçu",0.0,1.8,0.4,19.7,16.9,1.0,0.0,0.0,1.2,1.2,1.0,0.0,0.0,0.0,0.0,0.0,13.6,0.0,0.0,7.9,36.7,0.2,0.8,1.0,0.4,0.2,0.2,0.0,0.0,0.6,104.81
Areião,292530301A,Porto Seguro,Porto Seguro (Areião) - 292530301A,-16.441,-39.076,Sul,"RPGA dos Rios dos Frades, Buranhém e Santo Antônio",0.0,0.8,0.2,1.4,49.2,12.3,1.0,3.0,15.6,12.4,0.2,0.0,0.0,0.0,0.0,0.0,20.7,0.4,0.2,0.0,2.0,1.6,7.7,6.5,8.3,12.8,7.1,35.3,51.6,5.7,256.01
Paraguai,292530302A,Porto Seguro,Porto Seguro (Paraguai) - 292530302A,-16.41,-39.08,Sul,"RPGA dos Rios dos Frades, Buranhém e Santo Antônio",1.8,0.0,0.0,1.8,17.4,6.1,3.9,5.6,5.3,17.3,0.4,0.2,0.0,0.0,0.0,0.0,12.5,0.8,0.2,0.2,0.8,0.4,15.4,6.3,12.2,16.7,4.9,41.7,63.8,3.2,238.91
Trancoso,292530303A,Porto Seguro,Porto Seguro (Trancoso) - 292530303A,-16.595,-39.109,Sul,"RPGA dos Rios dos Frades, Buranhém e Santo Antônio",0.0,0.0,0.0,1.8,39.4,14.8,1.0,1.2,13.8,5.0,6.9,0.2,0.0,0.0,0.0,0.0,29.2,4.2,0.0,0.0,2.2,0.0,25.0,13.9,5.9,16.1,4.8,30.2,38.6,12.4,266.6
BR367km4,292770501A,Santa Cruz Cabrália,Santa Cruz Cabrália (BR367km4) - 292770501A,-16.321,-39.023,Sul,"RPGA dos Rios dos Frades, Buranhém e Santo Antônio",0.0,0.0,0.0,22.0,14.6,23.5,0.2,4.4,18.7,15.1,3.6,0.0,0.0,0.0,0.0,0.0,12.0,0.0,0.2,0.0,5.3,0.0,12.6,8.3,17.2,17.6,5.6,39.7,78.3,12.1,311.0
Estádio Municipal,291530401A,Itagimirim,Itagimirim (Estádio Municipal) - 291530401A,-16.089181,-39.615546,Sul,RPGA do Rio Jequitinhonha,0.0,0.0,0.2,0.8,8.9,10.7,0.8,2.4,0.2,1.6,4.2,0.2,0.0,0.0,0.0,0.0,13.8,1.4,0.2,0.0,1.0,0.2,4.8,4.9,0.0,3.4,0.0,2.0,11.3,1.8,74.8
Santa Rita de Cássia,A415,Santa Rita de Cássia,Santa Rita de Cássia - A415,-11.002768,-44.524965,São Francisco,RPGA do Rio Grande,0.0,0.0,0.0,0.0,0.0,0.0,0.0,0.0,0.0,0.0,0.0,0.0,0.0,0.0,0.0,0.0,0.0,0.0,0.0,0.0,0.0,0.0,0.0,0.0,0.0,0.0,0.0,0.0,0.0,0.0,0.0
Bom Jesus da Lapa,A418,Bom Jesus da Lapa,Bom Jesus da Lapa - A418,-13.251094,-43.405365,São Francisco,RPGA do Rio Carnaíba de Dentro,0.0,0.0,0.0,0.0,0.0,0.0,0.0,0.0,0.0,0.0,0.0,0.0,0.0,0.0,0.0,0.0,0.0,0.0,0.0,0.0,0.0,0.0,0.0,0.0,0.0,0.0,0.0,0.0,0.0,0.0,0.0
Barra,83179,Barra,Barra - 83179,-11.083333,-43.166667,São Francisco,RPGA do Rio Grande,0.0,0.0,0.0,0.0,0.0,0.0,0.0,0.0,0.0,0.0,0.0,0.0,0.0,0.0,0.0,0.0,0.0,0.0,0.0,0.0,0.0,0.0,0.0,0.0,0.0,0.0,0.0,0.0,0.0,0.0,0.0
Bom Jesus da Lapa,83288,Bom Jesus da Lapa,Bom Jesus da Lapa - 83288,-13.251389,-43.405278,São Francisco,RPGA do Rio Carnaíba de Dentro,0.0,0.0,0.0,0.0,0.0,0.0,0.0,0.0,0.0,0.0,0.0,0.0,0.0,0.0,0.0,0.0,0.0,0.0,0.0,0.0,0.0,0.0,0.0,0.0,0.0,0.0,0.0,0.0,0.0,0.0,0.0
Caetité,83339,Caetité,Caetité - 83339,-14.066667,-42.483333,São Francisco,RPGA do Rio de Contas,0.0,0.0,0.0,0.0,0.0,0.0,0.0,1.0,0.0,1.6,0.0,0.0,0.0,0.0,0.0,0.0,0.0,0.0,0.0,0.0,0.0,0.0,0.0,0.0,0.0,0.0,0.0,0.0,0.4,0.6,3.6
Carinhanha,83408,Carinhanha,Carinhanha - 83408,-14.283333,-43.766667,São Francisco,"RPGA do Rio Corrente e Riachos do Ramalho, Serra Dourada e Brejo Velho",0.0,0.0,0.0,0.0,0.0,0.0,0.0,0.0,0.0,0.0,0.0,0.0,0.0,0.0,0.0,0.0,0.0,0.1,0.0,0.0,0.0,0.0,0.0,0.0,0.0,0.0,0.0,0.0,0.0,0.0,0.1
Santa Rita de Cássia,83076,Santa Rita de Cássia,Santa Rita de Cássia - 83076,-11.016667,-44.516667,São Francisco,RPGA do Rio Grande,0.0,0.0,0.0,0.0,0.0,0.0,0.0,0.0,0.0,0.0,0.0,0.0,0.0,0.0,0.0,0.0,0.0,0.0,0.0,0.0,0.0,0.0,0.0,0.0,0.0,0.0,0.0,0.0,0.0,0.0,0.0
Guanambí,A426,Guanambí,Guanambí - A426,-14.208123,-42.749647,São Francisco,RPGA do Rio Carnaíba de Dentro,0.0,0.0,0.0,0.0,0.0,0.0,0.0,0.0,0.0,0.0,0.0,0.0,0.0,0.0,0.0,0.0,0.0,0.0,0.0,0.0,0.0,0.0,0.0,0.0,0.0,0.0,0.0,0.0,0.0,0.0,0.0
Buritirama,A432,Buritirama,Buritirama - A432,-10.722925,-43.651203,São Francisco,RPGA do Rio Grande,0.0,0.0,0.0,0.0,0.0,0.0,0.0,0.0,0.0,0.0,0.0,0.0,0.0,0.0,0.0,0.0,0.0,0.0,0.0,0.0,0.0,0.0,0.0,0.0,0.0,0.0,0.0,0.0,0.0,0.0,0.0
Barra,A429,Barra,Barra - A429,-11.084858,-43.138998,São Francisco,RPGA do Rio Grande,0.0,0.0,0.0,0.0,0.0,0.0,0.0,0.0,0.0,0.0,0.0,0.0,0.0,0.0,0.0,0.0,0.0,0.0,0.0,0.0,0.0,0.0,0.0,0.0,0.0,0.0,0.0,0.0,0.0,0.0,0.0
Ibotirama,A439,Ibotirama,Ibotirama - A439,-12.19306,-43.21342,São Francisco,RPGA dos Rios Paramirim e Santo Onofre,0.0,0.0,0.0,0.0,0.0,0.0,0.0,0.0,0.0,0.0,0.0,0.0,0.0,0.0,0.0,0.0,0.0,0.0,0.0,0.0,0.0,0.0,0.0,0.0,0.0,0.0,0.0,0.0,0.0,0.0,0.0
Gentio do Ouro,,Gentio do Ouro,Gentio do Ouro,-11.42951,-42.513484,São Francisco,RPGA dos Rios Verde e Jacaré,0.0,0.0,0.0,0.0,0.0,0.0,0.2,0.8,0.0,0.4,0.8,0.0,0.0,0.0,0.0,0.0,0.0,0.0,0.0,0.0,0.0,0.2,0.0,0.0,0.0,0.2,0.0,0.0,0.0,0.0,2.61
Faz. Macambira,46675000,Cotegipe,Cotegipe (Faz. Macambira) - 46675000,-11.6106,-44.1567,São Francisco,RPGA do Rio Grande,0.0,0.0,0.0,0.0,0.0,0.0,0.0,0.0,0.0,0.0,0.0,0.0,0.0,0.0,0.0,0.0,0.0,0.0,0.0,0.0,0.0,0.0,0.0,0.0,0.0,0.0,0.0,0.0,0.0,0.0,0.0
Fz.P. Limpo,46870000,Mansidão,Mansidão (Fz.P. Limpo) - 46870000,-11.236845,-43.950633,São Francisco,RPGA do Rio Grande,0.0,0.0,0.0,0.0,0.0,0.0,0.0,0.0,0.0,0.0,0.0,0.0,0.0,0.0,0.0,0.0,0.0,0.0,0.0,0.0,0.0,0.0,0.0,0.0,0.0,0.0,0.0,0.0,0.0,0.0,0.0
Fazenda Caraíbas,,Fazenda Caraíbas,Fazenda Caraíbas,-12.571486,-42.074028,São Francisco,RPGA dos Rios Paramirim e Santo Onofre,0.0,0.0,0.0,0.0,0.0,0.0,1.2,2.0,0.0,0.0,3.6,0.0,0.0,0.0,0.0,0.0,0.4,0.0,0.0,0.0,0.0,2.0,2.2,0.0,0.0,0.0,0.0,0.0,0.0,0.0,11.41
Santa Rita C-Ibipetu-ANA_INEMA,,Santa Rita C-Ibipetu-ANA_INEMA,Santa Rita C-Ibipetu-ANA_INEMA,-11.007115,-44.525369,São Francisco,RPGA do Rio Grande,0.0,0.0,0.0,0.0,0.0,0.0,0.0,0.0,0.0,0.0,0.0,0.0,0.0,0.0,0.0,0.0,0.0,0.0,0.0,0.0,0.0,0.0,0.0,0.0,0.0,0.0,0.0,0.0,0.0,0.0,0.0
