nome_estacao,codigo,municipio,estacao,latitude,longitude,regiao,rpga,01_03_15,02_03_15,03_03_15,04_03_15,05_03_15,06_03_15,07_03_15,08_03_15,09_03_15,10_03_15,11_03_15,12_03_15,13_03_15,14_03_15,15_03_15,16_03_15,17_03_15,18_03_15,19_03_15,20_03_15,21_03_15,22_03_15,23_03_15,24_03_15,25_03_15,26_03_15,27_03_15,28_03_15,29_03_15,30_03_15,31_03_15,total
Itaberaba,A408,Itaberaba,Itaberaba - A408,-12.524062,-40.299714,Chapada Diamantina,RPGA do Rio Paraguaçu,0.0,0.0,0.2,3.2,0.0,0.4,0.0,0.2,0.0,0.0,0.0,0.0,0.0,1.0,0.0,0.0,0.0,0.0,0.0,0.0,0.0,0.0,0.0,0.0,0.0,0.0,0.0,0.0,0.2,0.2,0.0,5.4
Macajuba,A412,Macajuba,Macajuba - A412,-12.131694,-40.354222,Chapada Diamantina,RPGA do Rio Paraguaçu,0.0,0.0,1.8,2.4,0.0,0.2,0.0,0.0,0.0,0.0,0.0,0.0,0.0,0.0,0.0,0.0,0.0,0.0,0.0,0.0,0.0,0.0,0.0,0.0,0.0,0.0,0.0,0.0,0.0,0.0,0.0,4.4
Itaberaba,83244,Itaberaba,Itaberaba - 83244,-12.516667,-40.283333,Chapada Diamantina,RPGA do Rio Paraguaçu,0.0,0.0,0.2,3.0,0.0,0.3,0.0,0.0,0.0,0.0,0.0,0.0,0.0,1.0,0.0,0.0,0.0,0.0,0.0,0.0,0.0,0.0,0.0,0.0,0.0,0.0,0.0,0.0,0.2,0.0,0.0,4.7
Lençóis,83242,Lençóis,Lençóis - 83242,-12.5575,-41.388889,Chapada Diamantina,RPGA do Rio Paraguaçu,0.0,0.0,1.2,7.5,0.0,0.0,0.2,0.0,0.0,0.0,0.8,0.0,0.0,0.0,0.0,0.0,1.7,0.0,0.0,0.2,0.0,1.2,42.0,0.0,0.0,52.5,0.0,0.0,0.0,0.0,0.0,107.3
Morro do Chapéu,83184,Morro do Chapéu,Morro do Chapéu - 83184,-11.216667,-41.216667,Chapada Diamantina,RPGA do Rio Salitre,5.4,0.0,0.0,0.0,0.0,0.0,0.0,0.0,0.0,0.0,0.0,0.0,0.0,0.0,0.0,0.0,0.0,0.0,0.0,0.0,0.0,2.3,0.0,0.0,0.0,0.0,0.0,0.0,0.0,0.0,0.0,7.7
Piatã,A430,Piatã,Piatã - A430,-13.155681,-41.774125,Chapada Diamantina,RPGA do Rio de Contas,5.0,0.0,3.0,4.2,0.0,0.0,0.0,0.6,0.0,0.0,0.0,0.0,0.0,0.0,0.0,0.0,0.0,0.0,0.0,0.0,0.0,3.0,5.0,0.0,0.0,0.0,0.6,0.0,0.0,0.0,0.0,21.4
Lençóis,A425,Lençóis,Lençóis - A425,-12.557854,-41.388808,Chapada Diamantina,RPGA do Rio Paraguaçu,0.0,0.0,1.6,7.8,0.0,0.0,0.2,0.0,0.0,0.0,1.0,0.0,0.0,0.0,0.0,0.0,1.8,0.0,0.0,0.2,0.0,1.2,37.8,0.0,0.0,50.0,0.0,0.0,0.0,0.0,0.0,101.6
Itaetê,,Itaetê,Itaetê,-12.991944,-40.960833,Chapada Diamantina,RPGA do Rio Paraguaçu,4.2,5.6,0.2,3.8,0.0,0.0,1.4,0.0,0.0,0.0,0.0,0.0,0.0,0.0,0.0,0.0,0.0,0.0,0.0,0.0,0.0,0.0,2.0,0.2,0.0,0.0,0.0,0.0,0.0,0.0,0.0,17.41
Lagoa Bonita,PG-PR-15,Iacú,Iacú (Lagoa Bonita) - PG-PR-15,-12.931506,-40.226468,Chapada Diamantina,RPGA do Rio Paraguaçu,0.0,0.0,0.5,3.25,0.5,0.0,0.0,0.0,0.0,0.0,0.0,0.0,0.0,0.0,0.0,0.0,0.0,0.0,3.5,0.0,0.0,0.0,0.0,0.0,0.0,0.0,0.0,0.0,0.0,0.0,0.0,7.75
João Amaro,PG-PR-16,Iaçu,Iaçu (João Amaro) - PG-PR-16,-12.800391,-40.363139,Chapada Diamantina,RPGA do Rio Paraguaçu,0.0,0.0,0.25,0.5,0.0,1.75,0.0,0.0,0.0,0.0,0.0,0.0,0.0,0.0,0.0,0.0,0.0,0.0,0.0,0.0,0.0,0.0,0.0,0.0,0.0,0.0,0.0,0.25,0.0,0.0,0.0,2.75
Boa Vista Tupim,PG-PR-17,Boa Vista Tupim,Boa Vista Tupim - PG-PR-17,-12.65622,-40.589813,Chapada Diamantina,RPGA do Rio Paraguaçu,0.0,0.0,0.0,11.0,0.0,0.0,3.5,4.0,0.0,0.0,0.0,0.0,0.0,0.0,0.0,0.0,0.0,0.0,0.5,0.0,0.0,0.25,0.25,0.0,0.0,0.0,0.0,0.0,0.0,0.0,0.0,19.5
Ruy Barbosa,PG-PR-18,Ruy Barbosa,Ruy Barbosa - PG-PR-18,-12.285653,-40.513698,Chapada Diamantina,RPGA do Rio Paraguaçu,0.0,0.0,0.0,7.5,0.0,0.0,0.0,0.0,0.0,0.0,0.0,0.0,0.0,0.0,0.0,0.0,0.0,0.0,0.0,0.0,0.0,0.25,0.25,0.0,0.25,0.0,0.0,0.0,0.0,0.0,0.0,8.25
Wagner,PG-PR-22,Wagner,Wagner - PG-PR-22,-12.289538,-41.161774,Chapada Diamantina,RPGA do Rio Paraguaçu,0.75,0.25,0.25,0.25,0.0,0.0,0.0,0.25,0.0,0.0,0.0,0.0,0.0,0.0,0.0,0.5,0.0,0.0,0.0,0.0,0.0,0.0,5.0,0.0,0.0,2.75,0.0,0.5,0.0,0.0,0.0,10.5
Utinga,PG-PR-23,Utinga,Utinga - PG-PR-23,-12.030089,-41.058714,Chapada Diamantina,RPGA do Rio Paraguaçu,0.0,0.0,0.0,1.0,0.0,0.0,0.0,0.0,0.0,0.0,0.0,0.0,0.0,0.0,0.0,0.0,0.0,0.0,0.0,0.0,0.0,0.0,1.25,0.25,0.0,0.0,0.0,0.0,0.0,0.0,0.0,2.5
Guiné,PG-PR-24,Mucugê,Mucugê (Guiné) - PG-PR-24,-12.771772,-41.540679,Chapada Diamantina,RPGA do Rio Paraguaçu,0.75,1.75,0.0,0.25,0.0,0.0,18.75,0.0,0.0,0.0,0.0,0.0,0.0,0.0,0.0,0.0,0.0,0.0,0.0,0.0,0.0,20.25,23.75,0.0,0.0,24.75,7.25,0.0,0.0,0.0,0.0,97.5
Cascavel,PG-PR-27,Mucugê,Mucugê (Cascavel) - PG-PR-27,-13.285954,-41.287619,Chapada Diamantina,RPGA do Rio Paraguaçu,1.5,0.0,0.25,4.5,0.0,0.0,0.0,0.0,0.0,0.0,0.0,0.0,0.0,0.0,0.0,0.0,0.0,0.0,0.0,0.0,0.0,17.5,14.5,0.0,0.0,0.0,0.0,0.25,0.25,0.0,0.0,38.75
Mulungu do Morro,,Mulungu do Morro,Mulungu do Morro,-11.980363,-41.619012,Chapada Diamantina,RPGA do Rio Paraguaçu,1.6,0.0,0.0,0.0,0.0,0.0,0.0,0.0,0.0,0.0,0.0,0.0,0.0,0.0,0.0,0.0,0.0,0.0,0.0,0.0,0.0,0.0,0.4,0.2,0.0,0.0,0.0,0.0,0.0,0.0,0.0,2.2
Barro Alto,,Barro Alto,Barro Alto,-11.769188,-41.909464,Chapada Diamantina,RPGA dos Rios Verde e Jacaré,0.8,0.2,0.0,0.0,0.0,0.0,0.0,0.0,0.0,0.0,0.0,0.0,0.0,0.0,0.0,0.0,0.0,0.0,0.0,0.0,0.0,0.0,5.8,0.0,0.0,0.0,0.0,0.0,0.0,0.0,0.0,6.8
Canarana,,Canarana,Canarana,-11.69541,-41.78921,Chapada Diamantina,RPGA dos Rios Verde e Jacaré,0.0,0.0,0.0,0.0,0.0,0.0,0.0,0.0,0.0,0.0,0.0,0.0,0.0,0.0,0.0,0.0,0.0,0.0,0.8,4.4,0.0,0.4,5.0,0.0,0.0,0.0,0.0,0.0,0.0,0.0,0.0,10.61
Barra dos Mendes,,Barra dos Mendes,Barra dos Mendes,-11.805077,-42.05708,Chapada Diamantina,RPGA dos Rios Verde e Jacaré,12.0,0.2,0.0,0.0,0.0,0.0,0.0,0.0,0.0,0.0,0.0,0.0,0.0,0.0,0.0,0.0,0.0,0.0,0.0,0.0,0.0,1.2,20.0,0.0,0.2,0.0,0.0,0.0,0.0,0.0,0.0,33.6
Olho D'Água do Francisco,,Olho D'Água do Francisco,Olho D'Água do Francisco,-12.307034,-42.079028,Chapada Diamantina,RPGA dos Rios Verde e Jacaré,0.0,0.0,0.0,0.0,0.0,0.0,0.0,0.0,0.0,0.0,0.0,0.0,0.0,0.0,0.0,0.0,0.0,0.0,0.0,0.0,0.0,15.0,0.4,0.2,0.0,0.0,0.0,0.0,0.0,0.0,0.0,15.6
Cafarnaum,,Cafarnaum,Cafarnaum,-11.676688,-41.470143,Chapada Diamantina,RPGA dos Rios Verde e Jacaré,14.6,0.2,0.0,2.2,0.0,0.0,0.0,0.0,0.0,0.0,0.0,0.0,0.0,0.0,0.0,0.0,0.0,0.0,0.0,0.0,0.0,0.4,0.0,0.0,0.0,0.0,0.0,0.0,0.0,0.0,0.0,17.4
Ibiaporã,PG-CL-01,Mundo Novo,Mundo Novo (Ibiaporã) - PG-CL-01,-12.05379,-40.83722,Chapada Diamantina,RPGA do Rio Paraguaçu,0.0,0.0,0.0,8.5,0.0,0.0,2.25,0.0,0.0,0.0,0.0,0.0,0.0,0.0,0.0,0.0,0.0,0.0,0.0,0.0,0.0,0.0,21.25,0.0,0.25,0.0,0.0,0.0,0.0,0.0,0.0,32.25
Marcionílio Souza,PG-CL-03,Marcionílio Souza,Marcionílio Souza - PG-CL-03,-13.00021,-40.537783,Chapada Diamantina,RPGA do Rio Paraguaçu,0.0,0.0,0.0,7.5,0.0,0.0,1.75,0.0,0.0,0.0,0.0,0.0,0.0,0.0,0.0,0.0,0.0,0.0,0.0,0.0,0.0,0.0,5.0,0.0,0.0,1.25,0.0,0.25,0.0,0.0,0.0,15.75
Iraquara,PG-PR-02,Iraquara,Iraquara - PG-PR-02,-12.255093,-41.61679,Chapada Diamantina,RPGA do Rio Paraguaçu,1.25,4.75,1.25,0.75,0.0,0.0,0.0,0.0,0.0,0.0,0.0,0.0,0.0,0.0,0.0,0.0,0.0,0.0,0.0,0.0,0.0,0.0,6.0,0.0,0.0,0.0,0.25,0.0,0.0,0.0,0.0,14.25
Ventura,PG-PR-10,Morro do Chapéu,Morro do Chapéu (Ventura) - PG-PR-10,-11.650911,-40.951765,Chapada Diamantina,RPGA do Rio Paraguaçu,0.0,0.0,0.0,0.5,0.0,0.0,0.5,0.0,0.0,0.0,0.0,0.0,0.0,0.0,0.0,0.0,0.0,0.0,0.0,0.0,0.0,0.0,0.75,0.0,0.0,0.0,0.0,0.0,0.0,0.0,0.0,1.75
Bonito,PG-PR-11,Bonito,Bonito - PG-PR-11,-11.98993,-41.25429,Chapada Diamantina,RPGA do Rio Paraguaçu,12.25,0.0,0.0,3.5,0.0,0.0,0.0,0.25,0.0,0.0,0.0,0.0,0.0,0.0,0.0,0.0,0.0,0.0,0.0,0.0,0.0,0.0,2.5,0.0,0.0,0.0,0.0,0.75,0.0,0.0,0.0,19.25
Piatã,CO-CL-04,Piatã,Piatã - CO-CL-04,-13.164166,-41.770833,Chapada Diamantina,RPGA do Rio de Contas,5.0,0.25,1.0,1.5,0.0,0.0,0.0,0.0,0.0,0.0,0.0,0.0,0.0,0.0,0.0,0.0,0.0,0.0,0.5,0.0,0.0,4.75,6.0,0.0,0.0,0.0,0.0,0.0,0.0,0.0,0.0,19.0
Coronel João Sá,EBDA,Coronel João Sá,Coronel João Sá - EBDA,-10.284624,-37.917698,Nordeste,RPGA do Rio Vaza-Barris,0.0,0.0,0.0,0.0,0.0,2.7,0.0,0.0,0.0,0.0,0.0,0.0,0.0,0.0,0.0,0.0,0.0,0.0,0.0,0.0,0.0,0.0,0.0,0.0,0.0,0.0,0.0,0.0,0.0,0.0,0.0,2.7
Paulo Afonso,A411,Paulo Afonso,Paulo Afonso - A411,-9.379325,-38.227424,Nordeste,RPGA dos Rios Macururé e Curaçá,0.0,0.0,0.0,0.0,0.0,12.4,0.0,0.0,0.0,0.0,0.0,0.0,0.0,0.0,0.0,0.0,0.0,0.0,0.0,0.0,0.0,1.2,0.0,0.0,0.0,0.0,0.0,0.0,0.0,0.0,0.0,13.6
Cipó,83192,Cipó,Cipó - 83192,-11.083333,-38.516667,Nordeste,RPGA do Rio Itapicuru,0.0,0.0,0.0,0.0,0.0,5.0,0.6,0.0,0.0,1.2,0.0,0.0,0.0,0.0,0.0,0.0,0.0,0.0,0.6,0.0,0.0,0.0,0.0,0.0,0.0,0.0,1.1,0.1,0.0,0.0,0.0,8.6
Jacobina,83186,Jacobina,Jacobina - 83186,-11.172778,-40.534167,Nordeste,RPGA do Rio Itapicuru,0.0,8.0,1.8,0.0,0.0,1.0,0.0,0.0,0.0,0.0,0.0,0.0,0.0,0.0,0.0,0.0,0.0,0.0,41.5,0.0,0.0,0.0,3.6,0.0,0.0,0.0,0.0,0.0,0.0,0.0,0.0,55.9
Monte Santo,83090,Monte Santo,Monte Santo - 83090,-10.4425,-39.331111,Nordeste,RPGA do Rio Itapicuru,0.0,1.1,0.0,0.0,0.0,0.0,0.0,0.0,0.0,0.0,0.0,0.0,0.0,0.0,0.0,0.0,0.0,0.0,0.0,0.0,0.0,0.0,0.0,0.0,0.0,0.0,0.0,0.0,0.0,0.0,0.0,1.1
Paulo Afonso,82986,Paulo Afonso,Paulo Afonso - 82986,-9.379325,-38.227424,Nordeste,RPGA dos Rios Macururé e Curaçá,0.0,0.0,0.0,0.0,0.0,11.4,0.0,0.0,0.0,0.0,0.0,0.0,0.0,0.0,0.0,0.0,0.0,0.0,0.0,0.0,0.0,1.1,0.0,0.0,0.0,0.0,0.0,0.0,0.0,0.0,0.0,12.5
Serrinha,83190,Serrinha,Serrinha - 83190,-11.633333,-38.966667,Nordeste,RPGA do Recôncavo Norte,0.0,0.0,0.0,0.0,0.0,5.4,2.1,0.0,0.0,0.4,0.0,0.0,0.0,1.4,0.4,0.0,0.0,0.4,0.0,0.0,0.0,0.0,0.0,0.0,7.1,0.0,0.1,0.0,0.0,0.0,0.0,17.31
Conde,A431,Conde,Conde - A431,-12.03622,-37.68322,Nordeste,RPGA do Rio Itapicuru,0.0,0.0,2.4,0.8,0.0,0.8,0.8,1.2,0.0,0.8,0.0,0.0,0.0,3.4,0.0,0.0,0.0,2.0,0.0,0.0,3.2,3.4,0.0,0.0,0.0,2.6,0.0,2.0,0.0,0.2,0.0,23.6
Uauá,A435,Uauá,Uauá - A435,-9.833617,-39.495631,Nordeste,RPGA do Rio Vaza-Barris,0.0,0.0,0.0,0.0,0.0,0.0,0.0,0.0,0.0,0.0,0.0,0.0,0.0,0.0,0.0,0.0,0.0,0.0,0.2,0.0,0.0,43.0,0.6,0.0,0.0,0.0,0.0,0.0,0.0,0.0,0.0,43.81
Euclides da Cunha,A442,Euclides da Cunha,Euclides da Cunha - A442,-10.537233,-38.996605,Nordeste,RPGA do Rio Itapicuru,0.0,12.8,0.0,0.0,0.0,1.2,0.0,0.0,0.0,0.0,0.6,0.0,0.0,0.0,0.0,0.0,0.0,0.0,0.0,0.0,0.0,0.0,0.0,0.0,0.0,0.0,0.0,0.0,0.0,0.0,0.0,14.6
Queimadas,A436,Queimadas,Queimadas - A436,-10.984645,-39.617009,Nordeste,RPGA do Rio Itapicuru,0.0,0.0,0.0,0.0,0.0,2.6,0.0,0.0,0.0,0.0,0.0,0.0,0.0,0.0,0.0,0.0,0.0,0.0,0.0,0.0,0.0,20.0,1.0,0.0,0.6,0.0,0.0,0.0,0.0,0.0,0.0,24.21
Jacobina,A440,Jacobina,Jacobina - A440,-11.205136,-40.464979,Nordeste,RPGA do Rio Itapicuru,0.0,0.0,0.0,0.0,0.0,0.2,0.2,0.0,0.0,0.0,0.2,0.0,0.0,0.0,0.0,0.0,0.0,0.2,29.4,0.0,0.0,0.2,6.2,0.0,0.2,0.0,0.2,0.0,0.0,0.0,0.0,37.01
Serrinha,A441,Serrinha,Serrinha - A441,-11.664586,-39.022946,Nordeste,RPGA do Rio Paraguaçu,0.0,0.0,0.0,0.0,0.0,1.8,6.0,0.0,0.0,0.0,0.0,0.0,0.0,3.0,0.8,0.0,0.0,0.4,0.0,0.0,0.0,0.8,0.0,0.0,8.8,0.0,0.0,0.0,0.0,0.0,0.0,21.6
Pedras Altas,50430000,Capim Grosso,Capim Grosso (Pedras Altas) - 50430000,-11.18288,-40.04725,Nordeste,RPGA do Rio Itapicuru,0.0,0.8,0.0,0.0,0.0,0.0,0.0,0.0,0.0,0.0,4.8,0.0,0.0,0.0,0.0,0.0,0.0,0.0,0.0,0.0,0.0,2.8,0.0,0.0,0.0,0.0,0.0,0.0,0.0,0.0,0.0,8.4
Ponto Novo,50380000,Ponto Novo,Ponto Novo - 50380000,-10.845,-40.1128,Nordeste,RPGA do Rio Itapicuru,0.0,1.2,0.0,0.0,0.0,0.8,0.0,0.0,0.0,0.0,3.8,0.0,0.0,0.0,0.0,0.0,0.0,0.0,0.0,0.0,0.0,0.0,0.2,0.0,1.6,0.0,0.0,0.0,0.0,0.0,0.0,7.6
Ipirá,PG-CL-02,Ipirá,Ipirá - PG-CL-02,-12.14986,-39.76454,Nordeste,RPGA do Rio Paraguaçu,0.0,0.0,6.7,12.5,0.0,0.0,0.0,0.0,0.0,0.0,0.0,0.0,0.0,0.0,0.0,0.0,0.0,0.0,0.25,0.0,0.0,0.0,0.0,0.0,0.0,1.25,0.0,0.0,0.0,0.0,0.0,20.7
Serrinha,RN-CL-02,Serrinha,Serrinha - RN-CL-02,-11.648333,-38.982777,Nordeste,RPGA do Recôncavo Norte,4.5,0.0,0.75,0.0,0.0,3.5,2.0,0.0,0.0,11.5,1.25,0.0,0.0,0.0,1.0,0.0,0.0,0.0,0.0,0.0,0.0,16.0,1.5,0.0,1.0,0.0,0.25,0.0,0.0,0.0,0.0,43.25
Valente,PG-PR-04,Valente,Valente - PG-PR-04,-11.40119,-39.458099,Nordeste,RPGA do Rio Paraguaçu,0.0,0.5,0.0,0.0,0.0,5.25,0.0,0.0,0.0,0.0,0.0,0.0,0.0,0.0,0.0,0.0,0.0,0.0,0.0,0.0,0.0,0.0,0.0,0.0,0.0,0.0,0.0,0.0,0.0,0.0,0.0,5.75
Pé de Serra,PG-PR-06,Pé de Serra,Pé de Serra - PG-PR-06,-11.833423,-39.623663,Nordeste,RPGA do Rio Paraguaçu,0.0,0.0,0.0,0.0,0.0,0.0,0.0,0.0,0.0,0.0,0.25,0.0,0.0,0.0,0.0,0.0,0.0,0.0,0.0,0.0,0.0,0.0,0.5,0.0,0.0,0.0,0.0,0.0,0.0,0.0,0.0,0.75
Centro,293010501A,Senhor do Bonfim,Senhor do Bonfim (Centro) - 293010501A,-10.464,-40.19,Nordeste,RPGA do Rio Itapicuru,0.0,1.2,0.0,0.0,0.0,0.2,0.0,0.0,0.0,0.0,0.0,0.0,0.0,0.0,0.0,0.0,0.0,0.0,0.0,0.0,0.0,1.6,0.0,0.0,0.0,0.2,0.0,0.0,0.0,0.0,0.0,3.2
Itapeipu,IT-PR-34,Jacobina,Jacobina (Itapeipu) - IT-PR-34,-11.315629,-40.356742,Nordeste,RPGA do Rio Itapicuru,0.0,0.75,0.75,0.0,0.0,0.0,0.0,0.5,0.0,0.25,6.5,0.0,0.0,0.0,0.0,0.0,0.0,0.25,0.0,0.0,0.0,0.25,0.0,0.0,0.0,0.0,0.0,0.0,0.0,0.0,0.0,9.25
Tombador Araújo,IT-PR-36,Jacobina,Jacobina (Tombador Araújo) - IT-PR-36,-11.168677,-40.670642,Nordeste,RPGA do Rio Itapicuru,0.0,0.25,0.25,0.0,0.0,0.0,0.0,0.0,0.0,0.0,0.0,0.0,0.0,0.0,0.0,0.0,0.0,0.0,15.25,0.0,0.0,0.0,0.0,0.0,0.0,0.0,0.0,0.0,0.0,0.0,0.0,15.75
Conceição do Coité,IT-PR-14,Conceição do Coité,Conceição do Coité - IT-PR-14,-11.526752,-39.313095,Nordeste,RPGA do Rio Itapicuru,0.0,0.0,0.0,0.0,0.0,8.25,0.0,0.0,0.0,0.0,0.0,0.0,0.0,0.0,1.5,0.0,0.0,0.0,0.0,0.0,0.0,0.0,0.25,0.0,0.0,0.0,0.0,0.0,0.0,1.5,0.0,11.5
Riacho da Onça,IT-PR-15,Queimadas,Queimadas (Riacho da Onça) - IT-PR-15,-11.24424,-39.790055,Nordeste,RPGA do Rio Itapicuru,0.0,0.0,0.0,0.0,0.0,0.0,0.0,0.0,0.0,0.0,0.0,0.0,0.0,0.0,0.0,0.0,0.0,0.0,0.0,0.0,0.0,0.0,0.25,0.0,0.0,0.0,4.5,0.0,0.0,0.0,0.0,4.75
Santaluz,IT-PR-17,Santaluz,Santaluz - IT-PR-17,-11.24831,-39.37563,Nordeste,RPGA do Rio Itapicuru,0.0,0.0,0.0,0.0,0.0,0.0,0.0,0.0,0.0,0.0,0.0,0.0,0.0,0.0,0.0,0.0,0.0,0.0,0.0,0.0,0.0,0.0,0.0,0.0,0.0,0.0,2.75,0.0,0.0,0.0,0.0,2.75
Açude Monteiro,IT-PR-23,Nordestina,Nordestina (Açude Monteiro) - IT-PR-23,-10.77645,-39.559491,Nordeste,RPGA do Rio Itapicuru,0.0,14.5,0.0,0.0,0.0,8.0,0.0,0.0,0.0,0.0,0.0,0.0,0.0,0.0,0.0,0.0,0.0,0.0,0.0,0.0,0.0,0.25,0.25,0.0,3.5,0.0,0.25,0.0,0.0,0.0,0.0,26.75
Pedra Vermelha,IT-PR-24,Monte Santo,Monte Santo (Pedra Vermelha) - IT-PR-24,-10.454497,-39.559488,Nordeste,RPGA do Rio Itapicuru,0.0,4.0,0.0,0.0,0.0,0.0,0.0,0.0,0.0,0.0,0.0,0.0,0.0,0.0,0.0,0.0,0.0,0.0,0.0,0.0,0.0,0.0,0.0,0.0,0.0,0.0,0.0,0.0,0.0,0.0,0.0,4.0
Quijingue,IT-PR-25,Quijingue,Quijingue - IT-PR-25,-10.783951,-39.20809,Nordeste,RPGA do Rio Itapicuru,0.0,6.0,0.0,0.0,0.0,0.0,0.0,0.0,0.0,0.0,0.5,0.0,0.0,0.0,0.0,0.0,0.0,0.0,1.25,0.0,0.0,2.5,0.0,0.0,0.0,0.0,0.5,0.0,0.0,0.0,0.0,10.75
Conde,IT-PR-31,Conde,Conde - IT-PR-31,-11.813434,-37.616927,Nordeste,RPGA do Rio Itapicuru,0.0,0.0,2.0,0.75,0.0,0.5,0.5,1.0,0.0,0.5,0.0,0.0,0.0,3.0,0.0,0.0,0.0,1.5,0.0,0.0,2.5,2.75,0.0,0.0,0.0,2.25,0.25,1.25,0.0,0.0,0.0,18.75
Curral Falso,IT-PR-01,Ribeira do Pombal,Ribeira do Pombal (Curral Falso) - IT-PR-01,-10.697843,-38.5714,Nordeste,RPGA do Rio Itapicuru,0.0,1.5,0.0,0.0,0.0,7.75,0.0,0.0,0.0,0.0,0.0,0.0,0.0,0.0,0.0,0.0,0.0,0.0,0.0,0.0,0.0,0.75,0.0,0.0,0.0,0.0,0.0,0.0,0.0,0.0,0.0,10.0
Aribicé,IT-PR-02,Euclides da Cunha,Euclides da Cunha (Aribicé) - IT-PR-02,-10.557835,-38.793352,Nordeste,RPGA do Rio Itapicuru,0.0,0.0,0.0,0.0,0.0,1.75,0.0,0.0,0.0,0.0,0.0,0.0,0.0,0.0,0.0,0.0,0.0,0.0,0.0,0.0,0.0,0.0,0.0,0.0,0.0,0.0,0.0,0.0,0.0,0.0,0.0,1.75
Ribeira do Pombal,IT-PR-04,Ribeira do Pombal,Ribeira do Pombal - IT-PR-04,-10.823399,-38.545844,Nordeste,RPGA do Rio Itapicuru,0.0,0.0,0.0,0.0,0.0,21.5,0.0,0.0,0.0,0.75,0.25,0.0,0.0,0.0,0.0,0.0,0.0,0.0,0.0,0.0,0.0,0.0,0.0,0.0,0.0,0.0,0.0,0.0,0.0,0.0,0.0,22.5
BR 116 E. Cunha / Tucano,IT-PR-05,Quijingue,Quijingue (BR 116 E. Cunha / Tucano) - IT-PR-05,-10.7105,-38.9227,Nordeste,RPGA do Rio Itapicuru,0.0,0.25,0.0,0.0,0.0,0.25,0.0,0.0,0.0,0.0,0.0,0.0,0.0,0.0,0.0,0.0,0.0,0.0,0.0,0.0,0.0,6.0,0.0,0.0,0.0,0.0,0.25,0.75,0.0,0.0,0.0,7.5
Crisópolis,IT-PR-08,Crisópolis,Crisópolis - IT-PR-08,-11.510923,-38.120832,Nordeste,RPGA do Rio Itapicuru,0.0,0.0,0.0,0.0,0.0,0.0,4.0,0.0,0.25,0.0,0.25,0.0,0.0,0.75,0.0,0.0,0.0,0.75,0.0,0.0,0.0,0.0,0.0,0.0,0.0,0.0,0.0,0.0,0.25,0.0,0.0,6.25
Fazenda Laranjeiras III,IT-PR-09,Araci,Araci (Fazenda Laranjeiras III) - IT-PR-09,-11.334248,-38.968638,Nordeste,RPGA do Rio Itapicuru,0.0,0.0,0.0,0.0,0.0,0.0,0.0,0.0,0.0,0.0,0.0,0.0,0.0,3.75,0.25,0.0,0.0,0.0,0.0,0.0,0.0,0.0,0.0,0.0,2.75,0.0,6.0,0.0,0.0,0.0,0.0,12.75
Estação Experimental,IT-PR-10,Nova Soure,Nova Soure (Estação Experimental) - IT-PR-10,-11.3083,-38.5361,Nordeste,RPGA do Rio Itapicuru,0.0,0.0,0.0,0.0,0.0,0.0,0.0,0.0,0.0,2.0,4.0,0.0,0.0,0.25,0.0,0.0,0.0,0.0,0.0,0.0,0.0,0.0,0.0,0.0,0.0,3.5,0.25,0.0,0.0,0.0,0.0,10.0
Olindina,IT-PR-11,Olindina,Olindina - IT-PR-11,-11.343693,-38.318892,Nordeste,RPGA do Rio Itapicuru,0.0,0.0,0.0,0.0,0.0,0.0,0.0,0.0,0.0,0.25,0.5,0.0,0.0,5.0,0.0,0.0,0.0,0.0,0.0,0.0,0.0,0.0,0.0,0.0,0.0,0.75,0.0,0.0,0.0,0.0,0.0,6.5
Boa Hora,IT-PR-13,Ribeira do Amparo,Ribeira do Amparo (Boa Hora) - IT-PR-13,-10.965,-38.5234,Nordeste,RPGA do Rio Itapicuru,0.0,0.0,0.0,0.0,0.0,0.0,3.75,0.0,0.0,0.0,0.75,0.0,0.0,0.0,0.0,0.0,0.0,0.0,0.0,0.0,0.0,0.25,0.0,0.0,0.0,0.0,0.0,0.0,0.0,0.0,0.0,4.75
Irecê,83182,Irecê,Irecê - 83182,-11.3,-41.866667,Norte,RPGA dos Rios Verde e Jacaré,5.3,0.0,0.0,0.0,0.0,0.0,0.0,0.0,0.0,0.0,0.0,0.0,0.0,0.0,0.0,0.0,0.0,0.0,0.0,0.0,0.0,0.0,3.4,0.0,0.0,0.0,0.0,0.0,0.0,0.0,0.0,8.7
Remanso,82979,Remanso,Remanso - 82979,-9.633333,-42.1,Norte,RPGA do Lago de Sobradinho,0.0,0.6,0.0,0.0,0.0,0.0,0.2,0.0,0.0,0.0,0.0,0.0,0.0,0.0,0.0,0.0,0.0,0.0,0.0,0.0,0.0,0.0,24.7,0.7,0.0,0.0,0.0,0.0,0.0,0.0,0.0,26.2
Delfino,A443,Umburanas,Umburanas (Delfino) - A443,-10.45492,-41.206996,Norte,RPGA do Rio Salitre,0.0,7.8,0.0,0.0,0.0,0.0,0.0,0.0,0.0,0.0,0.0,0.0,0.0,0.0,0.0,0.0,0.0,0.0,0.0,0.0,0.0,2.2,2.6,0.0,0.0,0.2,0.0,0.0,0.0,0.0,0.0,12.8
Remanso,A423,Remanso,Remanso - A423,-9.625693,-42.077214,Norte,RPGA do Lago de Sobradinho,0.0,0.8,0.0,0.0,0.0,0.0,0.2,0.0,0.0,0.0,0.0,0.0,0.0,0.0,0.0,0.0,0.0,0.0,0.0,0.0,0.0,0.2,24.8,1.0,0.0,0.0,0.0,0.0,0.0,0.0,0.0,27.0
Irecê,A424,Irecê,Irecê - A424,-11.328998,-41.864504,Norte,RPGA dos Rios Verde e Jacaré,5.8,0.0,0.0,0.0,0.0,0.0,0.0,0.0,0.0,0.0,0.0,0.0,0.0,0.0,0.0,0.0,0.0,0.2,0.0,0.0,0.0,0.0,3.8,0.0,0.0,0.0,0.0,0.0,0.0,0.0,0.0,9.8
Mandacaru,Convencional,Juazeiro,Juazeiro (Mandacaru) - Convencional,-9.401263,-40.434428,Norte,RPGA dos Rios Macururé e Curaçá,0.0,28.8,0.0,0.0,0.0,0.0,0.0,0.0,0.0,0.0,0.0,0.0,0.0,0.0,0.0,0.0,0.0,0.2,0.0,0.0,0.0,21.9,4.2,0.0,0.0,0.0,0.0,0.0,0.0,0.0,0.0,55.1
Juazeiro,Fazenda Brasil Uvas,Juazeiro,Juazeiro - Fazenda Brasil Uvas,-9.316666,-40.183333,Norte,RPGA dos Rios Macururé e Curaçá,3.1,22.9,0.5,0.0,0.0,0.0,0.0,0.0,0.0,0.5,0.0,0.0,0.0,0.0,0.0,0.0,0.0,0.0,0.0,0.0,0.0,9.65,8.38,0.25,0.0,0.0,0.0,0.0,0.0,0.0,0.0,45.28
Juazeiro,Massaroca,Juazeiro,Juazeiro - Massaroca,-9.8,-40.233333,Norte,RPGA dos Rios Macururé e Curaçá,0.0,0.0,0.0,0.0,0.0,0.0,0.0,0.0,0.0,0.0,0.0,0.0,0.0,0.0,0.0,0.0,0.0,0.2,0.0,0.0,0.0,7.2,14.9,0.0,0.0,0.0,0.0,0.0,0.0,0.0,0.0,22.3
Jaguarari,Pilar,Jaguarari,Jaguarari - Pilar,-9.85,-39.933333,Norte,RPGA dos Rios Macururé e Curaçá,0.4,1.1,0.0,0.0,0.0,0.0,0.0,0.0,0.0,0.0,0.0,0.0,0.0,0.0,0.0,0.0,0.0,0.0,0.0,0.0,0.0,5.5,20.2,0.0,0.0,0.0,0.0,0.0,0.0,0.0,0.0,27.2
Juazeiro,Santa Helena,Juazeiro,Juazeiro - Santa Helena,-9.566666,-40.3,Norte,RPGA dos Rios Macururé e Curaçá,0.0,0.5,1.8,0.0,0.0,0.0,0.0,0.0,0.0,0.0,0.0,0.0,0.0,0.0,0.0,0.0,0.0,3.6,0.0,0.0,0.0,28.5,6.4,0.7,0.0,0.0,0.0,0.0,0.0,0.0,0.0,41.5
Juazeiro,Salitre,Juazeiro,Juazeiro - Salitre,-9.5,-40.633333,Norte,RPGA dos Rios Macururé e Curaçá,0.0,0.0,0.0,0.0,0.0,0.0,1.1,0.0,0.0,0.0,0.3,0.0,0.0,0.0,0.0,0.0,0.0,0.0,0.0,0.0,0.0,3.6,0.7,1.9,0.0,0.0,0.1,0.0,0.0,0.0,0.0,7.7
Ibitibá,,Ibitibá,Ibitibá,-11.551736,-41.968187,Norte,RPGA dos Rios Verde e Jacaré,0.0,1.2,0.0,0.0,0.0,0.0,0.0,0.0,0.0,0.0,0.0,0.0,0.0,0.0,0.0,0.0,0.0,0.0,0.0,0.0,0.0,0.0,57.8,0.0,0.0,0.0,0.0,0.0,0.0,0.0,0.0,59.0
Jussara,Arrecife,Jussara,Jussara - Arrecife,-11.065335,-41.974853,Norte,RPGA dos Rios Verde e Jacaré,0.0,0.0,0.0,0.0,0.0,0.0,0.0,0.0,0.0,0.0,0.0,0.0,0.0,0.0,0.0,0.0,0.0,8.8,0.0,0.0,0.0,0.4,8.8,4.0,0.0,1.6,2.2,0.2,0.0,0.0,0.0,26.0
Ibipeba,,Ibipeba,Ibipeba,-11.673962,-42.010413,Norte,RPGA dos Rios Verde e Jacaré,8.4,0.0,0.0,0.0,0.0,0.0,0.0,0.0,0.0,0.0,0.0,0.0,0.0,0.0,0.0,0.0,0.0,0.0,0.0,0.0,0.0,1.4,24.4,0.2,0.0,0.0,0.0,0.0,0.0,0.0,0.0,34.41
Central,,Central,Central,-11.135391,-42.093468,Norte,RPGA dos Rios Verde e Jacaré,0.0,0.0,0.0,0.0,0.0,0.0,0.0,0.0,0.0,0.0,0.0,0.0,0.0,0.0,0.0,0.0,0.0,21.8,0.0,0.0,0.0,0.0,21.8,3.8,0.0,0.0,0.0,0.0,0.0,0.0,0.0,47.4
Juazeiro,48020000,Juazeiro,Juazeiro - 48020000,-9.4064,-40.5036,Norte,RPGA dos Rios Macururé e Curaçá,0.0,9.0,0.0,0.0,0.0,0.0,0.0,0.0,0.0,0.0,0.0,0.0,0.0,0.0,0.0,0.0,0.0,0.0,0.0,0.0,0.4,19.6,8.0,0.0,0.0,0.0,0.0,0.0,0.0,0.0,0.0,37.0
Uibai,,Uibai,Uibai,-11.294784,-42.14208,Norte,RPGA dos Rios Verde e Jacaré,1.4,0.0,0.0,0.0,0.0,0.0,0.0,0.0,0.0,0.0,0.0,0.0,0.0,0.0,0.0,0.0,0.0,4.8,0.0,0.0,0.0,0.0,5.0,1.8,0.0,0.0,0.0,0.0,0.0,0.0,0.0,13.0
Irecê,VJ-CL-01,Irecê,Irecê - VJ-CL-01,-11.289166,-41.894166,Norte,RPGA dos Rios Verde e Jacaré,13.75,0.0,0.0,0.0,0.0,0.0,0.0,0.0,0.0,0.0,0.0,0.0,0.0,0.0,0.0,0.0,0.0,0.25,0.0,0.0,0.0,0.0,0.25,0.0,0.0,0.75,0.0,0.0,0.0,0.0,0.0,15.0
Santa Rosa,SM-PR-01,Jaguarari,Jaguarari (Santa Rosa) - SM-PR-01,-10.098374,-39.869774,Norte,RPGA dos Rios Macururé e Curaçá,0.0,0.0,0.0,0.0,0.0,0.0,0.0,0.0,0.0,0.0,0.75,0.0,0.0,0.0,0.0,0.0,0.0,0.0,0.0,0.0,0.0,33.75,0.0,0.0,0.0,0.0,0.0,0.0,0.0,0.0,0.0,34.5
Juazeiro,Mandacaru,Juazeiro,Juazeiro - Mandacaru,-9.4,-40.433333,Norte,RPGA dos Rios Macururé e Curaçá,28.0,0.0,0.0,0.0,0.0,0.0,0.0,0.0,0.0,0.0,0.0,0.0,0.0,0.0,0.0,0.0,0.0,0.0,0.0,0.0,14.0,7.1,4.1,0.0,0.0,0.0,0.0,0.0,0.0,0.0,0.0,53.2
Campo Formoso,IT-PR-27,Campo Formoso,Campo Formoso - IT-PR-27,-10.510327,-40.332849,Norte,RPGA do Rio Itapicuru,0.0,7.75,0.0,0.0,0.0,1.75,0.0,0.0,0.0,0.0,0.0,0.0,0.0,0.0,0.0,0.0,0.0,0.0,0.0,0.0,0.0,5.0,0.0,0.0,0.0,0.0,0.0,0.0,0.0,0.0,0.0,14.5
Jaguarari,IT-PR-28,Jaguarari,Jaguarari - IT-PR-28,-10.269489,-40.200344,Norte,RPGA do Rio Itapicuru,0.0,0.0,0.0,0.0,0.0,0.0,0.0,0.0,0.0,0.0,0.0,0.0,0.0,0.0,0.0,0.0,0.0,0.0,0.0,0.0,0.0,15.25,1.75,0.0,0.0,0.0,0.0,0.0,0.0,0.0,0.0,17.0
Olho D'Água,,Olho D'Água,Olho D'Água,-10.700331,-40.601468,Norte,RPGA do Rio Salitre,0.0,0.8,0.2,0.0,0.0,0.4,0.2,0.0,0.0,0.0,0.0,0.0,0.0,0.0,0.0,0.0,0.0,0.0,0.0,0.0,0.0,0.4,0.0,0.0,0.0,0.0,0.0,0.0,0.0,0.0,0.0,2.0
Taquarendi,,Taquarendi,Taquarendi,-10.893669,-40.687028,Norte,RPGA do Rio Salitre,0.0,0.4,0.2,0.0,0.0,0.0,0.0,0.0,0.0,0.0,0.0,0.0,0.0,0.0,0.0,0.0,0.0,0.0,15.6,0.0,0.0,0.0,0.0,0.0,0.0,0.0,0.0,0.0,0.0,0.0,0.0,16.2
Fazenda Vila Verde,,Fazenda Vila Verde,Fazenda Vila Verde,-12.032839,-46.054434,Oeste,RPGA do Rio Grande,13.0,2.2,0.0,0.0,30.0,1.2,0.0,0.0,9.2,0.0,13.0,20.8,0.4,0.0,0.0,0.0,0.0,5.0,12.6,5.8,45.0,3.8,0.2,0.0,0.0,0.0,2.8,9.0,3.0,0.0,50.2,227.2
Fazenda Novo Horizonte,GR-PR-13,Barreiras,Barreiras (Fazenda Novo Horizonte) - GR-PR-13,-12.064787,-45.560529,Oeste,RPGA do Rio Grande,0.0,5.4,0.2,0.0,13.2,0.0,0.0,9.2,0.2,0.2,5.2,26.0,0.2,0.0,0.0,0.0,0.0,2.6,16.4,1.8,23.6,2.4,4.4,0.0,0.0,0.2,8.2,0.6,0.0,0.0,0.4,120.41
Fazenda Dona Izeta,GR-PR-15,Barreiras,Barreiras (Fazenda Dona Izeta) - GR-PR-15,-12.073399,-45.490807,Oeste,RPGA do Rio Grande,0.2,0.0,0.0,0.0,8.0,0.0,0.0,3.6,0.0,0.0,12.6,21.8,0.0,0.0,0.0,0.0,0.0,6.6,15.2,3.0,20.6,2.0,0.6,16.2,0.2,1.2,0.0,3.0,0.2,0.0,0.6,115.6
Fazenda Pró Café,GR-PR-19,Barreiras,Barreiras (Fazenda Pró Café) - GR-PR-19,-12.160625,-45.330802,Oeste,RPGA do Rio Grande,0.2,3.4,0.0,0.0,13.2,0.2,0.0,0.0,0.2,0.0,29.2,19.4,0.2,0.0,0.0,0.0,0.8,12.8,8.4,23.6,19.8,1.4,6.0,18.6,0.2,0.0,0.0,0.0,0.0,0.0,0.0,157.6
Fazenda Rio Brilhante,,Fazenda Rio Brilhante,Fazenda Rio Brilhante,-12.802859,-45.729985,Oeste,RPGA do Rio Grande,0.2,11.2,4.0,0.2,8.2,0.2,0.0,0.0,0.0,0.0,3.8,18.0,0.2,0.2,0.0,0.0,8.8,22.2,0.0,23.6,22.8,3.2,1.0,5.0,0.2,12.2,0.2,30.0,0.2,0.0,0.0,175.6
Fazenda Catarinense,,Fazenda Catarinense,Fazenda Catarinense,-13.286201,-46.028331,Oeste,RPGA do Rio Grande,2.2,0.0,0.0,0.0,11.6,0.0,0.0,0.0,11.2,0.0,13.4,22.2,8.4,0.2,0.0,0.0,12.8,18.2,0.0,27.4,36.4,1.4,0.2,3.8,2.4,6.0,3.8,0.2,6.8,0.2,0.0,188.8
Fazenda Morete,,Fazenda Morete,Fazenda Morete,-13.222316,-45.154969,Oeste,"RPGA do Rio Corrente e Riachos do Ramalho, Serra Dourada e Brejo Velho",0.75,76.25,0.0,0.0,0.0,0.0,0.0,6.25,0.0,0.0,0.0,5.5,0.0,0.0,0.0,0.0,0.0,0.0,3.5,11.0,48.0,0.25,0.0,1.25,0.0,0.25,0.0,0.0,0.0,0.75,0.0,153.75
Rosário,CT-PR-03,Correntina,Correntina (Rosário) - CT-PR-03,-13.940105,-46.188064,Oeste,"RPGA do Rio Corrente e Riachos do Ramalho, Serra Dourada e Brejo Velho",3.0,11.0,0.0,2.4,4.6,0.2,0.0,0.0,3.6,0.2,1.0,4.0,0.2,0.0,0.0,0.0,7.2,21.2,2.0,21.8,16.0,0.6,0.2,0.0,0.0,2.2,6.2,6.4,0.2,2.4,0.4,117.01
Fazenda Nova Esperança,,Fazenda Nova Esperança,Fazenda Nova Esperança,-13.987891,-45.389148,Oeste,"RPGA do Rio Corrente e Riachos do Ramalho, Serra Dourada e Brejo Velho",37.2,0.2,9.2,0.0,0.2,0.2,0.0,0.0,0.0,0.2,0.0,1.8,0.2,0.0,0.0,0.0,0.0,6.8,52.2,0.0,55.4,2.6,2.6,9.2,0.2,23.8,12.8,0.0,0.0,0.0,0.0,214.8
Fazenda Cachoeirinha,,Fazenda Cachoeirinha,Fazenda Cachoeirinha,-14.389284,-45.840279,Oeste,"RPGA do Rio Corrente e Riachos do Ramalho, Serra Dourada e Brejo Velho",14.2,0.2,11.4,0.0,11.4,0.0,0.2,0.0,3.8,0.0,0.2,4.0,0.2,0.0,0.0,0.0,0.0,2.2,2.8,2.4,40.8,2.0,0.0,31.2,0.4,3.4,17.2,0.8,0.0,0.0,0.0,148.8
Projeto Alto Formoso,,Projeto Alto Formoso,Projeto Alto Formoso,-14.260954,-45.27887,Oeste,"RPGA do Rio Corrente e Riachos do Ramalho, Serra Dourada e Brejo Velho",0.4,1.4,0.0,0.0,0.0,0.0,0.0,0.0,0.0,0.0,1.8,0.0,0.2,0.0,0.0,0.0,0.0,3.4,5.8,1.4,22.4,2.2,1.4,0.2,1.0,2.4,2.8,3.8,0.2,0.0,0.0,50.8
Ponte do Fortunato,,Ponte do Fortunato,Ponte do Fortunato,-14.642348,-45.503045,Oeste,RPGA do Rio Carinhanha,0.25,0.25,0.0,0.75,5.75,3.75,0.0,0.0,15.5,0.0,0.0,2.0,0.0,0.0,0.0,0.0,0.0,21.5,0.5,0.0,15.5,1.25,0.5,5.25,0.0,0.25,12.5,5.25,0.0,0.0,0.0,90.75
Ponte do Itaguari,CA-PR-02,Cocos,Cocos (Ponte do Itaguari) - CA-PR-02,-14.234011,-44.626902,Oeste,RPGA do Rio Carinhanha,9.4,4.0,0.2,0.0,0.0,0.0,0.0,0.0,0.0,0.0,0.0,0.0,0.0,0.0,0.0,0.0,0.0,0.6,12.2,0.0,20.8,0.0,3.0,16.6,2.4,0.0,2.6,0.2,0.0,0.0,0.0,72.01
Correntina,A416,Correntina,Correntina - A416,-13.332386,-44.617376,Oeste,"RPGA do Rio Corrente e Riachos do Ramalho, Serra Dourada e Brejo Velho",26.6,6.0,0.0,0.0,0.0,0.0,0.0,0.0,0.2,0.0,0.0,51.2,0.0,0.0,0.0,0.0,0.0,1.0,5.8,1.4,33.0,0.0,3.0,0.2,0.0,0.0,0.2,0.4,0.0,0.0,0.0,129.0
Barreiras,83236,Barreiras,Barreiras - 83236,-12.155556,-45.007778,Oeste,RPGA do Rio Grande,0.4,7.3,0.0,7.0,3.6,0.0,0.0,0.0,0.0,0.0,1.4,1.6,0.0,0.0,0.0,0.0,8.0,0.9,7.0,45.8,36.4,2.0,6.8,0.6,0.0,0.0,0.0,0.0,0.0,0.0,0.0,128.8
Correntina,83286,Correntina,Correntina - 83286,-13.332222,-44.617222,Oeste,"RPGA do Rio Corrente e Riachos do Ramalho, Serra Dourada e Brejo Velho",27.1,6.2,0.0,0.0,0.0,0.0,0.0,0.0,0.0,0.0,0.0,58.6,0.0,0.0,0.0,0.0,0.0,0.9,5.6,1.1,33.2,0.0,3.0,0.0,0.0,0.0,0.0,0.4,0.0,0.0,0.0,136.1
Form. Rio Preto,46550000,Barreiras,Barreiras (Form. Rio Preto) - 46550000,-11.154444,-45.009166,Oeste,RPGA do Rio Grande,1.1,7.2,0.3,10.5,3.0,0.0,0.0,0.2,0.0,0.0,2.8,2.1,0.0,0.0,0.0,0.0,7.0,0.0,6.5,45.0,38.0,1.9,6.6,0.5,0.0,0.0,0.0,0.0,0.0,0.0,0.0,132.71
Arrojado,45770000,Correntina,Correntina (Arrojado) - 45770000,-13.4528,-44.5689,Oeste,"RPGA do Rio Corrente e Riachos do Ramalho, Serra Dourada e Brejo Velho",0.2,3.8,0.0,0.0,0.0,0.0,0.0,0.0,0.4,0.0,0.0,3.0,0.0,0.0,0.0,0.0,0.0,2.0,0.2,0.0,19.6,0.0,0.8,15.8,0.0,0.2,0.0,0.0,3.8,0.0,0.4,50.2
Formosa do Rio Preto-ANA_INEMA,,Formosa do Rio Preto-ANA_INEMA,Formosa do Rio Preto-ANA_INEMA,-11.05267,-45.264832,Oeste,RPGA do Rio Grande,4.6,2.6,0.6,0.2,0.0,0.8,32.4,3.0,3.6,1.0,5.2,0.0,0.2,0.0,0.0,0.0,0.8,0.8,5.6,0.8,26.4,0.0,0.0,3.4,0.2,3.2,5.6,0.2,0.0,0.0,0.0,101.2
Mocambo,45740001,Correntina,Correntina (Mocambo) - 45740001,-13.28572,-44.56284,Oeste,"RPGA do Rio Corrente e Riachos do Ramalho, Serra Dourada e Brejo Velho",9.6,3.6,0.0,0.2,0.0,0.0,0.0,8.8,0.0,0.0,0.0,32.0,0.0,0.2,0.0,0.0,0.2,2.0,3.8,1.2,23.6,0.0,2.8,10.2,0.0,0.0,0.8,0.0,0.0,0.0,0.0,99.01
PCH Pres. Goulart-J,45600000,Correntina,Correntina (PCH Pres. Goulart-J) - 45600000,-13.3344,-44.6208,Oeste,"RPGA do Rio Corrente e Riachos do Ramalho, Serra Dourada e Brejo Velho",36.2,6.9,0.0,0.0,0.0,0.0,0.0,0.0,0.0,0.0,0.0,19.6,0.0,0.0,0.0,0.0,0.0,1.9,6.6,1.9,42.1,0.0,3.3,0.0,0.0,0.0,0.3,0.3,0.0,0.0,0.0,119.11
PCH Pres. Goulart-M1,45588000,Correntina,Correntina (PCH Pres. Goulart-M1) - 45588000,-13.3408,-44.6414,Oeste,"RPGA do Rio Corrente e Riachos do Ramalho, Serra Dourada e Brejo Velho",43.6,2.4,0.0,0.0,0.0,0.0,0.0,0.0,0.0,0.0,0.0,11.2,1.8,0.6,0.3,0.0,0.0,0.0,0.3,0.0,0.3,0.3,0.3,0.3,0.1,0.6,0.6,0.9,0.6,0.0,0.0,64.2
PCH Sítio Grande-J,46453500,São Desidério,São Desidério (PCH Sítio Grande-J) - 46453500,-12.4286,-45.1528,Oeste,RPGA do Rio Grande,0.0,0.9,18.7,2.3,21.0,3.6,0.0,0.0,0.8,0.0,0.8,7.3,2.8,0.0,0.0,0.0,0.0,1.4,2.2,3.8,39.8,43.7,2.6,0.0,0.0,1.6,0.0,0.0,0.0,0.0,0.0,153.3
COACERAL,GR-CL-02,Formosa do Rio Preto,Formosa do Rio Preto (COACERAL) - GR-CL-02,-10.561944,-45.693333,Oeste,RPGA do Rio Grande,0.75,4.0,0.0,0.0,0.0,0.0,21.0,0.25,0.0,8.0,11.0,48.25,0.75,3.75,0.0,0.0,0.0,5.25,0.25,0.0,20.0,0.0,7.75,0.25,0.0,0.25,0.25,0.0,0.0,0.0,0.0,131.75
Barreiras,A402,Barreiras,Barreiras - A402,-12.124715,-45.027049,Oeste,RPGA do Rio Grande,1.8,4.8,0.0,0.4,1.0,0.0,0.0,1.4,0.0,0.0,2.6,6.2,0.0,0.0,0.0,0.0,0.0,1.8,3.0,48.8,31.8,2.4,14.2,1.0,0.0,0.0,0.2,0.0,0.0,0.0,0.0,121.4
Luís Eduardo Magalhães,A404,Luís Eduardo Magalhães,Luís Eduardo Magalhães - A404,-12.152394,-45.829745,Oeste,RPGA do Rio Grande,1.6,5.4,0.0,0.0,4.4,0.8,0.2,3.2,0.4,0.2,37.6,16.0,0.2,0.0,0.0,0.0,0.0,4.6,9.2,2.8,39.4,2.6,12.4,2.8,0.0,1.2,3.2,4.6,3.0,0.2,0.0,156.0
São Desidério,R. Velha - GR-CL-01,São Desidério,São Desidério - R. Velha - GR-CL-01,-12.898055,-46.157222,Oeste,RPGA do Rio Grande,3.25,3.0,12.0,0.0,9.0,0.0,0.0,0.0,0.0,0.0,0.25,51.5,0.0,0.0,0.0,0.0,0.0,22.5,0.75,42.25,26.5,11.25,0.25,15.5,0.0,1.25,0.0,10.5,3.0,2.0,0.0,214.75
Fazenda Evandro,GR-PR-01,Formosa do Rio Preto,Formosa do Rio Preto (Fazenda Evandro) - GR-PR-01,-10.600581,-45.822752,Oeste,RPGA do Rio Grande,3.8,6.2,0.0,0.0,0.0,0.0,14.0,0.4,6.0,0.2,29.8,19.2,0.2,0.0,0.0,3.4,0.2,1.8,0.6,3.6,27.2,0.0,8.6,0.2,0.2,0.0,12.2,0.2,0.0,0.0,0.0,138.0
Barra do Tapuio,GR-PR-02,Formosa do Rio Preto,Formosa do Rio Preto (Barra do Tapuio) - GR-PR-02,-11.09476,-45.950259,Oeste,RPGA do Rio Grande,0.0,0.2,0.4,0.2,0.0,0.0,30.6,0.4,0.2,0.0,4.4,16.2,1.0,0.0,0.0,0.0,0.0,7.0,13.4,1.8,45.8,1.2,0.6,6.2,0.0,0.0,5.0,0.6,0.0,0.0,0.4,135.6
Fazenda Mingore,GR-PR-03,Formosa do Rio Preto,Formosa do Rio Preto (Fazenda Mingore) - GR-PR-03,-11.043367,-46.296104,Oeste,RPGA do Rio Grande,0.0,4.8,0.0,0.0,0.0,0.0,14.4,2.2,0.4,0.0,26.2,34.2,0.0,0.0,0.0,0.0,4.0,32.0,0.4,2.6,10.8,0.2,1.4,0.8,0.0,0.0,3.8,9.0,0.2,0.8,7.2,155.4
Garganta,GR-PR-04,Formosa do Rio Preto,Formosa do Rio Preto (Garganta) - GR-PR-04,-11.384764,-46.505001,Oeste,RPGA do Rio Grande,2.4,0.2,0.2,0.2,0.0,0.0,8.4,0.6,0.0,3.4,11.0,12.8,14.0,1.2,0.0,1.2,10.2,10.6,4.8,12.2,38.8,1.2,0.0,0.4,0.0,4.8,1.4,9.8,3.6,0.0,0.2,153.6
Fazenda Santa Rita de Cássia,,Fazenda Santa Rita de Cássia,Fazenda Santa Rita de Cássia,-11.625053,-45.645252,Oeste,RPGA do Rio Grande,1.2,0.0,0.2,0.0,0.0,0.0,0.0,0.0,0.0,3.4,2.8,3.2,0.2,0.0,0.0,0.0,0.4,4.0,0.2,0.0,0.8,8.4,0.6,0.6,0.0,0.8,0.2,0.0,0.2,0.0,7.0,34.2
Algocel,,Algocel,Algocel,-11.758942,-46.205271,Oeste,RPGA do Rio Grande,0.2,9.8,0.0,0.0,0.0,0.0,0.0,0.0,31.0,0.2,38.2,33.0,0.2,0.2,0.0,0.0,0.0,9.4,8.8,19.8,13.2,4.6,1.6,0.0,0.0,13.8,15.4,23.4,2.0,0.0,1.4,226.21
J. Zoológico,A401,Salvador,Salvador (J. Zoológico) - A401,-13.005515,-38.50576,Recôncavo,RPGA do Recôncavo Norte,0.4,0.8,3.2,1.0,0.0,0.0,0.4,0.0,0.2,0.0,0.0,0.0,0.0,5.8,0.0,1.0,0.0,0.0,0.0,0.0,0.0,0.6,14.6,0.0,0.0,2.2,2.4,0.4,0.2,0.0,0.0,33.2
Cruz das Almas,A406,Cruz das Almas,Cruz das Almas - A406,-12.675422,-39.08958,Recôncavo,RPGA do Rio Paraguaçu,0.0,1.4,1.2,0.2,0.0,0.0,7.0,0.0,0.0,0.2,0.0,0.0,0.0,0.0,0.0,0.0,0.0,0.0,0.0,0.0,0.2,0.0,0.0,0.0,0.0,0.4,11.6,0.0,0.0,0.0,0.0,22.2
Salvador,Canabrava,Salvador,Salvador - Canabrava,-12.924122,-38.429942,Recôncavo,RPGA do Recôncavo Norte,0.0,0.5,5.7,4.4,0.3,3.9,1.6,0.7,1.0,0.6,0.0,0.0,0.0,0.1,0.3,0.1,0.0,0.0,0.0,0.4,0.0,4.7,0.7,0.0,0.0,3.6,4.1,0.0,0.0,0.0,0.0,32.7
Alagoinhas,83249,Alagoinhas,Alagoinhas - 83249,-12.148333,-38.425556,Recôncavo,RPGA do Recôncavo Norte,0.0,0.0,0.0,0.0,0.5,4.0,0.0,0.0,0.0,0.0,0.0,0.0,0.0,0.0,0.0,0.0,0.0,1.6,0.0,0.0,0.0,0.0,0.0,0.0,0.0,0.0,4.2,0.0,0.0,0.0,0.0,10.3
Cruz das Almas,83222,Cruz das Almas,Cruz das Almas - 83222,-12.666667,-39.083333,Recôncavo,RPGA do Rio Paraguaçu,0.0,1.4,2.5,0.1,0.0,0.0,8.0,0.0,0.0,0.0,0.0,0.0,0.0,0.0,0.0,0.0,0.0,0.0,0.0,0.0,0.0,0.0,0.0,0.0,0.0,4.3,12.8,0.0,0.0,0.0,0.0,29.1
Feira de Santana,83221,Feira de Santana,Feira de Santana - 83221,-12.196111,-38.967222,Recôncavo,RPGA do Recôncavo Norte,7.0,0.0,0.2,0.0,2.2,1.2,0.0,0.0,0.0,0.0,0.0,0.0,0.0,0.0,0.0,0.0,0.0,4.8,0.0,0.0,0.0,4.0,0.0,0.0,0.0,5.0,1.0,0.0,0.0,0.0,0.0,25.4
Amargosa,A434,Amargosa,Amargosa - A434,-13.009468,-39.616881,Recôncavo,RPGA do Recôncavo Sul,0.0,0.0,4.2,14.6,0.2,0.0,0.2,0.0,0.0,0.2,0.0,0.0,0.0,0.0,0.0,0.0,0.0,0.0,0.0,0.0,0.0,1.6,0.2,0.0,0.0,0.0,0.0,0.0,0.0,0.0,0.0,21.2
Valença,A444,Valença,Valença - A444,-13.34361,-39.12667,Recôncavo,RPGA do Recôncavo Sul,0.0,0.6,2.8,2.8,0.2,16.8,2.0,0.6,2.8,7.8,0.2,0.0,2.8,2.0,4.4,0.4,0.0,1.6,0.0,0.8,0.2,6.8,0.2,0.0,5.2,0.2,0.0,0.4,2.2,0.0,0.0,63.81
Mata de São João,ETA - Embasa,Mata de São João,Mata de São João - ETA - Embasa,-12.394946,-37.934649,Recôncavo,RPGA do Recôncavo Norte,0.0,0.0,0.0,0.0,0.0,0.0,0.0,0.0,0.0,0.0,0.0,0.0,0.0,0.0,0.0,0.0,0.0,0.0,0.0,0.0,0.0,0.0,0.0,0.0,0.0,11.4,0.0,0.0,0.0,0.0,0.0,11.4
Candeias,EMBASA,Candeias,Candeias - EMBASA,-12.663561,-38.533,Recôncavo,RPGA do Recôncavo Norte,6.0,0.2,1.5,0.0,0.0,1.9,18.7,0.0,0.0,0.0,0.0,0.0,0.0,0.0,0.0,0.0,0.0,0.0,0.0,0.0,0.0,1.5,0.0,0.0,0.0,0.0,0.0,6.2,0.0,0.0,0.0,36.0
Dias D´Ávila,EMBASA,Dias D´Ávila,Dias D´Ávila - EMBASA,-12.620505,-38.315217,Recôncavo,RPGA do Recôncavo Norte,0.0,0.2,0.2,0.0,1.8,3.2,2.8,0.8,10.9,1.5,0.0,0.0,0.0,0.0,0.0,0.0,0.0,0.0,0.0,0.0,0.0,0.0,0.0,0.0,0.0,1.3,3.5,0.6,0.0,0.0,0.0,26.8
São Sebastião do Passé-EMBASA,,São Sebastião do Passé-EMBASA,São Sebastião do Passé-EMBASA,-12.517449,-38.492165,Recôncavo,RPGA do Recôncavo Norte,0.0,0.8,0.5,0.0,0.0,0.0,3.4,0.0,0.0,0.0,0.0,0.0,0.0,0.0,0.0,0.0,0.0,0.0,0.0,0.0,0.0,20.5,0.0,0.0,39.6,0.0,4.9,0.0,0.0,0.0,0.0,69.7
Joanes II,322,Simões Filho,Simões Filho (Joanes II) - 322,-12.674147,-38.376254,Recôncavo,RPGA do Recôncavo Norte,0.3,0.0,1.0,0.0,0.0,7.3,0.6,0.0,3.0,3.5,0.0,0.0,0.0,0.0,0.0,0.0,0.0,0.0,0.0,0.0,0.0,0.0,0.0,0.0,0.0,1.9,3.3,0.0,0.0,0.0,0.0,20.9
Santa Helena,323,Camaçari,Camaçari (Santa Helena) - 323,-12.56202,-38.1606,Recôncavo,RPGA do Recôncavo Norte,0.0,0.0,0.6,0.5,1.4,2.2,0.5,0.0,11.2,0.1,0.0,0.0,0.0,0.0,0.0,0.0,0.0,1.6,0.0,0.0,0.0,2.2,0.0,0.0,0.0,0.0,0.0,0.0,0.0,0.0,0.0,20.3
Salvador,(MONT SERRAT - PCD),Salvador,Salvador - (MONT SERRAT - PCD),-12.930959,-38.516964,Recôncavo,RPGA do Recôncavo Norte,0.0,5.4,2.2,14.2,1.8,0.0,24.4,0.0,0.0,0.0,0.0,0.0,0.0,0.0,0.0,0.0,0.0,1.6,0.0,0.0,0.0,2.0,14.8,0.2,0.0,4.2,2.0,1.6,0.0,0.0,0.0,74.4
Ondina,83229,Salvador,Salvador (Ondina) - 83229,-13.005278,-38.505833,Recôncavo,RPGA do Recôncavo Norte,0.2,0.5,3.4,0.7,0.0,0.0,0.3,0.0,0.0,0.0,0.0,0.0,0.0,5.7,0.0,1.0,0.0,0.0,0.0,0.0,0.0,0.3,14.2,0.0,0.0,2.2,2.2,0.6,0.0,0.0,0.0,31.3
Feira de Santana,PG-PR-13,Feira de Santana,Feira de Santana - PG-PR-13,-12.268161,-38.96642,Recôncavo,RPGA do Rio Paraguaçu,0.0,0.0,2.25,0.0,0.0,0.25,1.25,0.0,0.0,0.0,0.0,0.0,0.0,0.0,0.0,0.0,0.0,0.5,0.25,0.0,0.0,19.5,0.0,0.0,0.0,5.75,4.25,0.0,0.0,0.0,0.0,34.0
Itatim,PG-PR-14,Itatim,Itatim - PG-PR-14,-12.720391,-39.700059,Recôncavo,RPGA do Rio Paraguaçu,0.0,0.25,1.0,3.25,0.5,0.0,0.0,0.0,0.0,0.0,0.0,0.0,0.0,1.0,0.0,0.0,0.0,0.0,0.0,0.0,0.0,0.0,0.0,0.0,0.0,0.0,0.75,0.0,0.25,0.0,0.0,7.0
Centro,292740802A,Salvador,Salvador (Centro) - 292740802A,-12.97821,-38.515945,Recôncavo,RPGA do Recôncavo Norte,0.0,0.0,0.6,6.7,0.0,0.0,5.1,0.4,0.0,0.0,0.0,0.0,0.0,0.4,0.2,0.0,0.0,3.5,0.0,0.0,0.0,1.6,4.7,0.2,0.0,0.6,3.0,0.2,0.0,0.0,0.0,27.2
São tomé de Paripe,292740806A,Salvador,Salvador (São tomé de Paripe) - 292740806A,-12.795508,-38.489389,Recôncavo,RPGA do Recôncavo Norte,3.8,2.4,0.8,0.6,1.6,1.4,1.8,2.0,1.8,1.6,0.2,0.0,0.0,0.0,0.0,0.0,0.0,0.0,0.0,0.2,0.0,1.0,0.2,0.0,2.9,0.8,10.6,0.0,0.0,18.0,0.0,51.7
Cabula,292740810A,Salvador,Salvador (Cabula) - 292740810A,-12.961347,-38.460778,Recôncavo,RPGA do Recôncavo Norte,0.0,0.6,6.7,4.3,0.2,0.2,2.9,0.0,0.2,0.0,0.0,0.0,0.0,0.2,0.0,0.0,0.0,0.0,0.0,0.8,0.0,9.5,0.4,0.0,0.0,2.4,0.4,1.0,0.0,0.0,0.0,29.8
Nova Esperança,292740818A,Salvador,Salvador (Nova Esperança) - 292740818A,-12.861,-38.368,Recôncavo,RPGA do Recôncavo Norte,0.0,0.0,3.9,5.3,0.0,7.9,0.4,1.2,0.0,1.4,0.0,0.0,0.0,0.0,0.6,0.2,0.0,0.0,0.0,0.2,0.0,1.0,0.0,0.0,0.0,0.8,5.9,0.0,0.0,0.0,0.0,28.8
Caminho das Árvores,292740815A,Salvador,Salvador (Caminho das Árvores) - 292740815A,-12.97718,-38.453834,Recôncavo,RPGA do Recôncavo Norte,0.0,0.6,9.5,6.5,0.0,0.0,1.2,0.0,1.2,0.0,0.0,0.0,0.0,0.0,0.0,0.0,0.0,0.0,0.0,0.0,0.0,3.2,0.0,0.0,0.0,0.6,2.0,0.4,0.0,0.0,0.0,25.2
Águas Claras,292740808A,Salvador,Salvador (Águas Claras) - 292740808A,-12.8944,-38.441889,Recôncavo,RPGA do Recôncavo Norte,0.0,0.2,13.8,8.3,0.2,0.4,1.6,0.0,0.0,0.8,0.0,0.0,1.4,0.0,0.0,0.0,0.0,0.0,0.0,0.0,0.0,14.0,0.2,0.0,0.0,0.6,0.0,0.0,0.0,0.0,0.0,41.51
Alto do Peru,292740812A,Salvador,Salvador (Alto do Peru) - 292740812A,-12.939122,-38.486334,Recôncavo,RPGA do Recôncavo Norte,0.0,2.4,12.2,9.9,0.0,0.2,11.4,0.0,0.0,0.0,0.0,0.0,0.0,0.0,0.0,0.4,0.0,0.8,0.0,0.0,0.0,14.0,1.8,0.0,0.0,2.0,0.6,0.0,0.0,0.0,0.0,55.7
CAB,292740811A,Salvador,Salvador (CAB) - 292740811A,-12.943354,-38.421264,Recôncavo,RPGA do Recôncavo Norte,1.0,1.2,1.0,1.0,1.0,1.0,0.8,0.8,0.8,0.2,0.4,1.2,1.2,0.0,0.0,0.0,0.0,0.0,0.0,0.0,0.0,2.0,0.0,0.0,0.0,1.0,0.8,0.0,0.0,0.0,0.0,15.4
Cosme de Farias,292740816A,Salvador,Salvador (Cosme de Farias) - 292740816A,-12.979402,-38.4855,Recôncavo,RPGA do Recôncavo Norte,0.0,0.4,5.5,6.1,1.2,0.0,2.2,0.0,0.8,0.0,0.0,0.0,0.0,0.2,0.2,0.0,0.0,0.0,0.0,0.0,0.0,1.0,11.4,0.0,0.0,0.0,2.2,1.0,0.0,0.0,0.0,32.2
São Caetano,292740814A,Salvador,Salvador (São Caetano) - 292740814A,-12.939678,-38.474667,Recôncavo,RPGA do Recôncavo Norte,0.0,3.0,9.9,10.7,0.4,0.2,12.4,0.0,0.0,0.0,0.0,0.0,0.0,0.0,0.0,0.0,0.0,0.0,0.0,0.2,0.0,5.1,6.7,0.0,3.5,1.6,0.2,0.0,0.0,0.0,0.0,53.91
Pirajá,292740801A,Salvador,Salvador (Pirajá) - 292740801A,-12.8994,-38.458833,Recôncavo,RPGA do Recôncavo Norte,0.2,0.2,0.2,0.2,0.0,0.4,0.2,0.2,0.4,0.0,0.2,0.4,0.0,0.0,0.0,0.0,0.0,0.0,0.0,0.0,0.0,9.3,0.0,0.0,1.6,0.6,0.0,0.0,0.0,0.0,0.0,14.1
Rio Sena,292740805A,Salvador,Salvador (Rio Sena) - 292740805A,-12.891344,-38.470778,Recôncavo,RPGA do Recôncavo Norte,0.0,4.7,11.4,16.3,4.8,0.2,3.2,0.0,0.0,1.4,0.0,0.0,0.0,0.0,0.0,0.0,0.0,0.0,0.0,0.0,0.0,2.0,5.9,0.0,0.0,0.8,6.3,0.0,0.0,0.0,0.0,57.0
Valéria,292740817A,Salvador,Salvador (Valéria) - 292740817A,-12.8644,-38.438276,Recôncavo,RPGA do Recôncavo Norte,0.0,0.0,14.6,8.5,0.0,3.2,0.6,0.0,0.0,0.6,0.0,0.0,1.8,0.0,0.0,0.0,0.0,0.0,0.0,0.6,0.0,2.4,0.0,0.0,4.3,0.0,1.0,0.0,0.0,0.0,0.0,37.6
Monte Serrat,292740804A,Salvador,Salvador (Monte Serrat) - 292740804A,-12.930789,-38.517167,Recôncavo,RPGA do Recôncavo Norte,0.0,5.5,9.6,6.3,0.4,0.0,20.6,0.0,0.0,0.0,0.0,0.0,0.0,0.0,0.0,0.0,0.0,1.2,0.0,0.0,0.0,1.6,13.6,0.0,0.0,0.8,5.3,1.8,0.0,0.0,0.0,66.7
Santa Terezinha,290650105A,Candeias,Candeias (Santa Terezinha) - 290650105A,-12.647172,-38.539112,Recôncavo,RPGA do Recôncavo Norte,0.0,0.0,1.6,5.7,0.0,1.0,8.3,0.0,0.0,0.0,0.0,0.0,0.0,0.0,0.0,0.0,0.0,0.2,0.0,0.0,0.0,3.8,0.0,0.0,0.0,0.0,0.6,0.0,0.0,0.0,0.0,21.21
Centro,290650101A,Candeias,Candeias (Centro) - 290650101A,-12.670229,-38.544112,Recôncavo,RPGA do Recôncavo Norte,0.0,1.0,2.0,0.0,0.0,3.0,20.2,0.0,0.0,0.0,0.0,0.0,0.0,0.0,0.0,0.0,0.0,0.0,0.0,0.0,0.0,6.3,0.0,0.0,0.0,1.8,1.8,0.0,0.0,0.0,0.0,36.1
Malemba,290650102A,Candeias,Candeias (Malemba) - 290650102A,-12.678285,-38.544112,Recôncavo,RPGA do Recôncavo Norte,3.4,0.2,0.2,0.0,0.0,3.2,10.0,6.2,0.8,0.0,0.0,0.0,0.0,0.0,0.0,0.0,0.0,0.0,0.0,0.0,0.0,2.8,0.0,0.0,0.0,1.2,3.8,0.0,0.0,0.0,0.0,31.8
Salvador,Itapuã - RN-CL-01,Salvador,Salvador - Itapuã - RN-CL-01,-12.931388,-38.361111,Recôncavo,RPGA do Recôncavo Norte,0.0,1.2,6.4,3.5,0.6,3.6,1.5,0.8,2.7,0.3,0.0,0.0,0.0,0.1,0.2,0.1,0.0,0.0,0.0,0.3,0.0,5.3,1.6,0.0,0.0,7.7,6.0,0.6,0.0,0.0,0.0,42.51
Santo Antônio,290650103A,Candeias,Candeias (Santo Antônio) - 290650103A,-12.678285,-38.536056,Recôncavo,RPGA do Recôncavo Norte,0.0,0.0,0.4,0.0,0.0,3.2,23.0,0.0,0.0,0.0,0.0,0.0,0.0,0.0,0.0,0.0,0.0,0.0,0.0,0.0,0.0,6.0,1.4,0.0,0.0,0.6,3.2,0.0,0.0,0.2,0.0,38.01
Sarandi,290650104A,Candeias,Candeias (Sarandi) - 290650104A,-12.671341,-38.531056,Recôncavo,RPGA do Recôncavo Norte,0.0,0.0,1.4,0.0,0.0,2.6,21.4,0.0,0.0,0.0,0.0,0.0,0.0,0.0,0.0,0.0,0.0,0.0,0.0,0.0,0.0,6.9,0.0,0.0,0.0,0.6,1.8,0.6,0.0,0.0,0.0,35.3
Areia Branca,291920706A,Lauro de Freitas,Lauro de Freitas (Areia Branca) - 291920706A,-12.841,-38.337,Recôncavo,RPGA do Recôncavo Norte,0.0,0.0,6.9,5.3,0.2,17.2,0.6,0.2,0.4,1.2,0.0,0.0,0.0,0.0,0.0,0.0,0.0,0.0,0.0,0.0,0.0,0.4,2.0,0.0,0.0,4.9,1.2,1.0,0.0,0.0,0.0,41.5
Itinga,291920703A,Lauro de Freitas,Lauro de Freitas (Itinga) - 291920703A,-12.892,-38.336,Recôncavo,RPGA do Recôncavo Norte,0.0,0.2,4.2,9.3,0.0,2.0,1.2,0.0,0.0,1.2,0.0,0.0,9.7,0.0,0.6,0.0,0.0,0.0,0.0,0.0,0.0,0.6,0.6,0.0,0.0,15.6,0.2,0.0,0.0,0.0,0.0,45.41
Portão,291920701A,Lauro de Freitas,Lauro de Freitas (Portão) - 291920701A,-12.87,-38.305,Recôncavo,RPGA do Recôncavo Norte,0.0,1.4,1.4,4.5,0.0,7.7,0.4,3.4,0.0,6.3,0.2,0.0,0.0,0.0,0.8,0.0,0.0,0.0,0.0,0.0,1.8,0.2,2.4,0.0,0.0,18.7,0.2,0.0,0.0,0.0,0.0,49.41
Rua 02 de Julho,291920705A,Lauro de Freitas,Lauro de Freitas (Rua 02 de Julho) - 291920705A,-12.839,-38.35,Recôncavo,RPGA do Recôncavo Norte,0.0,0.0,14.6,2.8,0.0,14.8,1.8,0.0,1.2,0.0,0.0,0.0,0.0,0.0,0.0,0.0,0.0,0.0,0.0,0.0,0.0,0.4,0.4,0.0,0.0,1.8,0.0,0.6,0.0,0.0,0.0,38.4
Muritiba,PG-PR-12,Muritiba,Muritiba - PG-PR-12,-12.617895,-39.005591,Recôncavo,RPGA do Rio Paraguaçu,0.0,0.0,1.75,0.0,0.5,0.0,8.0,0.0,0.0,0.0,0.0,0.0,0.0,0.0,0.0,0.0,0.0,3.25,0.0,0.0,0.0,0.0,0.0,0.0,1.0,0.25,2.25,0.5,0.0,0.0,0.0,17.5
Dois de Julho,291120401A,Gandú,Gandú (Dois de Julho) - 291120401A,-13.741357,-39.48303,Recôncavo,RPGA do Recôncavo Sul,0.2,0.0,5.7,9.5,0.0,0.4,5.3,0.2,0.0,0.0,0.0,0.0,0.0,2.4,0.2,2.0,0.2,1.6,1.6,0.0,0.0,9.2,0.0,0.0,0.0,0.0,8.3,0.0,0.0,0.0,0.0,46.8
Centro,292250801A,Nazaré,Nazaré (Centro) - 292250801A,-13.032,-39.015,Recôncavo,RPGA do Recôncavo Sul,0.0,4.7,6.3,1.8,1.0,5.3,0.0,0.0,0.0,2.4,0.0,0.0,0.0,3.6,0.0,0.0,0.0,0.0,0.0,0.0,0.0,11.2,0.2,0.0,0.0,1.6,4.0,0.0,0.0,0.0,0.0,42.1
Rua São Roque,293290301A,Valença,Valença (Rua São Roque) - 293290301A,-13.363,-39.078,Recôncavo,RPGA do Recôncavo Sul,0.0,2.2,15.0,2.0,0.2,20.3,0.2,0.2,4.2,5.3,0.0,0.2,0.0,1.6,2.2,0.2,0.0,10.7,0.0,0.8,0.8,0.0,7.3,0.0,0.8,2.4,0.2,2.4,8.7,0.2,0.0,88.11
Abaeté,RN-PR-01,Salvador,Salvador (Abaeté) - RN-PR-01,-12.945407,-38.361404,Recôncavo,RPGA do Recôncavo Norte,0.0,3.2,8.6,1.0,1.6,2.6,1.1,1.3,7.8,0.0,0.0,0.0,0.0,0.0,0.0,0.0,0.0,0.0,0.0,0.0,0.0,0.0,0.0,0.0,0.0,19.8,11.6,0.0,0.0,0.0,0.0,58.6
Espinheira,,Espinheira,Espinheira,-14.283478,-41.75792,Sudoeste,RPGA do Rio de Contas,0.0,0.0,0.0,0.0,0.0,0.0,0.0,0.0,0.0,0.0,0.0,0.0,0.0,0.0,0.0,0.0,0.0,0.0,0.0,0.0,0.0,1.75,12.0,0.0,0.0,0.25,0.0,0.0,0.0,0.0,0.0,14.0
Cândido Sales,53620000,Cândido Sales,Cândido Sales - 53620000,-15.512891,-41.236629,Sudoeste,RPGA do Rio Pardo,6.6,0.8,0.6,0.0,0.2,0.4,0.0,0.0,0.0,0.0,0.0,0.0,0.0,0.0,0.0,0.0,0.0,0.0,0.0,0.0,0.0,0.0,0.0,3.8,0.4,3.4,0.0,0.0,0.0,0.0,0.0,16.2
Itiruçu,A407,Itiruçu,Itiruçu - A407,-13.52629,-40.12055,Sudoeste,RPGA do Recôncavo Sul,0.0,0.0,5.8,8.6,0.8,0.6,34.6,0.2,0.0,0.0,0.0,0.0,0.0,0.4,0.0,0.0,0.0,0.0,0.2,0.0,0.0,0.0,6.8,0.0,0.0,0.0,0.0,0.0,0.0,0.0,0.0,58.0
Ituaçu,83292,Ituaçu,Ituaçu - 83292,-13.812778,-41.3,Sudoeste,RPGA do Rio de Contas,13.4,3.8,0.0,0.0,0.0,0.0,0.0,0.0,0.0,0.0,0.0,0.0,0.0,0.0,0.0,0.0,0.0,0.0,0.0,0.0,0.0,0.0,43.6,0.0,0.0,1.3,0.0,0.0,0.0,0.0,0.0,62.1
Vitória da Conquista,83344,Vitória da Conquista,Vitória da Conquista - 83344,-14.883333,-40.8,Sudoeste,RPGA do Rio Pardo,20.3,12.3,12.4,0.0,0.0,0.0,0.2,0.0,0.0,0.0,0.0,0.0,0.0,0.0,0.0,1.0,0.0,0.0,0.0,0.0,0.0,0.0,6.5,0.0,0.0,3.8,0.0,0.0,0.0,0.0,0.0,56.5
Jaguaquara,83295,Ituruçu,Ituruçu (Jaguaquara) - 83295,-13.527828,-40.119752,Sudoeste,RPGA do Recôncavo Sul,0.0,0.0,5.7,0.6,0.6,0.5,37.4,0.0,0.0,0.0,0.0,0.0,0.0,0.2,0.0,0.0,0.0,0.0,0.0,0.0,0.0,0.0,7.0,0.0,0.0,0.0,0.0,0.0,0.0,0.0,0.0,52.0
Brumado,A433,Brumado,Brumado - A433,-14.181886,-41.672281,Sudoeste,RPGA do Rio de Contas,0.2,0.0,0.0,0.0,0.0,0.0,0.0,0.0,0.0,0.0,0.0,0.0,0.0,0.0,0.0,0.0,0.0,0.0,0.0,0.0,0.0,2.8,6.8,0.0,0.0,0.8,0.0,0.0,0.0,0.0,0.0,10.61
Ipiaú,A445,Ipiaú,Ipiaú - A445,-14.171304,-39.692502,Sudoeste,RPGA do Rio de Contas,0.0,0.6,9.4,6.0,0.2,1.0,15.8,0.2,0.0,0.2,0.0,1.4,0.0,0.0,0.0,0.0,0.0,0.2,0.2,0.2,0.4,0.2,0.0,0.0,0.0,1.2,2.0,0.6,0.2,0.0,0.2,40.21
Itapetinga,A446,Itapetinga,Itapetinga - A446,-15.24462,-40.22955,Sudoeste,RPGA do Rio Pardo,20.2,0.6,9.2,2.4,0.0,0.8,4.2,0.0,0.0,0.0,0.0,0.0,0.0,0.0,0.0,0.0,0.0,0.0,0.0,0.0,0.0,0.0,0.0,0.0,8.8,2.8,0.2,0.0,0.0,0.0,0.0,49.2
Anagé,CO-CL-01,Anagé,Anagé - CO-CL-01,-14.618055,-41.149722,Sudoeste,RPGA do Rio de Contas,27.75,0.0,0.5,0.0,0.0,0.0,0.0,0.0,0.0,0.0,0.0,0.0,0.0,0.0,0.0,0.0,0.0,0.0,0.0,0.0,0.0,0.0,1.0,0.0,0.0,8.75,0.0,0.0,0.0,0.0,0.0,38.0
Planaltino,PG-PR-03,Planaltino,Planaltino - PG-PR-03,-13.259292,-40.373976,Sudoeste,RPGA do Recôncavo Sul,0.0,0.25,6.25,1.0,0.0,0.0,0.0,0.0,0.0,0.0,0.0,0.0,0.0,0.0,0.0,0.0,0.0,0.0,0.0,0.0,0.0,0.0,0.0,0.0,0.0,0.0,0.0,0.0,0.0,0.25,0.0,7.75
Centro,293330701A,Vitória da Conquista,Vitória da Conquista (Centro) - 293330701A,-14.852,-40.839,Sudoeste,RPGA do Rio Pardo,0.4,5.1,16.6,0.0,0.0,0.0,0.0,0.0,0.0,0.0,0.0,0.0,0.0,0.0,0.0,0.0,0.0,0.0,0.0,0.0,0.0,0.0,3.9,0.0,0.0,2.2,0.0,0.0,0.0,0.0,0.0,28.2
Centro,291710201A,Itororó,Itororó (Centro) - 291710201A,-15.119,-40.065,Sudoeste,RPGA do Leste,7.5,1.0,0.0,0.0,0.0,0.0,0.0,0.0,0.0,0.0,0.0,0.0,0.0,0.0,0.0,0.0,0.0,0.0,0.0,0.0,0.0,0.0,0.0,0.0,0.0,0.0,0.0,0.0,0.0,0.0,0.0,8.5
Clerolândia,291640101A,Itapetinga,Itapetinga (Clerolândia) - 291640101A,-15.243,-40.221,Sudoeste,RPGA do Rio Pardo,17.5,1.0,5.7,1.6,0.0,0.4,12.9,0.0,0.0,0.0,0.0,0.0,0.0,0.0,0.0,0.0,0.0,0.0,0.0,0.0,0.0,0.0,0.0,0.0,6.7,7.8,0.0,0.2,0.0,0.0,0.0,53.81
Recreio,293330702A,Vitória da Conquista,Vitória da Conquista (Recreio) - 293330702A,-14.861,-40.841,Sudoeste,RPGA do Rio Pardo,0.8,7.7,9.1,0.0,0.0,0.0,0.0,0.0,0.0,0.0,0.0,0.0,0.0,0.0,0.0,0.0,0.0,0.0,0.0,0.0,0.0,0.0,3.6,0.0,0.0,3.0,0.0,0.0,0.0,0.0,0.0,24.21
Patagônia,293330704A,Vitória da Conquista,Vitória da Conquista (Patagônia) - 293330704A,-14.87,-40.863,Sudoeste,RPGA do Rio Pardo,11.6,6.9,10.9,0.0,0.0,0.0,0.0,0.0,0.0,0.0,0.0,0.0,0.0,0.0,0.0,0.0,0.0,0.0,0.0,0.0,0.0,0.0,3.4,0.0,0.0,4.2,0.0,0.0,0.0,0.0,0.0,37.0
Barcelar,293330705A,Vitória da Conquista,Vitória da Conquista (Barcelar) - 293330705A,-14.838,-40.856,Sudoeste,RPGA do Rio Pardo,0.2,3.0,15.8,0.8,0.2,3.9,0.2,0.0,0.0,0.0,0.0,0.0,0.0,0.0,0.0,0.0,0.0,0.0,0.0,0.0,0.0,0.0,7.8,0.0,0.2,2.8,0.2,0.0,0.0,0.0,0.0,35.1
Lomantão,293330703A,Vitória da Conquista,Vitória da Conquista (Lomantão) - 293330703A,-14.87,-40.827,Sudoeste,RPGA do Rio Pardo,0.2,18.4,8.7,0.2,0.0,0.0,0.6,0.0,0.0,0.0,0.0,0.0,0.0,0.0,0.0,0.0,0.0,0.0,0.0,0.0,0.0,0.0,3.6,0.0,0.0,2.4,0.2,0.0,0.0,0.0,0.0,34.31
Jaguaquara,RS-CL-01,Jaguaquara,Jaguaquara - RS-CL-01,-13.573055,-39.940833,Sudoeste,RPGA do Recôncavo Sul,0.0,0.0,1.25,5.25,0.0,0.0,1.3,0.0,0.25,0.0,0.0,0.0,0.0,0.0,0.0,0.0,0.0,0.25,0.0,0.0,0.0,0.0,0.0,0.0,0.0,0.0,0.0,0.0,0.0,0.0,0.0,8.3
Jequié,CO-CL-03,Jequié,Jequié - CO-CL-03,-13.873055,-40.071944,Sudoeste,RPGA do Rio de Contas,0.0,0.0,19.5,8.5,3.0,0.0,2.0,0.0,0.0,0.0,0.0,0.0,0.0,0.25,0.0,0.0,0.0,0.0,0.0,0.0,0.0,0.0,0.0,0.0,0.0,0.0,0.0,0.0,0.0,0.0,0.0,33.25
Vitória da Conquista,PA-CL-01,Vitória da Conquista,Vitória da Conquista - PA-CL-01,-14.886111,-40.800833,Sudoeste,RPGA do Rio Pardo,20.2,13.75,13.0,0.0,0.0,0.0,0.0,0.0,0.0,0.0,0.0,0.0,0.0,0.0,0.0,0.0,0.0,0.0,0.0,0.0,0.0,0.0,6.0,0.0,0.0,3.0,0.0,0.0,0.0,0.0,0.0,55.95
Tremedal,CO-PR-03,Tremedal,Tremedal - CO-PR-03,-14.980998,-41.410135,Sudoeste,RPGA do Rio de Contas,4.75,2.25,4.25,0.0,0.0,0.0,0.0,0.0,0.0,0.0,0.0,0.0,0.0,0.0,0.0,0.0,0.0,0.0,0.0,0.0,0.0,0.0,0.0,0.0,0.0,0.25,0.0,0.0,0.0,0.0,0.25,11.75
Caravelas,A405,Caravelas,Caravelas - A405,-17.739413,-39.258617,Sul,"RPGA dos Rios Peruípe, Itanhém e Jucuruçu",0.2,0.2,5.2,6.0,0.2,4.6,11.2,0.0,0.0,0.0,0.0,0.0,0.0,0.0,0.0,0.0,0.0,4.6,0.8,1.4,4.0,3.6,0.0,62.6,8.0,2.4,0.0,0.2,0.2,0.0,0.0,115.4
Ilhéus,A410,Ilhéus,Ilhéus - A410,-14.658803,-39.181438,Sul,RPGA do Leste,0.0,14.2,0.6,13.0,0.2,5.4,2.2,0.0,0.2,0.2,10.2,0.0,0.4,1.4,3.4,0.0,0.0,0.0,6.6,0.2,16.8,0.0,0.2,0.2,0.4,0.0,1.0,0.2,0.0,0.0,0.2,77.21
Canavieiras,83398,Canavieiras,Canavieiras - 83398,-15.666667,-38.95,Sul,RPGA do Rio Pardo,0.0,7.5,0.0,9.3,2.8,1.2,11.2,0.0,0.0,0.0,0.0,0.0,0.0,5.4,0.0,2.8,0.0,0.0,3.6,0.0,0.0,0.0,2.9,0.0,9.1,11.1,0.0,0.0,0.0,0.0,0.0,66.9
Caravelas,83498,Caravelas,Caravelas - 83498,-17.739167,-39.258333,Sul,"RPGA dos Rios Peruípe, Itanhém e Jucuruçu",0.0,0.2,5.0,5.6,0.0,4.0,10.5,0.0,0.0,0.0,0.0,0.0,0.0,0.0,0.0,0.0,0.0,4.6,0.6,1.1,3.8,3.2,0.0,63.2,7.4,2.2,0.0,0.0,0.0,0.0,0.0,111.41
Guaratinga,83446,Guaratinga,Guaratinga - 83446,-16.58,-39.78,Sul,"RPGA dos Rios dos Frades, Buranhém e Santo Antônio",12.0,0.2,1.4,7.8,22.9,0.2,16.1,0.0,0.0,0.0,0.0,0.0,0.0,0.0,0.0,0.0,0.3,0.0,1.4,0.0,1.6,0.0,0.0,0.0,5.8,6.2,0.0,0.0,0.0,0.0,0.0,75.9
Maraú,A438,Maraú,Maraú - A438,-13.90694,-38.97222,Sul,RPGA do Recôncavo Sul,5.6,2.8,3.4,6.2,0.6,19.2,6.6,0.0,1.6,0.6,7.6,3.4,0.2,0.8,10.6,0.0,0.0,0.2,0.0,1.2,4.4,3.6,0.0,0.0,0.0,16.6,0.6,0.0,0.0,0.0,0.0,95.81
Una,A437,Una,Una - A437,-15.280215,-39.09127,Sul,RPGA do Leste,17.8,3.6,14.2,1.2,4.2,5.6,1.2,0.6,1.8,0.0,0.2,1.6,0.6,9.4,0.0,0.2,0.0,4.4,1.8,0.4,11.8,0.8,0.6,0.0,0.8,3.6,0.2,0.0,0.2,0.0,0.8,87.61
Abrolhos,A422,Caravelas,Caravelas (Abrolhos) - A422,-17.79052,-39.22789,Sul,"RPGA dos Rios Peruípe, Itanhém e Jucuruçu",30.6,0.0,0.0,2.0,6.6,1.6,8.4,0.0,0.0,2.2,0.0,0.6,0.0,0.0,0.0,0.2,0.0,0.0,0.0,2.2,2.6,2.4,0.0,9.0,0.0,0.0,0.0,0.0,0.0,0.0,0.0,68.4
CPLAC,LE-CL-01,Ilhéus,Ilhéus (CPLAC) - LE-CL-01,-14.80184,-39.181444,Sul,RPGA do Leste,0.25,13.5,3.25,0.0,0.75,5.5,0.0,0.0,0.0,0.25,0.75,3.5,0.0,8.25,1.25,0.25,0.25,0.0,28.5,0.0,12.75,0.0,0.0,0.0,0.0,0.0,0.25,0.0,0.0,0.0,0.0,79.25
Centro,290560201A,Camacan,Camacan (Centro) - 290560201A,-15.422225,-39.494984,Sul,RPGA do Rio Pardo,2.4,14.4,17.1,6.1,0.0,0.4,6.8,0.0,0.0,0.0,0.0,0.0,0.0,0.4,0.0,0.0,1.8,0.0,2.6,2.6,3.0,0.4,1.0,0.0,0.0,0.0,0.0,0.0,0.2,0.0,0.0,59.2
Teixeira de Freitas,PJ-CL-01,Teixeira de Freitas,Teixeira de Freitas - PJ-CL-01,-17.575555,-39.732777,Sul,"RPGA dos Rios Peruípe, Itanhém e Jucuruçu",10.75,23.5,2.0,0.0,1.75,3.0,9.5,0.0,0.0,0.0,0.0,0.0,0.0,0.0,0.0,0.0,0.0,0.0,0.0,21.75,0.0,0.0,0.0,46.5,8.5,11.0,0.0,0.0,0.0,0.0,0.0,138.25
Itabuna,Fazenda Barra,Itabuna,Itabuna - Fazenda Barra,-14.8997,-39.3686,Sul,RPGA do Leste,0.0,8.4,11.6,1.0,0.0,9.0,6.4,0.0,0.0,1.0,1.2,2.0,0.2,1.4,6.0,0.0,0.0,2.0,1.6,0.6,3.0,0.0,0.0,0.0,0.0,0.0,0.0,0.0,0.0,0.0,0.6,56.01
Centro,290340901A,Belmonte,Belmonte (Centro) - 290340901A,-15.859179,-38.878025,Sul,RPGA do Rio Jequitinhonha,1.4,2.4,54.9,6.7,0.0,7.5,10.8,0.0,0.0,0.0,0.4,0.0,0.0,0.2,0.0,1.8,0.0,0.0,0.0,0.0,0.6,9.9,0.4,0.0,0.2,1.8,0.6,0.0,0.0,0.0,0.0,99.6
Centro,290560203A,Camacan,Camacan (Centro) - 290560203A,-15.416389,-39.493873,Sul,RPGA do Rio Pardo,3.4,8.7,24.5,10.6,0.0,0.0,6.9,0.0,0.0,0.0,0.0,0.0,0.0,0.4,0.0,0.0,1.8,0.0,3.0,0.4,5.5,0.2,1.8,0.0,0.0,0.0,0.0,0.2,0.0,0.0,0.0,67.4
Conquista,291360601A,Ilhéus,Ilhéus (Conquista) - 291360601A,-14.797213,-39.04608,Sul,RPGA do Leste,5.1,15.8,3.9,0.2,1.4,14.4,1.0,0.2,1.0,0.8,1.2,0.6,0.0,0.6,1.8,0.0,0.0,17.4,3.0,1.2,1.4,0.2,1.0,0.0,0.0,0.0,0.0,0.0,0.0,0.2,0.0,72.41
Malhado,291360602A,Ilhéus,Ilhéus (Malhado) - 291360602A,-14.789158,-39.048858,Sul,RPGA do Leste,3.0,15.2,3.0,0.2,0.8,21.7,0.4,0.2,0.0,3.2,0.6,0.4,0.0,0.6,1.0,0.0,0.0,12.0,2.2,0.2,2.2,0.2,1.2,0.0,0.2,0.2,0.0,0.0,0.0,0.0,0.0,68.71
Planalto I,292110401A,Medeiros Neto,Medeiros Neto (Planalto I) - 292110401A,-17.365,-40.223,Sul,"RPGA dos Rios Peruípe, Itanhém e Jucuruçu",42.2,0.2,27.8,3.9,12.2,0.2,0.0,0.0,0.0,0.0,0.0,0.0,0.0,0.0,0.0,0.0,0.0,0.0,0.0,0.0,0.0,0.0,0.0,41.3,0.2,3.6,0.0,0.0,0.0,0.0,0.0,131.6
Centro,292300102A,Nova Viçosa,Nova Viçosa (Centro) - 292300102A,-17.893,-39.372,Sul,"RPGA dos Rios Peruípe, Itanhém e Jucuruçu",2.8,4.7,0.0,0.0,0.0,0.2,11.2,0.0,0.0,0.0,0.0,0.0,0.0,0.0,0.0,0.0,0.0,0.8,0.0,5.2,0.0,4.5,0.0,26.0,15.4,0.2,0.0,0.0,0.0,0.0,0.0,71.0
Posto da Mata,292300103A,Nova Viçosa,Nova Viçosa (Posto da Mata) - 292300103A,-17.896,-39.37,Sul,"RPGA dos Rios Peruípe, Itanhém e Jucuruçu",2.0,0.0,0.0,0.0,0.0,0.2,10.3,0.0,0.0,0.0,0.0,0.0,0.0,0.0,0.0,0.0,0.0,0.8,0.0,1.0,2.0,8.3,0.0,24.6,15.2,0.2,0.0,0.0,0.0,0.0,0.0,64.61
Paraguai,292530302A,Porto Seguro,Porto Seguro (Paraguai) - 292530302A,-16.41,-39.08,Sul,"RPGA dos Rios dos Frades, Buranhém e Santo Antônio",0.0,31.0,0.2,0.0,0.0,5.3,5.8,0.0,0.0,0.0,0.0,0.0,0.0,0.0,0.0,0.0,0.0,0.4,5.9,7.8,9.9,3.6,0.0,0.0,3.2,0.2,0.0,0.0,0.0,0.0,0.0,73.3
Trancoso,292530303A,Porto Seguro,Porto Seguro (Trancoso) - 292530303A,-16.595,-39.109,Sul,"RPGA dos Rios dos Frades, Buranhém e Santo Antônio",0.0,7.3,0.0,0.0,0.0,0.8,3.8,0.2,0.0,0.0,0.0,0.0,0.0,0.0,0.0,2.8,0.0,0.2,0.2,11.6,0.6,0.0,0.0,0.0,0.0,0.2,0.0,0.0,0.0,0.0,0.0,27.7
BR367km4,292770501A,Santa Cruz Cabrália,Santa Cruz Cabrália (BR367km4) - 292770501A,-16.321,-39.023,Sul,"RPGA dos Rios dos Frades, Buranhém e Santo Antônio",0.0,1.6,2.8,0.2,0.8,0.4,19.2,0.0,1.2,0.0,0.0,0.0,0.0,0.0,0.0,2.8,0.0,0.0,3.6,2.0,1.4,0.2,0.0,0.0,1.0,0.0,0.4,0.0,0.0,0.0,0.0,37.6
Santa Rita de Cássia,A415,Santa Rita de Cássia,Santa Rita de Cássia - A415,-11.002768,-44.524965,São Francisco,RPGA do Rio Grande,0.0,0.2,0.0,0.0,0.0,0.0,0.0,0.0,0.0,0.0,2.2,4.2,0.0,0.0,0.0,2.0,0.0,3.4,20.4,0.6,17.4,0.2,7.4,1.6,0.0,2.0,0.0,0.0,0.0,4.2,0.0,65.8
Bom Jesus da Lapa,83288,Bom Jesus da Lapa,Bom Jesus da Lapa - 83288,-13.251389,-43.405278,São Francisco,RPGA do Rio Carnaíba de Dentro,0.0,0.0,0.0,0.0,1.6,4.2,0.0,0.0,0.0,0.0,0.0,0.0,0.0,0.0,0.0,0.0,0.0,11.4,15.0,0.0,1.2,0.0,7.8,2.3,0.0,4.2,37.8,6.6,0.0,0.0,0.0,92.1
Caetité,83339,Caetité,Caetité - 83339,-14.066667,-42.483333,São Francisco,RPGA do Rio de Contas,8.8,0.0,1.8,0.0,0.0,0.0,0.0,0.0,0.0,0.0,0.0,0.0,0.0,0.0,0.0,0.0,0.0,0.0,10.6,0.0,0.0,9.4,7.4,2.2,0.0,2.4,0.0,0.0,0.0,0.0,0.0,42.6
Carinhanha,83408,Carinhanha,Carinhanha - 83408,-14.283333,-43.766667,São Francisco,"RPGA do Rio Corrente e Riachos do Ramalho, Serra Dourada e Brejo Velho",17.1,0.8,0.0,0.0,0.0,0.0,0.0,0.0,0.0,0.0,0.0,0.0,0.0,0.0,0.0,0.0,0.0,0.0,3.8,0.0,8.9,0.2,2.8,2.0,3.1,0.0,0.0,0.0,0.0,0.0,0.0,38.7
Santa Rita de Cássia,83076,Santa Rita de Cássia,Santa Rita de Cássia - 83076,-11.016667,-44.516667,São Francisco,RPGA do Rio Grande,0.0,0.1,0.0,0.0,0.0,0.0,0.0,0.0,0.0,0.0,2.2,4.5,0.0,0.0,0.0,2.2,0.0,3.5,21.4,0.7,19.0,0.0,7.6,1.4,0.0,2.2,0.0,0.0,0.0,4.4,0.0,69.2
Guanambí,A426,Guanambí,Guanambí - A426,-14.208123,-42.749647,São Francisco,RPGA do Rio Carnaíba de Dentro,25.8,10.2,0.0,0.0,0.0,0.0,0.0,0.0,0.0,0.0,0.0,0.0,0.0,0.0,0.0,0.0,0.0,0.0,26.8,0.0,0.0,13.4,10.8,0.4,0.0,0.0,0.0,0.0,0.0,0.0,0.0,87.4
Buritirama,A432,Buritirama,Buritirama - A432,-10.722925,-43.651203,São Francisco,RPGA do Rio Grande,34.2,1.2,0.0,0.0,0.0,0.0,0.2,0.0,0.0,0.0,0.0,0.0,0.0,0.0,0.0,0.0,0.0,9.6,2.0,1.8,2.2,19.0,1.4,9.4,0.2,16.0,13.8,0.0,0.0,0.0,0.0,111.01
Ibotirama,A439,Ibotirama,Ibotirama - A439,-12.19306,-43.21342,São Francisco,RPGA dos Rios Paramirim e Santo Onofre,0.0,1.6,0.0,0.0,0.0,0.0,0.0,0.8,0.0,0.0,0.0,0.0,0.0,0.0,0.0,0.0,0.0,1.2,7.2,26.8,0.0,12.4,30.8,2.0,0.0,0.2,0.0,0.8,10.2,0.0,0.0,94.0
Gentio do Ouro,,Gentio do Ouro,Gentio do Ouro,-11.42951,-42.513484,São Francisco,RPGA dos Rios Verde e Jacaré,0.4,0.0,0.0,0.0,0.0,0.0,0.0,0.0,0.0,0.0,0.0,0.0,0.0,0.0,0.0,0.0,0.0,1.2,0.4,0.0,0.0,0.8,2.2,9.0,0.0,0.0,0.0,0.0,0.0,0.0,0.0,14.0
Faz. Macambira,46675000,Cotegipe,Cotegipe (Faz. Macambira) - 46675000,-11.6106,-44.1567,São Francisco,RPGA do Rio Grande,5.6,0.4,1.2,0.2,0.0,0.0,1.4,0.2,1.2,0.0,0.0,0.0,0.0,0.0,0.0,0.0,0.0,11.4,5.6,12.0,65.8,1.6,0.0,1.8,0.2,0.0,0.0,0.0,0.0,1.6,0.0,110.2
Fz.P. Limpo,46870000,Mansidão,Mansidão (Fz.P. Limpo) - 46870000,-11.236845,-43.950633,São Francisco,RPGA do Rio Grande,41.0,0.4,0.0,0.0,0.0,0.0,0.2,0.0,6.8,0.0,10.2,0.4,0.0,0.0,0.0,0.0,0.0,8.6,24.2,82.6,6.8,36.8,0.2,0.6,0.0,5.4,0.0,0.0,0.0,4.0,0.0,228.2
Fazenda Caraíbas,,Fazenda Caraíbas,Fazenda Caraíbas,-12.571486,-42.074028,São Francisco,RPGA dos Rios Paramirim e Santo Onofre,4.0,0.0,0.0,0.0,0.0,0.0,0.0,0.0,0.0,0.0,0.0,0.0,0.0,0.0,0.0,3.4,0.0,0.0,0.0,0.0,0.0,1.4,14.8,0.2,0.0,0.0,0.0,0.0,0.0,2.6,0.0,26.41
Santa Rita C-Ibipetu-ANA_INEMA,,Santa Rita C-Ibipetu-ANA_INEMA,Santa Rita C-Ibipetu-ANA_INEMA,-11.007115,-44.525369,São Francisco,RPGA do Rio Grande,0.0,0.0,0.0,0.0,0.0,0.0,0.0,0.0,0.0,0.0,1.6,0.0,0.0,0.0,0.0,0.0,0.0,2.4,22.8,0.0,0.0,0.0,10.4,0.0,0.0,1.2,0.0,0.0,0.0,0.0,0.0,38.41
Fazenda Piabanha,,Fazenda Piabanha,Fazenda Piabanha,-14.59737,-42.38433,São Francisco,RPGA do Rio de Contas,4.75,2.25,4.25,0.0,0.0,0.0,0.0,0.0,0.0,0.0,0.0,0.0,0.0,0.0,0.0,0.0,0.0,0.0,0.0,0.0,0.0,0.0,0.0,0.0,0.0,0.25,0.0,0.0,0.0,0.0,0.25,11.75
