municipio,estacao,regiao,rpga,latitude,longitude,Janeiro,Fevereiro,Março,Abril,Maio,Junho,Julho,Agosto,Setembro,Outubro,Novembro,Dezembro
Barra do Mendes,Barra do Mendes - EBDA,Chapada Diamantina,RPGA dos Rios Verde e Jacaré,-11.817975,-42.06781,22.0,37.0,3.0,0.0,12.0,0.0,0.0,0.0,0.0,0.0,130.0,78.0
Cafarnaum,Cafarnaum - EBDA,Chapada Diamantina,RPGA dos Rios Verde e Jacaré,-11.684641,-41.484462,57.0,61.0,7.9,0.0,0.5,0.0,0.0,0.0,0.0,0.0,92.6,0.0
Canarana,Canarana - EBDA,Chapada Diamantina,RPGA dos Rios Verde e Jacaré,-11.684641,-41.751137,40.3,20.8,0.0,0.0,10.0,0.0,0.0,1.0,0.0,0.0,107.4,0.0
Andaraí,Andaraí - EBDA,Chapada Diamantina,RPGA do Rio Paraguaçu,-12.801332,-41.317795,0.0,20.0,0.0,0.0,34.0,21.0,7.0,0.0,0.0,0.0,170.0,0.0
Lençóis,Lençóis - A425,Chapada Diamantina,RPGA do Rio Paraguaçu,-12.557854,-41.388808,16.6,139.0,5.4,9.8,62.8,59.2,32.0,42.2,0.4,57.81,118.61,5.2
Piatã,Piatã (Fazenda Cruz) - PG-PR-20,Chapada Diamantina,RPGA do Rio Paraguaçu,-12.90705,-41.86708,15.0,12.75,40.0,0.75,16.5,1.25,3.5,4.5,0.0,6.5,69.75,8.5
Mucugê,Mucugê (Guiné) - PG-PR-24,Chapada Diamantina,RPGA do Rio Paraguaçu,-12.771772,-41.540679,5.5,44.25,2.0,6.0,43.75,14.75,10.0,15.75,0.25,0.0,65.5,19.25
Canarana,Canarana,Chapada Diamantina,RPGA dos Rios Verde e Jacaré,-11.69541,-41.78921,45.01,28.4,6.8,0.0,6.2,1.21,3.01,1.41,0.0,0.0,120.21,4.4
Piatã,Piatã - CO-CL-04,Chapada Diamantina,RPGA do Rio de Contas,-13.164166,-41.770833,44.0,45.5,2.0,13.5,47.0,20.75,43.75,75.0,0.5,3.25,168.5,37.75
Palmeiras,Palmeiras - EBDA,Chapada Diamantina,RPGA do Rio Paraguaçu,-12.46799,-41.617801,0.0,0.0,0.0,0.0,1.5,0.0,8.0,0.0,0.0,0.0,81.0,22.5
Itaberaba,Itaberaba - A408,Chapada Diamantina,RPGA do Rio Paraguaçu,-12.524062,-40.299714,8.0,22.8,5.81,7.61,19.2,31.0,24.2,26.21,1.4,5.4,35.8,1.41
Macajuba,Macajuba - A412,Chapada Diamantina,RPGA do Rio Paraguaçu,-12.131694,-40.354222,5.2,58.2,11.8,8.21,25.0,34.41,34.0,55.4,5.6,6.8,78.8,5.81
Itaberaba,Itaberaba - 83244,Chapada Diamantina,RPGA do Rio Paraguaçu,-12.516667,-40.283333,5.9,19.81,4.7,7.2,20.3,26.7,24.0,27.9,1.3,4.8,36.9,1.0
Lençóis,Lençóis - 83242,Chapada Diamantina,RPGA do Rio Paraguaçu,-12.5575,-41.388889,15.3,139.0,4.71,6.6,62.31,58.7,30.7,32.8,0.3,62.31,121.5,4.6
Morro do Chapéu,Morro do Chapéu - 83184,Chapada Diamantina,RPGA do Rio Salitre,-11.216667,-41.216667,36.01,57.9,12.5,0.1,25.0,19.0,20.6,30.1,0.61,1.9,145.0,24.2
Piatã,Piatã - A430,Chapada Diamantina,RPGA do Rio de Contas,-13.155681,-41.774125,47.0,87.2,2.2,26.6,60.41,38.2,73.01,117.21,3.61,9.6,162.4,44.81
Mundo Novo,Mundo Novo (Ibiaporã) - PG-CL-01,Chapada Diamantina,RPGA do Rio Paraguaçu,-12.05379,-40.83722,52.0,54.75,3.25,4.25,35.0,67.75,46.95,56.5,3.5,8.0,88.5,0.55
Marcionílio Souza,Marcionílio Souza - PG-CL-03,Chapada Diamantina,RPGA do Rio Paraguaçu,-13.00021,-40.537783,4.75,10.25,3.75,12.75,15.75,9.0,17.0,15.5,0.75,2.5,71.75,1.75
Tapiramutá,Tapiramutá - PG-PR-09,Chapada Diamantina,RPGA do Rio Paraguaçu,-11.838502,-40.791761,17.0,26.25,1.0,3.0,40.0,40.0,29.5,55.0,3.5,6.75,67.5,0.25
Coronel João Sá,Coronel João Sá - EBDA,Nordeste,RPGA do Rio Vaza-Barris,-10.284624,-37.917698,0.0,6.0,0.0,7.81,20.1,56.0,47.6,49.4,33.6,3.8,3.0,0.0
Abaré,Abaré - EBDA,Nordeste,RPGA dos Rios Macururé e Curaçá,-8.71792,-39.117725,0.0,38.7,14.7,0.0,6.5,0.0,11.5,0.0,0.0,0.0,5.0,0.0
Chorrochó,Chorrochó - EBDA,Nordeste,RPGA dos Rios Macururé e Curaçá,-8.984593,-39.101059,36.0,38.3,3.9,0.0,1.4,0.0,6.2,0.0,0.0,0.0,3.9,0.0
Cansanção,Cansanção - EBDA,Nordeste,RPGA do Rio Itapicuru,-10.66796,-39.501074,0.0,74.9,7.5,0.0,0.0,4.5,11.3,16.21,7.3,0.0,29.71,0.0
Paulo Afonso,Paulo Afonso - A411,Nordeste,RPGA dos Rios Macururé e Curaçá,-9.379325,-38.227424,0.2,67.81,1.4,4.0,22.2,24.0,62.4,42.0,20.0,4.6,9.6,0.0
Cipó,Cipó - 83192,Nordeste,RPGA do Rio Itapicuru,-11.083333,-38.516667,8.3,63.91,13.7,1.5,22.0,18.6,45.7,56.11,33.1,13.3,27.9,1.2
Jacobina,Jacobina - 83186,Nordeste,RPGA do Rio Itapicuru,-11.172778,-40.534167,5.5,87.5,9.71,4.3,19.01,19.9,20.41,41.2,3.0,0.0,102.11,12.71
Monte Santo,Monte Santo - 83090,Nordeste,RPGA do Rio Itapicuru,-10.4425,-39.331111,1.3,10.3,1.0,0.2,13.91,19.3,35.0,49.5,14.0,2.4,68.6,1.0
Paulo Afonso,Paulo Afonso - 82986,Nordeste,RPGA dos Rios Macururé e Curaçá,-9.379325,-38.227424,0.0,57.5,0.0,0.0,18.4,20.31,41.0,27.4,14.9,1.6,9.5,0.0
Serrinha,Serrinha - 83190,Nordeste,RPGA do Recôncavo Norte,-11.633333,-38.966667,9.4,18.01,4.6,10.9,30.8,46.2,44.5,49.7,27.2,11.5,57.1,0.0
Conde,Conde - A431,Nordeste,RPGA do Rio Itapicuru,-12.03622,-37.68322,72.2,69.81,38.2,27.6,224.41,167.0,172.0,110.6,43.4,44.2,33.01,17.2
Uauá,Uauá - A435,Nordeste,RPGA do Rio Vaza-Barris,-9.833617,-39.495631,6.0,25.4,0.0,0.8,12.8,3.0,9.8,18.8,3.2,0.6,13.6,4.6
Euclides da Cunha,Euclides da Cunha - A442,Nordeste,RPGA do Rio Itapicuru,-10.537233,-38.996605,5.2,38.41,3.2,2.81,26.6,34.0,75.6,79.6,25.2,8.8,41.0,7.8
Queimadas,Queimadas - A436,Nordeste,RPGA do Rio Itapicuru,-10.984645,-39.617009,10.4,34.8,13.0,0.4,123.4,28.4,50.2,80.21,13.6,2.41,53.41,15.0
Jacobina,Jacobina - A440,Nordeste,RPGA do Rio Itapicuru,-11.205136,-40.464979,1.4,104.4,13.41,6.6,32.81,44.4,24.0,47.2,4.0,5.4,105.01,11.4
Serrinha,Serrinha - A441,Nordeste,RPGA do Rio Paraguaçu,-11.664586,-39.022946,11.21,10.0,2.81,9.2,38.41,52.8,45.21,56.0,31.0,11.6,48.61,0.8
Canudos,Canudos - EBDA - EBDA,Nordeste,RPGA do Rio Vaza-Barris,-9.897945,-39.027448,4.0,104.0,0.0,0.0,0.0,0.0,0.0,0.0,0.0,0.0,0.0,0.0
Ipirá,Ipirá - PG-CL-02,Nordeste,RPGA do Rio Paraguaçu,-12.14986,-39.76454,5.25,33.0,31.0,11.25,24.0,40.1,65.2,80.99,10.5,5.5,131.0,0.0
Serrinha,Serrinha - RN-CL-02,Nordeste,RPGA do Recôncavo Norte,-11.648333,-38.982777,9.0,35.75,5.5,11.0,48.0,54.5,39.75,53.25,18.0,4.0,125.0,6.5
Caém,Caém - IT-PR-35,Nordeste,RPGA do Rio Itapicuru,-11.093399,-40.437579,2.0,41.0,10.0,0.75,29.5,45.75,27.0,61.5,11.0,2.75,38.0,4.25
Jacobina,Jacobina (Tombador Araújo) - IT-PR-36,Nordeste,RPGA do Rio Itapicuru,-11.168677,-40.670642,12.0,45.25,6.5,2.5,16.5,22.5,15.25,25.25,3.5,0.0,129.0,0.75
Candeal,Candeal - EBDA,Nordeste,RPGA do Rio Paraguaçu,-11.80132,-39.117735,0.0,0.0,0.0,0.0,36.0,35.3,37.7,32.4,10.0,9.9,83.7,0.0
Cipó,Cipó - EBDA,Nordeste,RPGA do Rio Itapicuru,-11.101305,-38.517717,0.0,76.0,16.2,0.5,22.3,17.0,40.4,59.0,40.6,8.8,49.4,0.0
Antas,Antas - EBDA,Nordeste,RPGA do Rio Vaza-Barris,-10.401293,-38.334375,0.0,50.0,11.0,0.0,52.0,20.0,68.0,77.0,45.0,0.0,15.0,0.0
Cícero Dantas,Cícero Dantas - EBDA,Nordeste,RPGA do Rio Real,-10.584629,-38.384377,0.0,50.0,22.0,1.5,63.0,33.5,77.0,115.5,58.6,8.5,20.0,2.0
Adustina,Adustina - EBDA,Nordeste,RPGA do Rio Vaza-Barris,-10.534629,-38.117704,0.0,12.8,2.7,0.0,80.5,38.6,94.5,80.0,0.0,31.7,0.0,0.0
Andorinha,Andorinha - EBDA,Nordeste,RPGA do Rio Itapicuru,-10.33462,-39.834414,3.2,40.5,6.0,0.0,18.5,4.5,16.0,23.0,0.0,0.0,51.5,1.5
Caldeirão Grande,Caldeirão Grande - EBDA,Nordeste,RPGA do Rio Itapicuru,-11.017965,-40.301095,30.0,7.0,0.0,0.0,28.0,39.0,52.0,0.0,0.0,55.0,70.0,30.0
Casa Nova,Casa Nova - EBDA,Norte,RPGA do Lago de Sobradinho,-9.08459,-40.617764,4.0,57.0,29.5,0.0,0.0,0.0,0.0,0.0,0.0,0.0,51.0,21.5
Central,Central - EBDA,Norte,RPGA dos Rios Verde e Jacaré,-11.151293,-42.11781,73.0,42.5,10.1,0.0,1.0,0.0,0.0,0.0,0.0,37.5,112.0,5.5
Ibipeba,Ibipeba - EBDA,Norte,RPGA dos Rios Verde e Jacaré,-11.634638,-42.034476,44.4,62.1,0.0,0.0,0.0,0.0,0.0,0.0,0.0,22.0,147.3,20.9
Ibititá,Ibititá - EBDA,Norte,RPGA dos Rios Verde e Jacaré,-11.523108,-41.976085,40.0,30.0,2.0,0.0,30.0,0.0,0.0,0.0,0.0,36.1,131.2,4.0
Irecê,Irecê - EBDA,Norte,RPGA dos Rios Verde e Jacaré,-11.317966,-41.867804,32.0,83.7,0.0,0.0,14.4,0.0,0.6,0.6,0.0,78.5,166.71,6.9
João Dourado,João Dourado - EBDA,Norte,RPGA dos Rios Verde e Jacaré,-11.334633,-41.651131,50.0,54.0,0.0,0.0,0.0,0.0,0.0,0.0,0.0,0.0,63.5,21.0
Jussara,Jussara - EBDA,Norte,RPGA do Rio Salitre,-11.051296,-40.96778,40.0,38.0,0.0,0.0,5.5,0.0,0.0,0.0,0.0,0.0,66.0,3.5
Lapão,Lapão - EBDA,Norte,RPGA dos Rios Verde e Jacaré,-11.367966,-41.817803,35.4,38.0,1.0,0.0,0.0,0.0,0.0,0.0,0.0,0.0,111.2,5.7
Presidente Dutra,Presidente Dutra - EBDA,Norte,RPGA dos Rios Verde e Jacaré,-11.284632,-41.651131,25.5,62.2,6.8,0.0,19.2,0.0,0.0,0.0,0.0,0.0,151.1,9.4
Uibaí,Uibaí - EBDA,Norte,RPGA dos Rios Verde e Jacaré,-11.334632,-42.134477,38.4,100.1,9.0,0.0,24.2,0.0,0.0,0.0,0.0,0.0,131.5,4.5
Remanso,Remanso - A423,Norte,RPGA do Lago de Sobradinho,-9.625693,-42.077214,9.2,77.8,16.4,0.0,0.0,0.0,0.0,0.2,0.0,0.0,105.8,23.8
Irecê,Irecê - A424,Norte,RPGA dos Rios Verde e Jacaré,-11.328998,-41.864504,51.6,77.0,0.6,0.0,5.4,0.0,3.6,0.4,0.0,0.0,123.4,35.2
América Dourada,América Dourada - EBDA,Norte,RPGA dos Rios Verde e Jacaré,-11.384635,-41.584464,35.0,25.0,0.0,0.0,0.0,0.0,0.0,0.0,0.0,0.0,63.0,8.0
São Gabriel,São Gabriel - EBDA,Norte,RPGA dos Rios Verde e Jacaré,-11.134629,-41.867803,64.0,58.0,0.0,0.0,12.0,0.0,0.0,0.0,0.0,0.0,155.0,8.0
Irecê,Irecê - 83182,Norte,RPGA dos Rios Verde e Jacaré,-11.3,-41.866667,38.8,91.9,0.0,0.0,10.6,1.2,0.8,0.0,0.0,0.0,156.0,12.8
Umburanas,Umburanas (Delfino) - A443,Norte,RPGA do Rio Salitre,-10.45492,-41.206996,44.2,46.81,9.2,0.0,4.0,15.0,3.2,11.2,3.0,0.0,73.4,40.6
Juazeiro,Juazeiro - Est. Exp. Caraíbas - EBDA,Norte,RPGA dos Rios Macururé e Curaçá,-9.418208,-40.510817,0.0,15.0,0.0,0.0,0.0,0.0,0.0,0.0,0.0,0.0,28.0,46.0
Irecê,Irecê - VJ-CL-01,Norte,RPGA dos Rios Verde e Jacaré,-11.289166,-41.894166,60.25,57.0,0.25,0.0,7.75,0.0,0.25,0.5,0.0,0.0,157.75,5.73
Taquarendi,Taquarendi,Norte,RPGA do Rio Salitre,-10.893669,-40.687028,30.6,9.0,9.6,0.0,3.81,11.0,5.4,16.2,2.0,0.0,51.21,1.2
Barreiras,Barreiras (Form. Rio Preto) - 46550000,Oeste,RPGA do Rio Grande,-11.154444,-45.009166,107.51,57.7,47.41,6.11,9.8,1.2,0.0,0.0,0.6,15.7,286.0,34.3
Formosa do Rio Preto,Formosa do Rio Preto (COACERAL) - GR-CL-02,Oeste,RPGA do Rio Grande,-10.561944,-45.693333,82.25,112.25,146.25,79.5,17.0,0.0,0.0,0.0,0.0,6.5,311.5,1.75
São Desidério,São Desidério - R. Velha - GR-CL-01,Oeste,RPGA do Rio Grande,-12.898055,-46.157222,72.25,101.5,57.25,92.0,19.5,0.25,0.0,0.0,0.0,21.5,426.0,54.75
Ponte do Fortunato,Ponte do Fortunato,Oeste,RPGA do Rio Carinhanha,-14.642348,-45.503045,125.5,10.5,72.0,12.75,22.5,0.0,0.0,0.0,4.25,5.0,206.25,64.5
Barreiras,Barreiras - 83236,Oeste,RPGA do Rio Grande,-12.155556,-45.007778,110.6,64.9,46.7,3.81,5.8,1.1,0.0,0.0,0.2,15.3,298.9,35.2
Conceição da Feira,Conceição da Feira - EBDA,Recôncavo,RPGA do Recôncavo Norte,-12.501335,-39.001068,11.0,12.5,12.5,10.5,84.0,50.1,39.5,123.5,50.0,6.5,109.0,0.0
Salvador,Salvador (Ondina) - 83229,Recôncavo,RPGA do Recôncavo Norte,-13.005278,-38.505833,35.7,70.9,74.7,48.81,411.5,170.2,162.51,137.4,30.7,73.61,35.5,10.7
Salvador,Salvador - CIA,Recôncavo,RPGA do Recôncavo Norte,-12.865789,-38.365219,46.5,73.0,77.0,124.1,550.5,144.5,136.0,224.1,33.5,45.5,27.6,19.0
Salvador,Salvador (Abaeté) - RN-PR-01,Recôncavo,RPGA do Recôncavo Norte,-12.945407,-38.361404,46.7,72.0,36.1,56.0,368.6,94.9,108.31,103.01,27.8,51.6,39.0,3.2
Cruz das Almas,Cruz das Almas - A406,Recôncavo,RPGA do Rio Paraguaçu,-12.675422,-39.08958,25.6,52.41,17.2,53.21,73.81,109.4,96.2,134.0,48.0,34.81,50.41,11.0
Salvador,Salvador - Canabrava,Recôncavo,RPGA do Recôncavo Norte,-12.924122,-38.429942,36.41,49.1,76.8,99.2,521.3,136.51,175.4,169.21,29.41,38.9,48.2,13.61
Salvador,Salvador - Inema -Monte Serrat,Recôncavo,RPGA do Recôncavo Norte,-12.930789,-38.517167,28.41,58.3,51.3,56.31,457.21,122.41,141.9,132.1,40.11,81.4,85.2,24.8
Salvador,Salvador - 19 BC,Recôncavo,RPGA do Recôncavo Norte,-12.961069,-38.461056,23.6,18.7,86.2,85.01,550.31,151.9,230.91,124.1,26.11,28.9,70.2,10.9
Salvador,Salvador - Base Naval/SSN,Recôncavo,RPGA do Recôncavo Norte,-12.796341,-38.489389,17.6,80.7,43.0,76.61,279.6,89.7,78.0,93.01,24.7,90.3,49.01,0.0
Salvador,Salvador - Ilha Amarela,Recôncavo,RPGA do Recôncavo Norte,-12.891344,-38.470778,23.7,71.61,105.7,47.7,415.51,121.61,148.4,196.9,80.31,85.5,36.6,18.3
Alagoinhas,Alagoinhas - 83249,Recôncavo,RPGA do Recôncavo Norte,-12.148333,-38.425556,10.0,50.6,12.6,24.1,124.0,72.1,73.61,95.9,45.3,31.9,57.4,0.3
Cruz das Almas,Cruz das Almas - 83222,Recôncavo,RPGA do Rio Paraguaçu,-12.666667,-39.083333,33.4,53.4,15.9,53.6,73.8,115.1,99.3,135.3,48.41,32.5,55.91,11.0
Amargosa,Amargosa - A434,Recôncavo,RPGA do Recôncavo Sul,-13.009468,-39.616881,14.0,68.01,20.8,33.4,41.2,78.0,85.81,117.0,13.8,52.21,55.41,3.2
Candeias,Candeias - EMBASA,Recôncavo,RPGA do Recôncavo Norte,-12.663561,-38.533,16.6,54.81,29.1,80.3,285.0,130.11,52.1,89.0,14.4,43.7,84.3,6.61
Dias D´Ávila,Dias D´Ávila - EMBASA,Recôncavo,RPGA do Recôncavo Norte,-12.620505,-38.315217,30.15,60.89,25.75,66.17,413.3,181.45,118.03,161.22,80.9,88.12,60.95,0.5
Simões Filho,Simões Filho (Joanes II) - 322,Recôncavo,RPGA do Recôncavo Norte,-12.674147,-38.376254,27.8,64.51,37.1,49.6,369.6,134.3,102.1,109.6,53.81,54.91,60.1,5.4
Salvador,Salvador - Itapuã - RN-CL-01,Recôncavo,RPGA do Recôncavo Norte,-12.931388,-38.361111,39.1,55.0,55.9,88.6,490.41,130.3,156.7,151.3,29.81,42.8,46.2,11.3
Amargosa,Amargosa - EBDA,Recôncavo,RPGA do Recôncavo Sul,-13.034677,-39.601086,10.0,3.0,15.0,63.5,50.3,110.0,125.0,143.9,11.0,62.0,73.4,0.0
Castro Alves,Castro Alves - EBDA,Recôncavo,RPGA do Rio Paraguaçu,-12.751338,-39.434413,10.5,0.0,0.0,0.0,35.0,87.1,32.0,78.0,0.0,10.0,124.5,0.0
Aramari,Aramari - EBDA,Recôncavo,RPGA do Recôncavo Norte,-12.08466,-38.501053,7.8,26.4,3.6,3.2,117.61,68.6,55.0,78.61,36.6,10.8,108.2,0.0
Catu,Catu - EBDA,Recôncavo,RPGA do Recôncavo Norte,-12.351333,-38.384384,0.0,25.0,0.0,37.5,200.2,80.0,52.5,149.5,12.5,74.0,36.0,0.0
Brumado,Brumado - EBDA,Sudoeste,RPGA do Rio de Contas,-14.201356,-41.651143,57.2,0.0,40.0,0.0,26.6,0.0,0.0,0.0,0.0,0.0,78.8,13.3
Jaguaquara,Jaguaquara - RS-CL-01,Sudoeste,RPGA do Recôncavo Sul,-13.573055,-39.940833,14.5,64.25,8.0,18.0,42.25,55.25,51.0,115.25,19.25,60.5,46.25,1.0
Jequié,Jequié - CO-CL-03,Sudoeste,RPGA do Rio de Contas,-13.873055,-40.071944,27.25,27.25,3.5,9.25,15.5,14.75,4.75,59.5,14.5,38.25,73.5,6.0
Vitória da Conquista,Vitória da Conquista - PA-CL-01,Sudoeste,RPGA do Rio Pardo,-14.886111,-40.800833,18.5,26.75,12.5,1.25,25.5,19.0,14.0,49.25,4.75,47.75,370.25,2.5
Vitória da Conquista,Vitória da Conquista - A414,Sudoeste,RPGA do Rio Pardo,-14.886428,-40.80133,19.2,24.2,12.6,1.2,28.0,18.8,17.8,53.6,7.61,49.0,344.8,3.8
Ituaçu,Ituaçu - 83292,Sudoeste,RPGA do Rio de Contas,-13.812778,-41.3,6.1,17.6,5.2,0.8,32.31,9.3,9.7,16.8,2.5,0.0,187.3,3.7
Vitória da Conquista,Vitória da Conquista - 83344,Sudoeste,RPGA do Rio Pardo,-14.883333,-40.8,17.3,29.3,12.21,1.71,30.2,22.2,18.0,55.31,6.7,48.4,258.41,4.0
Brumado,Brumado - A433,Sudoeste,RPGA do Rio de Contas,-14.181886,-41.672281,33.41,15.8,36.6,0.0,38.6,7.01,2.81,12.2,1.0,0.61,96.61,5.01
Tremedal,Tremedal - EBDA,Sudoeste,RPGA do Rio de Contas,-14.977207,-41.411976,76.0,7.5,25.0,0.0,0.0,0.0,0.0,0.0,0.0,0.0,155.0,0.0
Camacã,Camacã,Sul,RPGA do Leste,-15.418059,-39.051083,109.61,104.5,60.0,25.0,110.3,78.5,77.6,86.4,52.5,44.7,169.6,16.5
Coaraci,Coaraci,Sul,RPGA do Leste,-14.634708,-39.551092,159.9,153.21,44.41,16.6,58.31,64.4,41.6,144.0,29.1,90.51,91.1,0.0
Camacã,Camacã (Fz Nanci) - 53880000,Sul,RPGA do Rio Pardo,-15.581395,-39.521095,83.0,81.0,73.0,24.0,79.0,67.0,64.0,117.0,38.0,45.0,189.0,4.0
Caravelas,Caravelas - A405,Sul,"RPGA dos Rios Peruípe, Itanhém e Jucuruçu",-17.739413,-39.258617,52.0,57.81,265.0,148.0,263.4,139.2,109.61,156.0,83.4,167.61,382.41,15.8
Canavieiras,Canavieiras - 83398,Sul,RPGA do Rio Pardo,-15.666667,-38.95,93.2,102.5,171.5,55.41,224.9,164.1,169.0,199.2,137.01,82.4,178.2,23.1
Caravelas,Caravelas - 83498,Sul,"RPGA dos Rios Peruípe, Itanhém e Jucuruçu",-17.739167,-39.258333,37.41,50.4,187.0,107.81,192.21,112.4,79.21,123.4,67.9,126.51,310.1,13.6
Maraú,Maraú - A438,Sul,RPGA do Recôncavo Sul,-13.90694,-38.97222,76.2,214.21,130.8,185.21,348.6,304.4,122.2,157.8,34.4,91.4,42.0,37.2
Una,Una - A437,Sul,RPGA do Leste,-15.280215,-39.09127,121.61,153.8,83.01,47.81,182.0,2.4,1.8,149.6,64.01,137.6,128.0,15.4
Eunápolis,Eunápolis - FB-CL-01,Sul,"RPGA dos Rios dos Frades, Buranhém e Santo Antônio",-16.290555,-39.579722,138.75,32.75,98.5,32.5,114.8,20.31,24.35,115.0,56.5,68.0,249.75,3.0
Ilhéus,Ilhéus (CPLAC) - LE-CL-01,Sul,RPGA do Leste,-14.80184,-39.181444,110.0,126.5,124.0,37.75,103.25,108.25,94.5,219.25,29.5,131.0,115.75,25.0
Teixeira de Freitas,Teixeira de Freitas - PJ-CL-01,Sul,"RPGA dos Rios Peruípe, Itanhém e Jucuruçu",-17.575555,-39.732777,53.1,55.5,96.0,51.25,113.75,50.5,59.0,118.75,38.25,98.0,197.0,3.0
Angical,Angical (SEDE) - EBDA,São Francisco,RPGA do Rio Grande,-12.001302,-44.684543,84.6,31.7,64.5,0.0,3.0,0.0,0.0,0.0,0.0,4.0,329.0,51.0
Baianópolis,Baianópolis (SEDE) - EBDA,São Francisco,RPGA do Rio Grande,-12.301308,-44.53454,119.0,99.0,76.0,12.0,16.0,0.0,0.0,0.0,0.0,12.0,279.41,37.2
Bom Jesus da Lapa,Bom Jesus da Lapa - EBDA,São Francisco,RPGA do Rio Carnaíba de Dentro,-13.251329,-43.417851,45.31,30.5,50.6,0.4,21.2,0.0,0.0,0.0,0.0,5.5,281.7,0.0
Carinhanha,Carinhanha - EBDA,São Francisco,"RPGA do Rio Corrente e Riachos do Ramalho, Serra Dourada e Brejo Velho",-14.301347,-43.767864,75.5,18.8,45.41,0.0,0.0,0.0,0.0,0.0,0.0,0.0,360.0,8.2
Barra,Barra - EBDA,São Francisco,RPGA do Rio Grande,-11.084623,-43.151167,39.5,8.3,67.5,0.0,1.0,0.0,0.0,0.0,0.0,0.0,113.4,3.4
Gentio do Ouro,Gentio do Ouro - EBDA,São Francisco,RPGA dos Rios Verde e Jacaré,-11.417965,-42.501152,36.7,27.7,5.4,0.0,19.4,1.8,4.5,4.5,0.0,111.4,113.61,18.4
Xique-Xique,Xique-Xique - EBDA,São Francisco,RPGA dos Rios Paramirim e Santo Onofre,-10.817951,-42.717822,14.6,70.8,6.0,0.0,0.0,0.0,0.0,0.0,0.0,0.0,136.1,123.0
Brotas de Macaúbas,Brotas de Macaúbas - EBDA,São Francisco,RPGA dos Rios Paramirim e Santo Onofre,-12.001308,-42.617825,51.4,42.1,2.1,8.3,18.5,0.0,0.0,0.0,0.0,0.0,300.21,22.9
Caetité,Caetité - EBDA,São Francisco,RPGA do Rio de Contas,-14.068017,-42.484498,70.5,56.0,12.5,0.0,8.0,0.0,0.0,0.0,0.0,0.0,500.0,46.0
Morpará,Morpará - 46360000,São Francisco,RPGA dos Rios Paramirim e Santo Onofre,-11.5583,-43.2825,11.0,86.0,27.0,16.0,11.0,0.0,0.0,0.0,0.0,5.0,175.0,39.0
Santa Rita de Cássia,Santa Rita de Cássia - A415,São Francisco,RPGA do Rio Grande,-11.002768,-44.524965,6.4,81.6,4.6,64.6,5.0,0.0,0.0,0.0,0.0,20.0,216.6,97.4
Barra,Barra - 83179,São Francisco,RPGA do Rio Grande,-11.083333,-43.166667,36.6,30.7,69.9,0.3,4.0,0.0,0.0,0.0,0.0,0.0,119.5,27.8
Bom Jesus da Lapa,Bom Jesus da Lapa - 83288,São Francisco,RPGA do Rio Carnaíba de Dentro,-13.251389,-43.405278,48.6,35.91,48.2,0.0,33.7,2.2,0.0,0.0,0.0,15.4,293.8,1.2
Caetité,Caetité - 83339,São Francisco,RPGA do Rio de Contas,-14.066667,-42.483333,51.4,53.2,11.9,0.0,11.61,10.5,12.1,12.7,3.0,0.4,454.91,45.91
Santa Rita de Cássia,Santa Rita de Cássia - 83076,São Francisco,RPGA do Rio Grande,-11.016667,-44.516667,70.81,86.61,4.2,71.6,5.2,0.0,0.0,0.0,0.0,21.4,236.7,105.2
Guanambí,Guanambí - A426,São Francisco,RPGA do Rio Carnaíba de Dentro,-14.208123,-42.749647,82.2,125.4,43.6,0.0,1.0,0.6,0.4,1.6,0.0,1.0,272.8,10.61
Buritirama,Buritirama - A432,São Francisco,RPGA do Rio Grande,-10.722925,-43.651203,13.0,1.2,0.4,0.0,0.0,0.0,0.0,0.0,0.2,9.4,92.4,52.6
Barra,Barra - A429,São Francisco,RPGA do Rio Grande,-11.084858,-43.138998,44.8,38.81,83.8,0.6,6.4,0.0,0.0,0.0,0.0,0.0,145.01,33.4
Ibotirama,Ibotirama - A439,São Francisco,RPGA dos Rios Paramirim e Santo Onofre,-12.19306,-43.21342,32.8,65.01,45.81,11.8,27.4,0.0,2.0,0.0,0.0,0.2,222.21,57.6
Boquira,Boquira - EBDA,São Francisco,RPGA dos Rios Paramirim e Santo Onofre,-12.801323,-42.801167,83.0,30.0,0.0,0.0,0.0,0.0,0.0,0.0,0.0,2.0,194.0,15.0
Botuporã,Botuporã - EBDA,São Francisco,RPGA dos Rios Paramirim e Santo Onofre,-13.301335,-42.551164,27.0,40.8,41.5,0.0,16.6,0.0,0.0,0.0,0.0,16.4,270.9,35.7
Caetité,Caetité - CD-CL-01,São Francisco,RPGA do Rio Carnaíba de Dentro,-13.96659,-42.60482,46.25,68.75,15.0,0.0,7.0,2.5,0.25,5.25,0.0,1.5,395.56,32.75
Fazenda Piabanha,Fazenda Piabanha,São Francisco,RPGA do Rio de Contas,-14.59737,-42.38433,52.75,28.5,88.25,0.0,6.75,3.5,1.25,4.75,0.25,23.25,367.5,28.75
