nome_estacao,codigo,municipio,estacao,latitude,longitude,regiao,rpga,01_02_20,02_02_20,03_02_20,04_02_20,05_02_20,06_02_20,07_02_20,08_02_20,09_02_20,10_02_20,11_02_20,12_02_20,13_02_20,14_02_20,15_02_20,16_02_20,17_02_20,18_02_20,19_02_20,20_02_20,21_02_20,22_02_20,23_02_20,24_02_20,25_02_20,26_02_20,27_02_20,28_02_20,29_02_20,total
Itaberaba,A408,Itaberaba,Itaberaba - A408,-12.524062,-40.299714,Chapada Diamantina,RPGA do Rio Paraguaçu,1.6,0.0,0.0,1.2,0.2,0.0,8.0,0.0,0.2,0.6,0.0,0.0,0.0,0.0,0.8,0.2,0.0,0.2,0.0,0.0,0.4,0.0,0.0,1.4,0.0,1.4,0.0,0.0,1.6,17.8
Macajuba,A412,Macajuba,Macajuba - A412,-12.131694,-40.354222,Chapada Diamantina,RPGA do Rio Paraguaçu,0.0,0.0,0.0,0.0,0.0,0.0,0.0,0.0,0.0,0.0,0.0,0.0,0.0,0.0,0.0,0.0,0.0,0.0,0.0,0.0,0.0,0.0,0.0,0.0,0.0,0.0,0.0,0.2,0.0,0.2
Lençóis,83242,Lençóis,Lençóis - 83242,-12.5575,-41.388889,Chapada Diamantina,RPGA do Rio Paraguaçu,0.0,0.0,1.9,21.3,2.0,0.0,0.0,1.4,0.5,0.0,0.0,0.0,0.0,0.0,0.0,1.0,0.0,0.5,5.8,3.9,0.0,0.0,0.0,0.0,0.0,0.0,0.0,0.0,0.0,38.3
Morro do Chapéu,83184,Morro do Chapéu,Morro do Chapéu - 83184,-11.216667,-41.216667,Chapada Diamantina,RPGA do Rio Salitre,0.0,0.0,0.0,0.2,0.0,0.0,0.0,0.0,3.8,0.0,0.0,0.0,0.0,0.0,0.0,0.0,0.0,0.0,0.0,19.6,0.0,0.0,0.0,0.0,0.0,0.0,0.0,0.0,7.0,30.6
Piatã,A430,Piatã,Piatã - A430,-13.155681,-41.774125,Chapada Diamantina,RPGA do Rio de Contas,0.0,0.6,0.0,19.2,2.2,0.0,0.0,0.0,0.6,0.0,0.0,0.0,0.0,0.0,0.0,3.8,0.2,0.0,0.4,0.0,0.0,0.2,13.6,0.0,0.8,0.4,0.0,0.0,0.0,42.0
Livramento de Nossa Senhora,291950401U,Livramento de Nossa Senhora,Livramento de Nossa Senhora - 291950401U,-13.682872,-41.841236,Chapada Diamantina,RPGA do Rio de Contas,0.0,0.0,0.0,13.4,0.8,0.0,0.0,0.0,0.2,42.0,0.0,0.0,0.0,0.0,0.0,0.2,0.0,0.0,0.2,0.0,0.0,0.0,0.0,4.2,1.0,0.0,0.0,0.0,0.0,62.01
Iaçu,51280000,Iaçu,Iaçu - 51280000,-12.7622,-40.2136,Chapada Diamantina,RPGA do Rio Paraguaçu,0.0,0.0,0.0,6.6,6.6,0.0,0.0,0.0,0.0,0.0,0.0,0.0,0.0,0.0,0.0,0.0,0.0,0.0,3.0,0.0,0.0,0.0,0.0,0.0,0.0,0.0,0.0,0.0,0.0,16.2
Lençóis,A425,Lençóis,Lençóis - A425,-12.557854,-41.388808,Chapada Diamantina,RPGA do Rio Paraguaçu,0.0,0.0,2.0,20.2,2.0,0.0,0.0,1.4,0.6,0.0,0.0,0.0,0.0,0.0,0.0,1.0,0.0,0.6,6.4,4.0,0.0,0.0,0.0,0.0,0.0,0.0,0.0,0.0,0.0,38.2
Itaetê,,Itaetê,Itaetê,-12.991944,-40.960833,Chapada Diamantina,RPGA do Rio Paraguaçu,0.0,0.0,0.0,0.0,806.2,0.0,0.0,0.0,0.0,0.0,0.0,0.0,0.0,0.0,0.2,1.0,0.0,0.0,0.0,0.6,2.8,0.6,0.0,0.0,0.4,2.8,0.0,0.0,0.0,814.6
Lagoa Bonita,PG-PR-15,Iacú,Iacú (Lagoa Bonita) - PG-PR-15,-12.931506,-40.226468,Chapada Diamantina,RPGA do Rio Paraguaçu,0.0,0.0,0.0,0.0,2.2,0.0,0.0,4.8,0.0,1.8,0.0,0.0,0.0,0.0,0.8,0.0,0.0,0.0,0.0,0.0,0.0,0.0,0.0,0.0,0.2,0.0,0.0,0.0,0.0,9.8
João Amaro,PG-PR-16,Iaçu,Iaçu (João Amaro) - PG-PR-16,-12.800391,-40.363139,Chapada Diamantina,RPGA do Rio Paraguaçu,0.0,0.0,0.0,1.8,11.6,0.0,0.0,0.0,0.0,0.0,0.0,0.0,0.0,0.0,0.0,0.0,0.0,0.0,0.0,0.0,0.6,0.0,0.0,0.0,0.0,0.0,0.0,0.0,0.0,14.0
Guiné,PG-PR-24,Mucugê,Mucugê (Guiné) - PG-PR-24,-12.771772,-41.540679,Chapada Diamantina,RPGA do Rio Paraguaçu,0.0,0.0,0.0,32.0,44.6,15.0,0.0,1.8,0.4,0.4,0.0,0.0,0.0,0.0,0.0,0.0,0.0,0.4,0.2,0.0,0.0,0.0,0.0,0.0,0.4,0.0,0.0,0.0,0.0,95.21
Machado Portela,PG-PR-26,Marcionílio Souza,Marcionílio Souza (Machado Portela) - PG-PR-26,-13.153732,-40.768155,Chapada Diamantina,RPGA do Rio Paraguaçu,0.0,0.0,0.0,0.0,4.0,0.0,0.0,0.0,0.0,8.0,0.0,0.0,0.0,0.0,0.2,0.0,0.2,0.0,0.0,7.8,0.0,0.0,0.0,0.0,1.4,0.0,0.0,0.0,0.0,21.6
Fazenda Cachoeira,PM-FD-01,Érico Cardoso,Érico Cardoso (Fazenda Cachoeira) - PM-FD-01,-13.424562,-42.162095,Chapada Diamantina,RPGA dos Rios Paramirim e Santo Onofre,0.0,0.0,0.0,19.8,6.8,0.0,0.0,1.6,23.2,9.2,0.0,0.0,0.0,0.0,0.0,37.8,0.0,0.0,2.6,1.6,15.4,0.0,0.0,4.0,0.0,1.0,0.0,0.0,10.0,133.0
Rio do Pires,PM-CL-04,Rio do Pires,Rio do Pires - PM-CL-04,-13.11695,-42.28411,Chapada Diamantina,RPGA dos Rios Paramirim e Santo Onofre,0.0,0.0,13.4,1.6,1.2,0.0,16.2,0.0,3.4,19.6,11.8,0.0,0.0,0.0,0.0,1.0,0.0,0.0,0.0,0.0,0.0,12.0,0.0,0.2,0.0,1.0,0.0,0.0,0.0,81.4
Seabra,PG-CL-09,Seabra,Seabra - PG-CL-09,-12.39971,-41.78893,Chapada Diamantina,RPGA do Rio Paraguaçu,0.0,0.3,7.2,11.3,1.0,12.9,6.0,15.4,12.0,0.0,0.0,0.0,0.2,0.0,0.0,0.0,0.0,0.0,0.2,0.6,0.0,0.0,0.0,0.0,0.4,0.4,0.0,0.0,0.0,67.9
Iaçu,PG-CL-05,Iaçu,Iaçu - PG-CL-05,-12.9114,-40.03177,Chapada Diamantina,RPGA do Rio Paraguaçu,0.0,0.0,0.0,0.2,2.6,0.0,0.6,0.0,0.2,0.0,0.0,0.0,0.0,0.0,0.8,0.0,0.0,0.0,0.0,0.0,0.0,0.0,0.0,0.0,0.4,0.4,0.0,0.0,0.0,5.21
Ibiaporã,PG-CL-01,Mundo Novo,Mundo Novo (Ibiaporã) - PG-CL-01,-12.05379,-40.83722,Chapada Diamantina,RPGA do Rio Paraguaçu,0.1,0.0,8.3,24.3,3.6,11.8,6.3,15.1,4.7,0.1,0.1,0.0,3.0,5.1,3.8,0.0,0.6,8.2,4.2,1.0,0.0,11.4,0.0,0.0,0.3,0.0,1.1,0.0,1.2,114.3
Marcionílio Souza,PG-CL-03,Marcionílio Souza,Marcionílio Souza - PG-CL-03,-13.00021,-40.537783,Chapada Diamantina,RPGA do Rio Paraguaçu,0.8,0.0,11.5,3.3,0.6,1.8,2.0,6.6,5.0,0.0,0.0,0.0,3.2,0.2,0.6,0.1,0.9,5.8,5.8,2.4,3.2,0.0,2.1,2.9,0.9,0.0,2.2,0.0,0.0,61.91
Mucugê,PG-PR-28,Mucugê,Mucugê - PG-PR-28,-13.07667,-41.43772,Chapada Diamantina,RPGA do Rio Paraguaçu,0.0,0.0,0.0,71.0,5.2,0.0,0.0,0.0,0.0,0.0,0.0,0.0,0.0,0.0,0.0,0.0,0.0,0.0,0.0,0.0,0.0,0.0,0.0,0.0,0.0,0.0,0.0,0.0,0.0,76.2
Seabra,PG-PR-01,Seabra,Seabra - PG-PR-01,-12.428149,-41.770409,Chapada Diamantina,RPGA do Rio Paraguaçu,0.0,0.0,0.0,5.0,107.0,0.0,0.0,0.2,0.0,0.4,0.0,0.0,0.0,0.0,0.0,0.0,0.0,0.0,0.0,0.2,0.0,0.0,0.0,0.0,0.4,0.2,0.0,0.0,0.0,113.41
Baixa Grande,PG-PR-08,Baixa Grande,Baixa Grande - PG-PR-08,-11.908701,-40.183683,Chapada Diamantina,RPGA do Rio Paraguaçu,0.0,0.0,7.8,80.4,0.4,0.0,0.0,0.0,0.0,0.0,0.0,0.0,0.0,0.0,1.6,0.2,0.0,0.0,2.6,0.0,0.0,0.0,0.0,0.0,0.0,0.0,0.0,0.0,2.0,95.0
Ventura,PG-PR-10,Morro do Chapéu,Morro do Chapéu (Ventura) - PG-PR-10,-11.650911,-40.951765,Chapada Diamantina,RPGA do Rio Paraguaçu,0.0,0.0,0.0,0.0,0.0,0.0,0.0,0.0,2.0,0.0,0.0,0.0,0.0,0.0,0.0,0.0,0.0,0.2,0.0,4.0,0.0,0.0,0.0,0.0,0.0,0.0,0.0,0.0,0.0,6.2
Bonito,PG-PR-11,Bonito,Bonito - PG-PR-11,-11.98993,-41.25429,Chapada Diamantina,RPGA do Rio Paraguaçu,0.0,0.0,0.0,0.4,4.4,2.0,0.0,0.0,0.4,0.4,0.0,0.0,0.0,0.0,0.0,0.0,0.0,1.8,6.4,0.0,0.0,0.0,0.0,0.0,0.0,0.0,0.0,0.0,0.0,15.81
Cafarnaum,290530501C,Cafarnaum,Cafarnaum - 290530501C,-11.745086,-41.497934,Chapada Diamantina,RPGA dos Rios Verde e Jacaré,0.0,0.0,0.0,0.0,0.0,0.0,0.0,2.8,0.0,0.0,0.0,0.0,0.0,0.0,0.0,0.0,0.0,0.0,0.0,0.0,0.0,0.0,0.4,0.2,0.0,0.0,0.0,0.0,0.6,4.0
Piatã,CO-CL-04,Piatã,Piatã - CO-CL-04,-13.164166,-41.770833,Chapada Diamantina,RPGA do Rio de Contas,0.0,0.0,0.0,18.75,4.25,0.0,0.0,0.0,0.5,0.0,0.0,0.0,0.0,0.0,0.0,2.75,0.0,0.0,1.25,0.0,0.0,0.5,0.25,0.0,1.5,0.0,0.0,0.0,0.0,29.75
PC Ponte Rio Capivari,51326200,Itaberaba,Itaberaba (PC Ponte Rio Capivari) - 51326200,-12.51429,-39.93422,Chapada Diamantina,RPGA do Rio Paraguaçu,0.0,0.0,0.0,0.8,0.0,0.0,0.0,0.0,2.4,0.4,0.0,0.0,0.0,0.0,0.0,0.0,0.0,0.8,0.0,0.0,0.0,0.0,0.0,0.0,1.2,0.0,0.0,0.0,0.0,5.61
Itaberaba,291470301C,Itaberaba,Itaberaba - 291470301C,-12.457663,-40.201519,Chapada Diamantina,RPGA do Rio Paraguaçu,0.0,0.0,0.0,0.0,0.0,0.0,0.0,0.0,4.4,1.4,0.0,0.0,0.0,0.0,3.4,0.0,0.0,1.2,0.4,0.0,0.0,0.0,0.0,0.0,0.0,0.0,0.0,0.0,0.0,10.8
Utinga,293280401C,Utinga,Utinga - 293280401C,-12.0756,-41.102466,Chapada Diamantina,RPGA do Rio Paraguaçu,0.0,0.0,0.0,7.6,19.0,0.2,0.0,0.0,4.2,4.4,0.0,0.0,0.0,0.0,0.0,8.6,0.0,3.2,0.8,8.8,0.0,0.0,0.0,0.0,0.2,0.0,0.0,0.0,0.0,57.0
Barro Alto,290323501C,Barro Alto,Barro Alto - 290323501C,-11.811728,-41.901164,Chapada Diamantina,RPGA dos Rios Verde e Jacaré,0.0,0.0,0.0,5.8,0.0,0.2,7.8,0.0,0.0,0.0,0.0,0.0,0.0,0.0,0.0,0.0,0.0,0.0,9.4,0.0,0.0,5.8,10.4,0.0,0.0,0.0,0.0,4.8,0.0,44.2
Chorrochó,290770701C,Chorrochó,Chorrochó - 290770701C,-8.98354,-39.11837,Nordeste,RPGA dos Rios Macururé e Curaçá,0.0,0.0,5.0,1.4,1.8,48.6,0.0,18.8,0.0,0.0,0.0,0.0,0.0,4.4,0.0,0.0,0.0,0.0,0.0,0.0,3.8,0.0,0.0,0.0,0.0,0.0,0.0,0.0,4.8,88.61
Rodelas,292710101C,Rodelas,Rodelas - 292710101C,-8.85236,-38.76462,Nordeste,RPGA dos Rios Macururé e Curaçá,0.0,0.0,0.2,0.2,0.2,0.2,0.0,0.2,0.2,0.0,0.0,0.0,0.0,0.0,0.0,0.0,0.0,0.0,0.0,0.0,2.2,0.2,0.2,0.0,0.0,0.0,0.0,0.0,0.0,3.81
Jacobina,83186,Jacobina,Jacobina - 83186,-11.172778,-40.534167,Nordeste,RPGA do Rio Itapicuru,0.0,0.0,0.0,0.0,3.0,0.0,0.0,1.9,0.0,0.0,0.0,0.0,0.4,4.0,3.4,0.0,0.0,0.1,13.2,0.0,0.0,0.0,0.0,0.0,0.0,0.0,0.0,0.0,0.0,26.0
Ladeira Vermelha,291750801A,Jacobina,Jacobina (Ladeira Vermelha) - 291750801A,-11.161707,-40.554213,Nordeste,RPGA do Rio Itapicuru,0.0,0.0,0.0,0.2,1.8,0.2,0.0,1.0,0.2,0.0,0.0,0.0,2.0,0.0,0.8,0.2,0.0,0.0,4.8,0.0,0.0,0.0,0.0,0.0,0.0,0.0,0.0,0.0,0.0,11.2
Monte Santo,83090,Monte Santo,Monte Santo - 83090,-10.4425,-39.331111,Nordeste,RPGA do Rio Itapicuru,0.0,0.0,0.0,0.5,8.3,2.0,3.5,10.6,0.8,0.0,0.0,0.0,0.0,0.0,0.0,0.0,0.0,0.0,22.0,0.0,0.0,12.0,0.0,0.0,0.0,0.0,0.0,0.0,0.0,59.7
Feliz Tomaz,291750802A,Jacobina,Jacobina (Feliz Tomaz) - 291750802A,-11.174316,-40.517837,Nordeste,RPGA do Rio Itapicuru,0.0,0.0,0.0,0.2,11.4,0.0,0.0,0.0,0.0,0.0,0.0,0.0,1.8,4.2,2.4,0.2,0.0,0.8,12.0,0.0,0.0,0.0,0.0,0.4,0.0,0.0,0.0,0.0,0.4,33.8
Conde,A431,Conde,Conde - A431,-12.03622,-37.68322,Nordeste,RPGA do Rio Itapicuru,0.2,0.0,0.0,0.0,0.0,8.6,8.8,0.0,0.0,0.0,0.0,0.0,3.8,0.0,5.6,1.0,2.0,1.4,0.0,5.8,0.0,0.0,0.0,0.0,0.0,3.4,0.0,0.0,0.0,40.6
Uauá,A435,Uauá,Uauá - A435,-9.833617,-39.495631,Nordeste,RPGA do Rio Vaza-Barris,0.0,0.0,17.0,11.8,3.0,9.2,0.0,0.4,1.2,0.0,0.0,0.0,0.0,0.0,0.0,0.0,0.0,0.0,6.2,0.0,20.0,0.0,0.0,0.0,0.0,0.0,0.0,0.0,0.0,68.81
Euclides da Cunha,A442,Euclides da Cunha,Euclides da Cunha - A442,-10.537233,-38.996605,Nordeste,RPGA do Rio Itapicuru,0.0,0.0,1.6,0.0,8.8,0.0,0.0,4.4,0.0,0.0,1.0,0.0,0.0,18.0,0.0,0.0,0.0,0.0,8.6,0.0,3.4,0.2,0.0,0.0,0.0,0.0,0.0,0.0,0.0,46.0
Queimadas,A436,Queimadas,Queimadas - A436,-10.984645,-39.617009,Nordeste,RPGA do Rio Itapicuru,0.0,0.0,10.4,4.0,21.4,9.0,4.4,0.8,0.0,0.0,19.8,0.0,0.0,0.0,0.0,0.0,0.0,0.0,0.4,0.0,0.0,0.0,0.0,0.0,0.0,0.0,0.0,0.0,0.0,70.2
Jacobina,A440,Jacobina,Jacobina - A440,-11.205136,-40.464979,Nordeste,RPGA do Rio Itapicuru,0.2,0.0,0.2,0.6,0.4,0.0,0.0,0.0,0.2,0.0,0.0,0.0,0.0,0.0,0.0,0.0,0.0,0.0,0.0,0.0,0.0,0.0,0.0,0.2,0.0,0.0,0.0,0.0,0.0,1.8
Heliópolis,291185701C,Heliópolis,Heliópolis - 291185701C,-10.67348,-38.32726,Nordeste,RPGA do Rio Real,0.0,0.0,0.0,0.0,11.4,8.0,4.8,0.0,0.0,0.0,0.0,0.0,2.8,0.0,0.4,0.0,0.0,2.8,0.0,0.0,44.6,8.0,0.0,0.0,0.0,0.0,0.0,0.0,0.0,82.8
Serrinha,A441,Serrinha,Serrinha - A441,-11.664586,-39.022946,Nordeste,RPGA do Rio Paraguaçu,0.0,0.0,0.0,53.2,0.0,0.2,0.0,0.2,0.0,0.0,0.0,0.0,0.0,0.0,1.4,0.0,0.0,15.6,0.0,7.2,0.6,0.0,0.0,0.0,0.0,0.2,0.0,0.0,0.0,78.61
Senhor do Bonfim,A428,Senhor do Bonfim,Senhor do Bonfim - A428,-10.443072,-40.148244,Nordeste,RPGA do Rio Itapicuru,0.0,0.0,0.0,0.0,0.0,2.0,14.0,0.4,0.0,0.0,0.0,0.0,0.0,0.0,0.0,0.0,0.0,0.2,1.4,0.2,0.0,0.0,0.0,0.0,0.0,0.0,0.0,0.0,0.0,18.2
Pedras Altas,50430000,Capim Grosso,Capim Grosso (Pedras Altas) - 50430000,-11.18288,-40.04725,Nordeste,RPGA do Rio Itapicuru,0.0,0.0,0.4,29.0,2.0,0.0,0.0,0.0,0.0,2.4,0.0,0.0,0.0,0.0,5.4,0.0,0.0,0.0,0.0,0.0,0.0,0.0,0.0,0.0,0.0,0.0,0.0,0.0,0.0,39.2
Ponto Novo,50380000,Ponto Novo,Ponto Novo - 50380000,-10.845,-40.1128,Nordeste,RPGA do Rio Itapicuru,0.0,0.0,35.4,3.4,12.6,11.0,3.6,0.8,0.2,0.0,0.0,0.0,0.0,0.0,0.6,0.2,0.0,0.0,0.2,2.2,0.0,0.0,0.0,0.0,0.0,0.0,0.0,0.0,0.0,70.2
Capim Grosso,IT-CL-03,Capim Grosso,Capim Grosso - IT-CL-03,-11.36833,-40.03417,Nordeste,RPGA do Rio Itapicuru,0.1,0.1,3.6,25.7,10.0,11.7,2.9,8.2,0.4,0.1,0.0,0.1,2.3,4.2,0.0,0.0,0.3,28.4,0.0,1.4,0.0,0.0,0.0,0.0,0.0,0.0,0.0,0.0,0.0,99.5
Pé de Serra,PG-CL-07,Pé de Serra,Pé de Serra - PG-CL-07,-11.83676,-39.65905,Nordeste,RPGA do Rio Paraguaçu,0.0,0.0,0.0,70.6,0.8,0.0,0.0,0.0,0.8,0.0,0.0,0.0,0.0,0.0,0.0,0.0,0.0,0.0,0.0,0.0,0.0,0.0,0.0,0.0,0.0,0.0,0.0,0.0,0.0,72.2
Caldas do Jorro,IT-CL-05,Tucano,Tucano (Caldas do Jorro) - IT-CL-05,-11.03477,-38.80386,Nordeste,RPGA do Rio Itapicuru,0.0,0.0,0.0,27.0,3.4,4.0,0.0,0.0,0.0,0.0,2.4,0.0,0.0,13.0,2.8,0.0,0.0,1.4,0.6,0.0,0.0,15.4,0.0,0.0,0.0,0.0,0.0,0.0,6.2,76.2
Saúde,IT-CL-04,Saúde,Saúde - IT-CL-04,-10.95669,-40.38329,Nordeste,RPGA do Rio Itapicuru,0.0,0.0,0.0,4.6,7.8,12.8,0.0,6.6,5.4,0.0,0.0,0.0,0.0,0.0,0.0,0.0,0.0,0.6,0.0,0.0,0.0,0.0,0.0,0.0,0.0,0.0,0.0,0.0,0.0,37.8
Lajinha,IT-CL-06,Várzea do Poço,Várzea do Poço (Lajinha) - IT-CL-06,-11.4964,-40.34474,Nordeste,RPGA do Rio Itapicuru,0.0,0.0,0.0,21.8,0.6,0.0,0.0,0.0,18.0,0.0,0.0,0.0,0.0,0.0,2.2,0.8,0.0,27.2,0.8,0.0,0.0,0.0,0.0,0.0,0.0,0.0,0.0,0.0,0.0,71.4
Cipó,IT-FR-24,Cipó,Cipó - IT-FR-24,-11.0975,-38.5125,Nordeste,RPGA do Rio Itapicuru,0.0,0.0,0.0,0.0,0.0,0.6,0.2,0.0,0.0,0.0,4.2,0.0,0.0,0.0,0.0,0.0,0.0,0.0,0.0,0.0,0.0,5.4,0.0,0.0,0.0,0.0,0.0,0.0,1.4,11.8
Centro,293010501A,Senhor do Bonfim,Senhor do Bonfim (Centro) - 293010501A,-10.464,-40.19,Nordeste,RPGA do Rio Itapicuru,0.0,0.0,0.0,0.0,1.38,0.4,10.43,2.3,0.6,0.0,0.0,0.0,0.0,0.0,0.0,0.0,0.0,0.0,0.0,0.0,0.0,0.0,0.0,0.0,0.0,0.0,0.0,0.0,0.0,15.11
Itapeipu,IT-PR-34,Jacobina,Jacobina (Itapeipu) - IT-PR-34,-11.315629,-40.356742,Nordeste,RPGA do Rio Itapicuru,0.0,0.0,0.0,17.4,1.0,0.0,0.0,0.0,0.0,0.0,0.0,0.0,0.0,0.0,0.2,0.0,0.0,3.0,0.6,0.0,0.0,0.0,0.0,0.0,0.0,0.0,0.0,0.0,0.0,22.2
Caém,IT-PR-35,Caém,Caém - IT-PR-35,-11.093399,-40.437579,Nordeste,RPGA do Rio Itapicuru,0.0,0.0,0.4,3.6,1.2,0.0,0.0,1.6,0.0,0.0,0.0,0.0,0.0,0.0,9.0,0.0,0.0,0.6,0.4,0.2,0.0,0.0,0.0,0.0,0.0,0.0,0.0,0.0,0.0,17.0
Tombador Araújo,IT-PR-36,Jacobina,Jacobina (Tombador Araújo) - IT-PR-36,-11.168677,-40.670642,Nordeste,RPGA do Rio Itapicuru,0.0,0.0,0.0,0.0,0.0,0.0,0.0,1.2,0.0,0.0,0.2,0.0,0.2,0.0,0.0,0.0,0.0,0.2,1.0,0.0,0.0,0.0,0.0,0.0,0.0,0.0,0.0,0.0,0.0,2.8
Carrapichel,IT-PR-37,Senhor do Bonfim,Senhor do Bonfim (Carrapichel) - IT-PR-37,-10.388101,-40.220067,Nordeste,RPGA do Rio Itapicuru,0.2,0.4,0.0,0.2,0.2,0.2,0.2,0.2,0.2,0.2,0.2,0.0,0.2,0.0,0.0,0.0,0.0,0.2,0.0,0.0,0.0,0.0,0.0,0.0,0.0,0.0,0.0,0.0,0.0,2.6
Santaluz,IT-PR-17,Santaluz,Santaluz - IT-PR-17,-11.24831,-39.37563,Nordeste,RPGA do Rio Itapicuru,0.0,0.0,12.0,35.6,2.4,0.2,1.6,0.0,0.0,0.0,4.6,0.0,0.0,0.0,2.8,0.0,0.0,2.2,0.0,0.0,0.0,0.0,0.0,0.0,0.0,0.0,0.0,0.0,0.0,61.41
Ambrósio,IT-PR-19,Cansanção,Cansanção (Ambrósio) - IT-PR-19,-10.986458,-39.237813,Nordeste,RPGA do Rio Itapicuru,0.0,0.0,12.0,6.8,0.4,2.4,14.2,0.6,0.0,0.0,0.0,0.0,0.0,5.4,0.0,0.0,0.0,0.0,0.0,0.0,0.0,0.0,0.0,0.0,0.0,0.0,0.0,0.0,0.0,41.8
Cansanção,IT-PR-20,Cansanção,Cansanção - IT-PR-20,-10.702836,-39.543932,Nordeste,RPGA do Rio Itapicuru,0.0,0.0,0.0,0.2,13.8,0.0,0.0,2.0,0.0,0.0,0.0,0.0,0.0,0.0,0.0,0.0,0.0,0.0,3.8,0.0,0.0,0.0,0.0,0.0,0.0,0.0,0.0,0.0,0.0,19.8
Ribeira do Amparo,A458,Ribeira do Amparo,Ribeira do Amparo - A458,-11.058722,-38.444028,Nordeste,RPGA do Rio Itapicuru,0.0,0.0,0.0,0.0,0.0,0.0,7.4,3.0,0.0,0.0,3.6,0.0,0.0,0.0,0.0,0.0,0.0,0.8,0.0,0.0,0.6,25.0,5.6,1.6,0.0,0.0,0.0,0.0,6.2,53.81
Quijingue,IT-PR-25,Quijingue,Quijingue - IT-PR-25,-10.783951,-39.20809,Nordeste,RPGA do Rio Itapicuru,0.0,0.0,0.0,1.4,43.0,2.8,0.4,0.0,2.0,0.0,6.8,0.0,0.0,2.4,0.0,0.0,0.0,0.0,0.0,0.0,0.0,0.0,0.0,0.0,0.0,0.0,0.0,0.0,0.0,58.8
Inhambupe,RN-CL-10,Inhambupe,Inhambupe - RN-CL-10,-11.69267,-38.31361,Nordeste,RPGA do Recôncavo Norte,8.6,0.2,0.0,0.0,0.0,12.4,1.6,8.8,0.0,0.0,1.0,0.0,0.0,0.0,0.0,0.0,0.0,9.6,1.2,0.0,0.0,21.2,0.0,1.0,0.0,0.0,0.0,0.0,0.0,65.61
Curral Falso,IT-PR-01,Ribeira do Pombal,Ribeira do Pombal (Curral Falso) - IT-PR-01,-10.697843,-38.5714,Nordeste,RPGA do Rio Itapicuru,0.0,0.0,0.0,1.0,7.4,9.2,0.4,0.0,0.0,0.0,0.0,0.0,6.0,0.0,7.6,0.0,0.0,0.0,0.0,0.0,13.2,0.0,0.0,0.0,0.0,0.0,0.0,0.0,0.0,44.8
Aribicé,IT-PR-02,Euclides da Cunha,Euclides da Cunha (Aribicé) - IT-PR-02,-10.557835,-38.793352,Nordeste,RPGA do Rio Itapicuru,0.0,0.0,0.0,9.6,7.0,0.0,0.0,0.0,0.0,0.0,0.0,0.0,0.0,0.0,0.0,0.0,0.0,0.0,0.0,0.0,0.0,1.0,0.0,0.0,0.0,0.0,0.0,0.0,0.0,17.6
Ribeira do Pombal,IT-PR-04,Ribeira do Pombal,Ribeira do Pombal - IT-PR-04,-10.823399,-38.545844,Nordeste,RPGA do Rio Itapicuru,0.0,0.2,0.0,0.0,15.4,0.0,0.4,6.6,0.0,0.0,0.0,0.0,4.4,0.0,0.0,0.0,0.0,0.0,0.0,0.0,6.8,11.0,0.0,0.0,0.0,0.0,0.0,0.0,0.0,44.8
BR 116 E. Cunha / Tucano,IT-PR-05,Quijingue,Quijingue (BR 116 E. Cunha / Tucano) - IT-PR-05,-10.7105,-38.9227,Nordeste,RPGA do Rio Itapicuru,0.0,0.0,0.0,133.2,22.4,2.2,0.0,0.0,0.0,0.0,0.0,0.0,0.0,22.8,0.0,0.0,0.0,0.0,0.6,0.0,0.0,0.0,0.0,0.0,0.0,0.0,0.0,0.0,0.0,181.2
Fazenda Santo Antônio,IT-PR-06,Euclides da Cunha,Euclides da Cunha (Fazenda Santo Antônio) - IT-PR-06,-10.405331,-39.045582,Nordeste,RPGA do Rio Itapicuru,0.0,0.0,0.0,0.0,3.0,0.8,4.2,12.2,0.8,0.0,0.0,0.0,0.0,32.0,0.0,0.0,0.0,0.0,2.6,0.0,0.2,1.0,0.0,0.0,0.0,0.0,0.0,0.0,0.0,56.81
Estação Experimental,IT-PR-10,Nova Soure,Nova Soure (Estação Experimental) - IT-PR-10,-11.3083,-38.5361,Nordeste,RPGA do Rio Itapicuru,0.0,0.0,0.0,0.6,4.4,28.8,51.8,22.4,0.0,0.0,0.0,0.0,0.0,0.0,0.0,0.0,0.0,0.0,0.0,0.0,0.0,0.0,0.0,0.0,0.0,0.0,0.0,0.0,0.2,108.2
Boa Hora,IT-PR-13,Ribeira do Amparo,Ribeira do Amparo (Boa Hora) - IT-PR-13,-10.965,-38.5234,Nordeste,RPGA do Rio Itapicuru,0.0,0.0,0.0,5.2,24.2,1.2,0.0,0.2,0.0,0.0,0.0,0.0,0.0,3.2,3.8,0.0,0.0,1.0,0.0,0.0,0.0,0.2,0.0,0.0,0.0,0.0,0.0,0.0,11.4,50.4
Jeremoabo,A450,Jeremoabo,Jeremoabo - A450,-10.0807,-38.3459,Nordeste,RPGA do Rio Vaza-Barris,0.0,0.0,0.0,4.0,37.4,5.4,1.8,0.0,0.6,0.0,0.0,0.0,0.4,0.0,0.0,0.0,0.0,3.0,0.6,0.0,32.2,0.0,0.0,0.0,4.6,0.0,0.0,0.0,0.0,90.0
Itaberaba,291840701A,Juazeiro,Juazeiro (Itaberaba) - 291840701A,-9.44837,-40.48517,Norte,RPGA dos Rios Macururé e Curaçá,0.0,0.0,0.0,2.6,0.0,26.2,0.0,0.0,0.0,0.0,0.0,0.0,0.0,0.0,0.0,0.0,0.0,0.0,0.0,0.0,2.4,0.0,0.0,0.0,0.0,1.2,0.0,0.0,0.0,32.4
João Paulo II,291840704A,Juazeiro,Juazeiro (João Paulo II) - 291840704A,-9.47067,-40.49805,Norte,RPGA dos Rios Macururé e Curaçá,0.0,0.0,0.0,2.8,0.0,36.2,0.0,0.0,0.0,0.0,0.0,0.0,0.0,0.0,0.0,0.0,0.0,0.0,0.0,0.0,4.6,0.2,1.4,0.0,0.0,0.0,0.0,0.0,0.0,45.2
Lapão,291915701A,Lapão,Lapão - 291915701A,-11.38,-41.83,Norte,RPGA dos Rios Verde e Jacaré,0.0,0.0,0.0,0.4,1.4,0.0,4.2,0.0,0.0,2.2,0.0,0.0,0.0,0.0,0.0,0.0,0.0,0.0,1.0,0.0,0.0,2.4,10.2,4.6,0.0,0.0,0.0,0.0,0.0,26.4
Centro,290115501A,América Dourada,América Dourada (Centro) - 290115501A,-11.45011,-41.434004,Norte,RPGA dos Rios Verde e Jacaré,0.0,0.0,0.0,0.0,1.8,0.2,0.0,2.2,0.0,0.0,0.0,0.0,0.0,0.0,0.0,0.0,0.0,0.0,0.0,0.0,0.0,0.0,0.0,0.0,0.0,0.0,0.0,0.0,0.6,4.8
Irecê,83182,Irecê,Irecê - 83182,-11.3,-41.866667,Norte,RPGA dos Rios Verde e Jacaré,0.0,0.0,0.0,0.0,0.9,9.2,1.2,17.2,1.2,7.2,0.0,0.0,0.0,0.0,0.0,0.2,0.0,0.0,7.2,0.0,0.0,5.5,11.7,0.7,0.0,0.0,0.0,0.2,0.0,62.41
Remanso,82979,Remanso,Remanso - 82979,-9.633333,-42.1,Norte,RPGA do Lago de Sobradinho,0.0,0.0,0.0,2.1,14.4,29.4,0.0,0.0,0.0,0.0,0.0,0.0,0.0,0.0,0.0,0.0,0.0,0.0,0.0,0.0,0.0,0.0,0.0,10.0,0.0,0.0,0.0,0.0,19.4,75.3
Delfino,A443,Umburanas,Umburanas (Delfino) - A443,-10.45492,-41.206996,Norte,RPGA do Rio Salitre,0.0,0.0,0.0,0.0,0.0,0.0,0.0,0.0,0.0,0.0,0.0,0.0,0.0,0.0,0.0,0.0,0.0,0.0,0.0,0.0,0.0,0.0,0.0,0.0,0.0,0.0,0.0,0.0,0.0,0.0
Remanso,A423,Remanso,Remanso - A423,-9.625693,-42.077214,Norte,RPGA do Lago de Sobradinho,0.0,0.0,0.0,2.6,14.0,27.2,0.0,0.0,0.0,0.0,0.0,0.0,0.0,0.0,0.0,0.0,0.0,0.0,0.0,0.0,0.0,0.0,0.2,9.8,0.0,0.0,0.0,0.0,20.0,73.8
Irecê,A424,Irecê,Irecê - A424,-11.328998,-41.864504,Norte,RPGA dos Rios Verde e Jacaré,0.0,0.0,0.0,0.0,0.0,0.2,0.8,2.4,3.8,8.0,0.2,0.0,0.0,0.0,0.0,0.0,0.0,0.0,5.0,0.0,0.0,5.8,4.6,0.2,0.0,0.0,0.0,0.0,0.0,31.0
Várzea Nova,SA-CL-02,Várzea Nova,Várzea Nova - SA-CL-02,-11.23996,-40.935618,Norte,RPGA do Rio Salitre,0.0,0.0,0.0,0.0,6.6,0.0,0.0,0.0,0.0,0.0,0.0,0.0,2.2,0.0,0.2,0.0,0.0,0.0,0.0,0.0,0.0,0.0,0.0,0.0,0.0,0.0,0.0,0.0,22.0,31.0
CODEVASF Salitre,MC-CL-01,Juazeiro,Juazeiro (CODEVASF Salitre) - MC-CL-01,-9.48778,-40.61333,Norte,RPGA dos Rios Macururé e Curaçá,0.0,0.0,0.0,4.8,0.0,52.8,0.0,0.8,0.0,0.0,0.0,0.0,0.0,0.0,0.0,0.0,0.0,0.0,0.0,0.0,3.0,0.0,0.0,0.0,0.0,0.0,0.0,0.0,0.0,61.4
Campo Formoso,IT-CL-02,Campo Formoso,Campo Formoso - IT-CL-02,-10.47062,-40.33412,Norte,RPGA do Rio Itapicuru,0.0,0.0,0.0,10.2,0.4,56.2,0.0,1.6,0.0,0.0,0.0,0.0,0.2,0.0,0.6,0.0,0.0,1.0,1.0,0.0,0.0,0.0,0.0,0.0,0.0,0.0,0.0,0.0,0.0,71.2
Sento Sé,SO-CL-01,Sento Sé,Sento Sé - SO-CL-01,-9.78228,-41.81872,Norte,RPGA do Lago de Sobradinho,0.0,0.0,0.0,1.2,4.4,5.8,0.0,0.0,0.0,0.0,0.0,0.0,0.0,0.0,0.0,0.2,0.0,0.0,0.0,0.0,0.0,0.0,0.0,0.0,0.0,0.0,0.0,0.0,31.8,43.4
Itaguaçu da Bahia,VJ-CL-03,Itaguaçu da Bahia,Itaguaçu da Bahia - VJ-CL-03,-10.9549,-42.3465,Norte,RPGA dos Rios Verde e Jacaré,0.0,0.0,0.0,19.4,18.8,2.6,5.8,0.2,0.0,0.0,0.0,0.0,0.0,0.0,0.0,0.2,0.0,0.0,1.2,0.0,0.0,15.6,0.2,1.0,0.0,0.0,0.0,0.0,0.0,65.01
Ibipeba,VJ-CL-02,Ibipeba,Ibipeba - VJ-CL-02,-11.62667,-42.06444,Norte,RPGA dos Rios Verde e Jacaré,0.0,0.0,5.2,0.0,0.0,0.4,0.0,3.0,0.0,2.8,0.0,0.0,0.0,0.0,0.0,0.0,0.0,0.0,5.8,0.0,0.0,1.6,0.0,9.8,0.0,0.0,0.0,13.4,0.0,42.01
Aeródromo,SA-PR-03,Campo Formoso,Campo Formoso (Aeródromo) - SA-PR-03,-10.49,-40.4871,Norte,RPGA do Rio Itapicuru,0.0,0.0,0.0,1.4,0.4,14.4,2.0,0.0,0.0,0.0,0.0,0.0,0.0,0.0,0.2,0.0,0.0,2.0,1.0,0.0,0.0,0.0,0.0,0.0,0.0,0.0,0.0,0.0,3.4,24.8
Santa Rosa,SM-PR-01,Jaguarari,Jaguarari (Santa Rosa) - SM-PR-01,-10.098374,-39.869774,Norte,RPGA dos Rios Macururé e Curaçá,0.0,0.0,0.4,1.4,17.8,7.0,3.4,6.0,0.0,0.0,0.0,0.0,0.0,0.0,0.0,0.0,0.0,0.8,0.0,0.0,0.0,0.0,0.0,0.0,0.0,0.0,0.0,0.0,0.0,36.8
Jaguarari,IT-PR-28,Jaguarari,Jaguarari - IT-PR-28,-10.269489,-40.200344,Norte,RPGA do Rio Itapicuru,0.0,0.0,0.0,0.2,0.2,0.2,0.6,12.2,0.0,0.0,0.8,0.0,0.0,0.0,0.0,0.0,0.0,0.6,0.2,0.0,0.0,0.0,0.0,0.0,0.0,0.0,0.0,0.0,0.0,15.0
João Dourado,291835701C,João Dourado,João Dourado - 291835701C,-11.313636,-41.633467,Norte,RPGA dos Rios Verde e Jacaré,0.0,0.0,0.0,0.4,0.4,0.6,0.4,0.2,0.0,0.0,0.0,0.0,0.0,0.0,0.0,0.0,0.0,0.0,0.0,0.0,0.0,0.0,7.2,0.2,0.0,0.0,0.0,0.0,0.4,9.8
Fazenda Vila Verde,,Fazenda Vila Verde,Fazenda Vila Verde,-12.032839,-46.054434,Oeste,RPGA do Rio Grande,0.0,0.0,0.2,8.0,0.0,2.8,42.2,116.8,11.6,0.2,0.0,0.0,0.0,0.0,0.0,9.4,0.0,3.0,0.0,13.4,1.4,0.0,0.2,6.0,0.2,0.0,0.0,2.0,3.8,221.2
Arrojolândia,,Arrojolândia,Arrojolândia,-13.741772,-45.466093,Oeste,"RPGA do Rio Corrente e Riachos do Ramalho, Serra Dourada e Brejo Velho",0.0,0.0,0.0,11.2,0.2,20.0,2.4,5.2,49.0,0.0,12.8,0.0,7.6,4.0,0.0,0.2,1.2,0.2,0.0,14.8,0.0,2.8,0.0,0.4,0.2,0.0,0.0,5.0,2.8,140.01
Formosa do Rio Preto,A452,Formosa do Rio Preto,Formosa do Rio Preto - A452,-11.052163,-45.200769,Oeste,RPGA do Rio Grande,0.0,0.0,0.0,4.8,23.4,15.8,8.0,34.0,4.0,2.6,0.0,0.0,0.0,0.0,0.0,0.0,0.4,0.0,0.0,11.6,12.8,0.2,8.4,2.6,0.8,0.2,0.0,0.0,20.0,149.6
Nova Vida Montante,46590000,Barreiras,Barreiras (Nova Vida Montante) - 46590000,-11.867963,-45.084552,Oeste,RPGA do Rio Grande,0.0,0.0,0.0,24.8,2.4,1.2,6.6,17.4,0.8,21.4,0.0,0.0,0.4,0.2,0.0,0.0,0.0,0.0,0.0,0.0,0.0,0.0,0.0,2.8,0.0,0.0,0.0,0.0,0.2,78.2
Correntina,A416,Correntina,Correntina - A416,-13.332386,-44.617376,Oeste,"RPGA do Rio Corrente e Riachos do Ramalho, Serra Dourada e Brejo Velho",0.0,0.0,0.0,9.0,12.8,13.6,0.8,65.2,9.4,0.2,0.0,0.0,0.0,0.0,0.0,0.0,0.0,0.0,0.0,13.2,0.0,0.0,3.0,0.0,0.2,0.0,0.0,0.0,0.0,127.41
Barreiras,83236,Barreiras,Barreiras - 83236,-12.155556,-45.007778,Oeste,RPGA do Rio Grande,0.0,0.0,51.0,0.0,0.2,9.2,10.6,45.9,30.0,0.0,0.0,0.0,0.0,0.0,0.0,0.0,0.0,0.0,0.0,0.0,1.2,0.0,12.7,26.7,0.0,0.0,0.0,0.0,0.0,187.5
Correntina,83286,Correntina,Correntina - 83286,-13.332222,-44.617222,Oeste,"RPGA do Rio Corrente e Riachos do Ramalho, Serra Dourada e Brejo Velho",0.0,0.0,0.0,9.2,13.0,14.2,0.8,71.9,9.8,0.0,0.0,0.0,0.0,0.0,0.0,0.0,0.0,0.0,0.0,13.1,0.0,0.0,2.6,0.0,0.0,0.0,0.0,0.0,0.0,134.6
Arrojado,45770000,Correntina,Correntina (Arrojado) - 45770000,-13.4528,-44.5689,Oeste,"RPGA do Rio Corrente e Riachos do Ramalho, Serra Dourada e Brejo Velho",0.2,0.0,0.0,20.4,48.6,18.2,5.6,29.4,0.0,0.0,0.0,0.0,0.0,0.2,0.0,0.0,0.0,0.0,0.0,1.6,0.2,0.0,0.0,0.0,3.0,0.0,0.0,0.0,0.0,127.4
Correntina,45590000,Correntina,Correntina - 45590000,-13.3406,-44.6386,Oeste,"RPGA do Rio Corrente e Riachos do Ramalho, Serra Dourada e Brejo Velho",0.0,0.0,0.0,6.8,19.8,11.8,0.2,82.8,0.0,11.2,0.0,0.0,0.0,0.0,0.0,0.0,0.0,0.0,0.0,24.4,0.0,0.0,0.8,0.0,0.4,0.0,0.0,0.0,0.0,158.21
Fazenda Redenção,46543000,Barreiras,Barreiras (Fazenda Redenção) - 46543000,-12.1358,-45.1033,Oeste,RPGA do Rio Grande,0.0,0.0,8.6,3.2,16.4,13.2,8.6,48.4,5.8,0.0,0.0,0.0,0.0,0.0,0.0,0.0,0.4,0.2,0.0,0.0,0.2,0.0,1.8,2.8,0.6,0.0,0.0,0.0,0.0,110.2
Fazenda Santa Luzia,CA-CL-01,Cocos,Cocos (Fazenda Santa Luzia) - CA-CL-01,-14.85528,-45.93583,Oeste,RPGA do Rio Carinhanha,0.0,0.0,0.0,9.6,26.0,7.4,6.0,12.0,5.2,0.0,1.4,41.0,0.0,0.8,1.6,1.4,0.0,0.0,0.0,0.0,2.2,4.8,17.8,2.6,0.8,7.0,0.0,8.0,32.2,187.8
Fazenda Porta do Céu,CT-CL-02,Jaborandi,Jaborandi (Fazenda Porta do Céu) - CT-CL-02,-14.11621,-45.84417,Oeste,"RPGA do Rio Corrente e Riachos do Ramalho, Serra Dourada e Brejo Velho",0.0,0.0,0.0,3.4,0.4,3.0,5.8,2.4,1.8,23.9,4.4,1.6,1.0,3.2,2.0,1.4,1.2,4.0,0.2,5.4,1.6,2.0,1.4,6.8,1.2,1.0,0.6,0.0,1.6,81.3
Fazenda Morinaga,CT-CL-01,Correntina,Correntina (Fazenda Morinaga) - CT-CL-01,-13.75194,-45.87028,Oeste,"RPGA do Rio Corrente e Riachos do Ramalho, Serra Dourada e Brejo Velho",0.0,0.0,0.0,38.0,7.2,22.4,6.8,26.8,23.0,0.0,0.8,0.0,3.0,4.2,0.0,0.0,0.0,0.2,0.0,17.6,0.0,0.0,56.4,12.2,0.0,0.0,0.0,0.0,1.2,219.8
Fazenda Madras,GR-CL-04,Riachão das Neves,Riachão das Neves (Fazenda Madras) - GR-CL-04,-11.63028,-44.84556,Oeste,RPGA do Rio Grande,0.0,0.2,0.0,0.0,12.2,1.0,0.4,22.0,22.2,0.0,0.0,0.0,13.4,0.0,0.4,0.0,0.0,0.0,0.0,8.8,0.2,0.0,1.8,7.0,0.0,0.0,0.0,0.0,0.0,89.61
Fazenda Barcelona,GR-CL-03,Formosa do Rio Preto,Formosa do Rio Preto (Fazenda Barcelona) - GR-CL-03,-11.59139,-46.02194,Oeste,RPGA do Rio Grande,0.0,0.0,0.0,1.0,0.0,18.0,26.6,20.0,22.0,14.2,13.2,3.0,0.0,0.0,0.0,0.0,0.0,0.0,0.0,7.6,22.2,8.4,14.8,1.2,0.6,0.0,0.0,1.6,0.0,174.4
Mocambo,45740001,Correntina,Correntina (Mocambo) - 45740001,-13.28572,-44.56284,Oeste,"RPGA do Rio Corrente e Riachos do Ramalho, Serra Dourada e Brejo Velho",0.2,0.0,0.0,12.2,24.2,2.4,3.2,15.6,0.0,0.0,0.0,0.0,0.0,0.2,0.0,0.0,0.0,0.2,0.0,9.8,0.2,0.0,0.0,6.8,0.4,0.0,0.4,0.0,0.0,75.81
PCH Pres. Goulart-J,45600000,Correntina,Correntina (PCH Pres. Goulart-J) - 45600000,-13.3344,-44.6208,Oeste,"RPGA do Rio Corrente e Riachos do Ramalho, Serra Dourada e Brejo Velho",0.0,0.0,0.0,12.5,12.5,19.25,0.5,116.0,11.5,0.25,0.0,0.0,0.0,0.0,0.0,0.0,0.0,0.0,0.0,19.75,0.0,0.0,5.0,0.0,0.75,0.0,0.0,0.0,0.0,198.0
PCH Pres. Goulart-M1,45588000,Correntina,Correntina (PCH Pres. Goulart-M1) - 45588000,-13.3408,-44.6414,Oeste,"RPGA do Rio Corrente e Riachos do Ramalho, Serra Dourada e Brejo Velho",0.0,0.0,0.0,12.5,27.0,15.25,0.25,84.0,14.75,0.0,0.0,0.0,0.0,0.0,0.0,0.0,0.0,0.0,0.0,27.0,0.0,0.0,0.25,0.0,0.5,0.0,0.0,0.0,0.0,181.5
PCH Sítio Grande-J,46453500,São Desidério,São Desidério (PCH Sítio Grande-J) - 46453500,-12.4286,-45.1528,Oeste,RPGA do Rio Grande,0.0,0.0,0.0,0.0,0.75,7.25,3.25,60.75,25.25,0.0,0.0,0.0,0.0,0.25,0.0,0.25,6.75,0.25,0.0,0.0,0.75,0.0,2.75,42.5,2.0,0.0,0.0,0.0,0.0,152.75
COACERAL,GR-CL-02,Formosa do Rio Preto,Formosa do Rio Preto (COACERAL) - GR-CL-02,-10.561944,-45.693333,Oeste,RPGA do Rio Grande,0.0,0.0,3.25,3.25,0.0,37.0,9.75,29.75,7.5,5.0,0.0,0.0,0.0,0.0,0.0,0.0,0.0,5.5,0.0,62.25,0.25,0.0,7.25,1.5,0.0,0.0,0.0,0.0,6.25,178.5
Barreiras,A402,Barreiras,Barreiras - A402,-12.124715,-45.027049,Oeste,RPGA do Rio Grande,0.0,0.0,24.8,0.4,0.2,0.2,0.0,0.0,0.2,0.0,0.0,0.2,0.0,0.0,0.0,0.0,0.0,0.0,0.0,0.0,0.0,0.0,0.0,0.0,0.0,0.0,0.0,0.0,0.0,26.0
Luís Eduardo Magalhães,A404,Luís Eduardo Magalhães,Luís Eduardo Magalhães - A404,-12.152394,-45.829745,Oeste,RPGA do Rio Grande,0.0,0.0,35.6,0.6,26.8,26.0,51.8,47.4,43.0,0.0,4.6,0.0,0.0,0.0,0.0,18.8,0.0,2.2,0.0,34.2,6.6,0.0,0.8,33.4,2.2,0.0,0.0,0.0,0.0,334.0
Fazenda Evandro,GR-PR-01,Formosa do Rio Preto,Formosa do Rio Preto (Fazenda Evandro) - GR-PR-01,-10.600581,-45.822752,Oeste,RPGA do Rio Grande,0.0,0.0,0.0,0.0,0.4,0.6,0.6,0.4,0.2,0.2,0.2,0.2,0.0,0.0,0.0,0.0,0.0,0.0,0.0,3.6,6.8,0.2,0.2,0.4,0.2,0.0,0.0,0.0,0.0,14.2
J. Zoológico,A401,Salvador,Salvador (J. Zoológico) - A401,-13.005515,-38.50576,Recôncavo,RPGA do Recôncavo Norte,0.0,0.0,0.0,0.0,0.0,3.0,0.2,0.6,0.0,0.0,0.0,0.2,0.6,0.0,0.2,0.0,0.0,19.2,9.2,0.6,0.2,0.0,0.0,0.4,0.4,0.4,0.0,0.0,2.4,37.6
Cruz das Almas,A406,Cruz das Almas,Cruz das Almas - A406,-12.675422,-39.08958,Recôncavo,RPGA do Rio Paraguaçu,6.4,0.0,0.0,0.0,0.0,0.2,1.0,0.0,0.0,0.0,0.0,3.8,0.0,0.0,0.0,0.0,0.2,2.2,0.0,12.8,0.0,0.0,0.0,0.0,0.0,0.0,0.0,0.0,0.0,26.6
Feira de Santana,A413,Feira de Santana,Feira de Santana - A413,-12.1962,-38.967384,Recôncavo,RPGA do Recôncavo Norte,0.0,0.0,0.0,0.0,9.4,0.0,5.8,0.0,0.4,0.0,0.0,0.0,0.0,0.0,0.0,0.0,0.0,0.0,1.6,0.4,0.0,0.0,0.0,0.0,0.0,0.0,0.0,0.0,0.0,17.6
Periperi,292740820A,Salvador,Salvador (Periperi) - 292740820A,-12.867344,-38.458111,Recôncavo,RPGA do Recôncavo Norte,0.6,0.0,0.0,0.0,0.0,1.4,8.0,1.4,1.2,0.2,0.0,2.2,10.8,0.0,0.6,0.2,0.0,34.0,1.8,1.2,0.2,0.0,0.0,0.0,0.2,0.0,0.0,0.0,0.0,64.0
Fazenda Coutos,292740822A,Salvador,Salvador (Fazenda Coutos) - 292740822A,-12.849955,-38.461778,Recôncavo,RPGA do Recôncavo Norte,3.8,0.0,2.2,0.2,0.0,1.2,0.6,10.0,18.2,0.2,0.0,2.4,7.0,0.0,0.0,0.0,0.0,23.4,3.0,0.6,0.0,0.0,0.0,0.0,0.0,0.0,0.0,0.0,0.2,73.0
Itapuã,292740819A,Salvador,Salvador (Itapuã) - 292740819A,-12.947736,-38.370136,Recôncavo,RPGA do Recôncavo Norte,2.8,0.0,0.2,0.2,1.4,0.2,0.0,2.2,0.0,0.0,0.0,0.0,7.6,0.2,0.6,0.0,13.4,40.2,13.8,13.2,0.0,0.0,0.0,0.0,0.0,0.4,0.0,0.0,0.0,96.4
Alagoinhas,83249,Alagoinhas,Alagoinhas - 83249,-12.148333,-38.425556,Recôncavo,RPGA do Recôncavo Norte,5.2,0.0,0.0,0.0,0.0,0.0,1.2,36.3,0.7,0.0,0.7,0.0,0.0,0.0,0.0,0.0,0.0,18.5,2.5,2.4,0.0,0.0,0.0,2.4,0.0,0.0,0.0,0.0,2.1,72.0
Tancredo Neves,292740823A,Salvador,Salvador (Tancredo Neves) - 292740823A,-12.945347,-38.453472,Recôncavo,RPGA do Recôncavo Norte,0.2,0.0,0.0,2.8,7.4,0.0,0.8,0.2,0.2,0.0,0.0,3.6,6.4,0.0,0.0,0.0,2.0,45.4,2.6,1.2,0.0,0.0,0.0,0.0,0.0,0.0,0.0,0.0,0.0,72.8
Polivalente,292860401A,Santo Amaro,Santo Amaro (Polivalente) - 292860401A,-12.552863,-38.712504,Recôncavo,RPGA do Recôncavo Norte,0.2,0.0,0.0,0.0,0.0,0.0,2.6,0.2,0.2,0.0,0.0,0.0,0.0,0.0,0.0,0.0,0.0,49.2,3.0,1.8,0.0,0.0,0.0,0.0,0.0,0.6,0.0,0.0,0.0,57.81
Povoado de Pedras,292860402A,Santo Amaro,Santo Amaro (Povoado de Pedras) - 292860402A,-12.549625,-38.770999,Recôncavo,RPGA do Recôncavo Norte,0.0,0.0,0.0,0.0,0.0,0.2,0.0,0.0,0.0,0.0,0.0,0.0,1.6,0.0,0.6,0.2,0.0,25.8,1.0,6.8,0.0,0.0,0.0,0.0,0.0,0.0,0.0,0.0,0.0,36.2
Camaçari,Tiririca,Camaçari,Camaçari - Tiririca,-12.51246,-38.06769,Recôncavo,RPGA do Recôncavo Norte,0.2,0.0,0.0,3.8,11.8,8.0,1.6,3.2,0.0,0.6,0.0,0.2,0.6,0.4,0.0,2.4,23.8,7.0,22.4,1.2,2.2,0.0,0.0,0.0,0.6,2.0,0.0,0.0,17.2,109.2
Estação Rádio Marinha,A456,Salvador,Salvador (Estação Rádio Marinha) - A456,-12.808222,-38.495944,Recôncavo,RPGA do Recôncavo Norte,4.6,0.0,0.0,0.0,1.0,0.0,0.2,0.0,6.8,0.2,0.0,0.4,1.4,0.0,0.0,0.0,4.4,19.2,4.2,0.0,0.0,0.0,0.0,0.0,0.0,0.0,0.0,0.0,0.0,42.41
Cachoeira,290490201A,Cachoeira,Cachoeira - 290490201A,-12.607725,-38.960655,Recôncavo,RPGA do Rio Paraguaçu,9.4,0.0,0.0,0.0,0.0,0.0,0.0,0.0,0.0,0.0,0.0,1.4,0.0,0.0,0.0,0.0,0.0,0.4,12.4,5.2,0.2,0.0,0.0,0.0,0.0,0.0,0.0,0.0,1.2,30.2
Centro,291345701A,Igrapiúna,Igrapiúna (Centro) - 291345701A,-13.819025,-39.141885,Recôncavo,RPGA do Recôncavo Sul,6.6,1.2,4.0,0.6,8.6,0.0,0.2,0.4,8.6,0.0,0.0,0.0,2.4,0.0,22.0,1.6,0.4,37.6,2.6,2.0,3.4,0.0,0.0,13.6,1.8,0.0,0.0,0.0,0.4,118.0
São Félix,292900801A,São Félix,São Félix - 292900801A,-12.606591,-38.969939,Recôncavo,RPGA do Rio Paraguaçu,6.4,0.0,0.0,0.0,0.2,0.0,0.0,0.0,0.4,0.0,0.0,1.6,0.2,0.0,0.0,0.0,0.0,0.8,5.8,7.0,0.2,0.0,0.0,0.0,0.0,0.0,0.0,0.0,0.8,23.41
Góes Calmon,293070901A,Simões Filho,Simões Filho (Góes Calmon) - 293070901A,-12.780101,-38.353331,Recôncavo,RPGA do Recôncavo Norte,0.0,0.0,0.0,4.2,1.4,0.6,0.4,1.2,5.0,0.0,0.0,0.4,0.0,0.0,0.4,0.0,1.0,20.2,12.0,0.0,0.0,0.0,0.0,0.0,0.0,3.6,0.2,0.0,0.2,50.81
Centro,293070903A,Simões Filho,Simões Filho (Centro) - 293070903A,-12.788344,-38.396864,Recôncavo,RPGA do Recôncavo Norte,1.0,0.0,0.0,1.6,6.4,7.2,0.0,0.0,2.8,0.0,0.0,0.2,1.4,0.0,0.0,0.0,2.8,16.4,12.8,0.6,0.0,0.0,0.0,0.0,0.0,0.6,0.0,0.0,0.0,53.8
Amargosa,A434,Amargosa,Amargosa - A434,-13.009468,-39.616881,Recôncavo,RPGA do Recôncavo Sul,0.0,0.0,0.0,0.0,1.0,0.4,0.2,0.0,0.8,0.0,0.0,0.0,0.0,0.0,1.0,0.0,0.0,4.4,0.0,4.0,0.0,0.0,0.0,0.0,4.4,0.0,0.0,0.0,1.8,18.01
Valença,A444,Valença,Valença - A444,-13.34361,-39.12667,Recôncavo,RPGA do Recôncavo Sul,0.0,0.0,0.2,0.0,0.0,0.0,0.0,0.2,0.0,0.0,0.0,0.0,0.0,0.0,0.0,0.0,0.0,0.0,0.2,0.0,0.2,0.2,0.2,0.0,0.0,0.0,0.0,0.0,0.0,1.2
Ondina,83229,Salvador,Salvador (Ondina) - 83229,-13.005278,-38.505833,Recôncavo,RPGA do Recôncavo Norte,0.0,0.0,0.0,0.0,0.0,3.2,0.0,0.8,0.0,0.0,0.0,0.2,1.0,0.0,0.1,0.0,0.0,20.0,9.9,0.5,0.5,0.0,0.0,0.4,0.4,0.6,0.0,0.0,2.6,40.2
Feira de Santana,PG-PR-13,Feira de Santana,Feira de Santana - PG-PR-13,-12.268161,-38.96642,Recôncavo,RPGA do Rio Paraguaçu,0.0,0.0,0.0,1.6,0.0,0.0,0.0,0.6,0.0,0.0,0.0,1.8,0.0,0.0,0.0,0.0,0.0,4.0,0.0,12.8,0.0,0.0,0.0,0.0,0.0,0.0,0.0,0.0,0.0,20.8
Centro,292740802A,Salvador,Salvador (Centro) - 292740802A,-12.97821,-38.515945,Recôncavo,RPGA do Recôncavo Norte,0.0,0.0,0.0,4.53,4.93,0.0,0.0,0.0,0.59,0.0,0.0,1.77,3.55,0.0,0.0,1.38,1.18,21.64,10.84,0.0,0.2,0.0,0.0,1.58,0.0,0.2,0.0,0.0,0.4,52.79
Federação,292740803A,Salvador,Salvador (Federação) - 292740803A,-13.000791,-38.511056,Recôncavo,RPGA do Recôncavo Norte,0.2,0.0,0.0,5.51,0.59,0.99,0.0,0.0,0.98,0.0,0.0,0.39,0.39,0.0,0.2,0.0,0.0,28.91,8.06,0.2,0.0,0.0,0.0,2.36,0.2,0.6,0.0,0.0,0.39,49.98
Cabula,292740810A,Salvador,Salvador (Cabula) - 292740810A,-12.961347,-38.460778,Recôncavo,RPGA do Recôncavo Norte,0.0,0.0,0.2,3.35,1.57,0.6,0.2,0.0,0.0,0.0,0.0,2.56,7.28,0.2,0.39,0.2,0.59,40.73,5.12,1.58,0.2,0.0,0.0,0.2,0.4,0.8,0.0,0.0,0.0,66.17
Santo Estevão,PG-CL-08,Santo Estevão,Santo Estevão - PG-CL-08,-12.43521,-39.21209,Recôncavo,RPGA do Rio Paraguaçu,0.0,0.0,0.0,0.0,0.0,0.0,0.0,0.0,0.0,0.0,0.0,0.0,0.0,0.0,0.0,0.0,0.0,0.0,0.0,0.0,0.0,0.0,0.0,0.0,0.0,0.0,0.0,0.0,0.0,0.0
Caminho das Árvores,292740815A,Salvador,Salvador (Caminho das Árvores) - 292740815A,-12.97718,-38.453834,Recôncavo,RPGA do Recôncavo Norte,0.0,0.0,0.0,0.0,0.0,0.0,0.0,0.0,0.0,0.0,1.58,1.97,1.19,0.0,0.0,0.0,0.0,32.29,12.01,3.55,0.0,0.0,0.0,0.79,0.0,2.76,0.0,0.0,0.0,56.14
Águas Claras,292740808A,Salvador,Salvador (Águas Claras) - 292740808A,-12.8944,-38.441889,Recôncavo,RPGA do Recôncavo Norte,0.0,0.0,0.0,0.0,0.0,1.18,0.0,0.2,1.4,0.0,0.0,5.89,16.7,8.84,0.2,0.0,2.38,28.3,0.4,3.74,0.0,0.0,0.0,0.4,0.0,0.6,0.0,0.0,0.2,70.43
Alto do Peru,292740812A,Salvador,Salvador (Alto do Peru) - 292740812A,-12.939122,-38.486334,Recôncavo,RPGA do Recôncavo Norte,0.0,0.0,0.0,3.93,1.77,0.79,0.0,0.99,6.29,0.0,0.0,8.14,4.33,0.99,0.39,0.0,0.0,35.83,0.59,0.4,0.0,0.0,0.0,0.0,0.0,0.0,0.0,0.0,0.0,64.45
Cosme de Farias,292740816A,Salvador,Salvador (Cosme de Farias) - 292740816A,-12.979402,-38.4855,Recôncavo,RPGA do Recôncavo Norte,0.0,0.0,0.0,0.0,0.0,0.0,0.0,0.0,0.2,0.0,0.0,0.2,2.36,0.0,0.0,0.0,0.0,8.05,1.77,0.2,0.2,0.0,0.0,0.2,0.0,0.2,0.0,0.0,0.2,13.58
São Caetano,292740814A,Salvador,Salvador (São Caetano) - 292740814A,-12.939678,-38.474667,Recôncavo,RPGA do Recôncavo Norte,0.0,0.0,0.0,4.13,2.55,0.79,0.0,1.18,5.92,0.0,0.0,4.53,7.48,0.8,0.0,0.0,0.0,17.64,10.19,6.6,1.0,0.0,0.0,0.0,0.0,0.0,0.0,0.0,0.0,62.81
Pirajá,292740801A,Salvador,Salvador (Pirajá) - 292740801A,-12.8994,-38.458833,Recôncavo,RPGA do Recôncavo Norte,0.0,0.0,0.0,0.2,0.0,1.18,0.0,0.4,1.19,0.0,0.2,2.17,6.89,3.58,0.2,0.0,2.37,10.33,4.0,2.8,0.0,0.0,0.0,0.4,0.0,0.0,0.0,0.0,0.0,35.91
Valéria,292740817A,Salvador,Salvador (Valéria) - 292740817A,-12.8644,-38.438276,Recôncavo,RPGA do Recôncavo Norte,0.2,0.0,0.2,0.0,0.2,11.41,1.37,0.0,1.96,0.0,0.0,3.15,14.56,0.6,0.2,0.0,0.0,35.25,3.74,1.98,0.0,0.0,0.0,0.0,0.0,0.0,0.0,0.0,0.59,75.41
Centro,290650101A,Candeias,Candeias (Centro) - 290650101A,-12.670229,-38.544112,Recôncavo,RPGA do Recôncavo Norte,10.05,0.0,0.0,0.0,1.19,0.0,9.64,22.06,4.34,0.0,0.0,0.0,0.0,0.0,0.0,0.0,0.2,21.74,3.4,0.6,0.2,0.0,0.0,0.0,0.0,2.18,0.0,0.0,0.0,75.61
Sarandi,290650104A,Candeias,Candeias (Sarandi) - 290650104A,-12.671341,-38.531056,Recôncavo,RPGA do Recôncavo Norte,10.52,0.0,0.0,0.0,2.17,0.0,14.91,1.39,4.96,0.0,0.0,0.0,0.0,0.0,0.0,0.0,0.0,18.68,3.95,0.2,0.2,0.0,0.0,0.0,0.0,1.58,0.0,0.0,0.6,59.17
Areia Branca,291920706A,Lauro de Freitas,Lauro de Freitas (Areia Branca) - 291920706A,-12.841,-38.337,Recôncavo,RPGA do Recôncavo Norte,3.73,0.0,0.0,0.2,0.79,7.67,1.77,0.2,2.37,0.0,0.0,4.14,28.23,0.0,0.59,0.0,3.75,21.29,35.12,0.4,0.2,0.0,0.0,0.0,0.0,0.39,0.0,0.0,0.99,111.83
Vila Praiana,291920702A,Lauro de Freitas,Lauro de Freitas (Vila Praiana) - 291920702A,-12.901,-38.308,Recôncavo,RPGA do Recôncavo Norte,1.19,0.0,0.0,0.0,0.0,0.79,11.41,16.05,2.56,0.0,0.0,0.79,2.75,0.0,1.37,0.0,6.5,31.5,39.54,0.99,0.0,0.0,0.0,0.0,0.0,1.78,0.2,0.0,0.0,117.42
Portão,291920701A,Lauro de Freitas,Lauro de Freitas (Portão) - 291920701A,-12.87,-38.305,Recôncavo,RPGA do Recôncavo Norte,2.95,0.0,0.99,0.0,0.2,2.17,8.26,0.59,1.97,0.0,0.0,1.37,8.08,0.0,2.57,0.0,6.91,28.6,36.37,0.2,0.0,0.0,0.0,0.0,0.0,0.99,0.0,0.0,0.79,103.01
Muritiba,PG-PR-12,Muritiba,Muritiba - PG-PR-12,-12.617895,-39.005591,Recôncavo,RPGA do Rio Paraguaçu,7.8,0.0,0.0,2.8,1.4,0.2,0.0,0.0,0.4,0.0,0.0,4.0,0.2,0.0,0.0,0.0,0.0,2.0,7.2,15.6,0.0,0.0,0.0,0.0,0.0,0.0,0.0,0.0,0.4,42.0
Dois de Julho,291120401A,Gandú,Gandú (Dois de Julho) - 291120401A,-13.741357,-39.48303,Recôncavo,RPGA do Recôncavo Sul,0.79,0.0,0.0,0.4,0.0,0.0,0.0,0.79,0.2,0.0,0.0,0.0,0.59,0.0,18.69,0.0,4.93,21.08,2.56,9.21,0.2,0.0,0.0,2.97,2.18,0.0,0.0,0.0,0.0,64.59
Centro,292060101A,Maragogipe,Maragogipe (Centro) - 292060101A,-12.78,-38.917,Recôncavo,RPGA do Rio Paraguaçu,3.74,0.0,0.0,0.0,11.83,3.18,0.0,0.0,1.19,0.0,0.0,6.49,0.39,0.2,0.0,0.0,0.0,24.32,0.0,18.97,0.0,0.0,0.0,0.0,0.0,0.0,0.0,0.0,1.57,71.88
Rua São Roque,293290301A,Valença,Valença (Rua São Roque) - 293290301A,-13.363,-39.078,Recôncavo,RPGA do Recôncavo Sul,0.0,0.0,6.1,4.73,0.8,0.0,0.4,12.58,17.32,0.2,0.0,0.2,0.0,2.59,8.08,0.2,0.2,59.88,0.2,0.4,0.2,0.0,0.0,0.2,3.94,0.0,0.0,0.0,3.35,121.58
Amélia Rodrigues,RN-CL-03,Amélia Rodrigues,Amélia Rodrigues - RN-CL-03,-12.4194,-38.77668,Recôncavo,RPGA do Recôncavo Norte,0.0,0.0,0.0,0.0,0.0,0.8,8.4,0.2,11.2,0.0,51.8,0.6,18.2,0.0,0.0,0.0,0.0,33.6,1.6,6.2,0.0,0.0,0.0,0.0,0.0,0.6,0.0,0.0,0.0,133.2
Colônia Japonesa,RN-CL-04,Camaçari,Camaçari (Colônia Japonesa) - RN-CL-04,-12.48903,-38.22117,Recôncavo,RPGA do Recôncavo Norte,0.2,0.0,0.0,1.4,0.2,0.2,10.0,0.6,7.2,0.0,0.0,0.0,0.2,0.0,0.2,0.0,6.2,15.0,5.6,0.2,0.0,0.0,0.0,0.0,0.0,0.0,0.0,0.0,11.8,59.0
Abaeté,RN-CL-05,Salvador,Salvador (Abaeté) - RN-CL-05,-12.9469,-38.35933,Recôncavo,RPGA do Recôncavo Norte,2.2,0.0,0.0,0.0,0.0,0.2,0.0,5.8,0.0,0.0,0.0,0.0,4.4,0.0,0.2,0.0,7.4,24.8,10.4,13.0,0.2,0.4,0.0,0.0,0.0,0.4,0.0,0.0,0.2,69.61
Lauro de Freitas,RN-CL-09,Lauro de Freitas,Lauro de Freitas - RN-CL-09,-12.88712,-38.29659,Recôncavo,RPGA do Recôncavo Norte,1.2,0.0,0.0,0.0,0.8,0.6,20.4,5.6,1.6,0.0,0.6,2.2,7.0,0.0,6.2,0.0,6.2,16.2,41.2,0.4,0.0,0.0,0.0,0.0,0.0,1.0,0.0,0.0,0.0,111.21
São Francisco do Conde,RN-CL-07,São Francisco do Conde,São Francisco do Conde - RN-CL-07,-12.61136,-38.68222,Recôncavo,RPGA do Recôncavo Norte,0.0,0.0,0.0,0.0,2.4,0.0,2.8,0.0,0.0,0.0,0.0,0.0,0.0,0.0,0.0,0.0,0.0,11.8,19.6,0.4,0.0,0.0,0.0,0.0,0.0,0.6,0.0,0.0,0.2,37.81
CIA,293070902A,Simões Filho,Simões Filho (CIA) - 293070902A,-12.825461,-38.409051,Recôncavo,RPGA do Recôncavo Norte,0.2,0.0,0.0,0.0,0.0,0.0,0.0,1.2,6.4,0.0,0.2,2.0,18.6,0.0,0.0,1.6,10.6,24.8,45.8,0.6,0.0,0.0,0.0,0.0,0.0,0.2,0.0,0.0,0.0,112.2
PC Fazenda Jurema,51346050,Rafael Jambeiro,Rafael Jambeiro (PC Fazenda Jurema) - 51346050,-12.4881,-39.6981,Recôncavo,RPGA do Rio Paraguaçu,0.0,0.0,0.0,0.0,0.4,0.0,0.0,0.0,1.2,0.0,0.0,0.0,0.0,0.0,0.0,0.0,0.0,0.0,0.0,0.0,0.0,0.0,0.0,0.0,0.0,0.0,0.0,0.0,0.0,1.6
PC Argoim,51351000,Rafael Jambeiro,Rafael Jambeiro (PC Argoim) - 51351000,-12.5867,-39.5217,Recôncavo,RPGA do Rio Paraguaçu,0.0,0.0,0.0,0.0,4.4,0.0,0.0,0.0,0.4,0.0,0.0,0.0,0.0,0.0,0.0,0.0,0.0,1.8,0.2,0.0,0.0,0.0,0.0,0.0,0.0,0.0,0.0,0.0,0.0,6.81
PC Rio Paratigi,51370000,Santo Estevão,Santo Estevão (PC Rio Paratigi) - 51370000,-12.51503,-39.38272,Recôncavo,RPGA do Rio Paraguaçu,0.0,0.0,0.0,0.0,8.0,0.0,0.0,0.0,0.0,0.0,0.0,7.2,7.2,0.0,0.0,0.0,0.0,1.2,0.0,0.0,0.0,0.0,0.0,0.0,0.0,0.0,0.0,0.0,0.0,23.6
Feira de Santana,PC Rio Branco,Feira de Santana,Feira de Santana - PC Rio Branco,-12.2331,-39.0461,Recôncavo,RPGA do Rio Paraguaçu,0.0,0.0,0.0,0.0,0.8,0.0,0.0,0.0,0.0,0.0,0.0,0.8,0.0,0.0,0.0,0.0,0.0,0.4,0.0,0.8,0.0,0.0,0.0,0.0,0.0,0.0,0.0,0.0,0.0,2.8
Antônio Cardoso,290170001C,Antônio Cardoso,Antônio Cardoso - 290170001C,-12.35093,-39.1648,Recôncavo,RPGA do Rio Paraguaçu,0.0,0.0,0.0,0.0,0.0,0.0,0.0,0.0,0.0,0.0,0.0,0.6,0.0,0.0,0.0,0.0,0.0,4.6,0.0,5.8,0.0,0.0,0.0,0.0,0.0,0.0,0.0,0.0,0.0,11.0
Abaeté,RN-PR-01,Salvador,Salvador (Abaeté) - RN-PR-01,-12.945407,-38.361404,Recôncavo,RPGA do Recôncavo Norte,3.2,0.0,0.3,0.0,0.3,0.0,0.0,4.6,0.0,0.0,0.0,0.0,0.0,6.1,6.1,0.0,11.5,28.5,28.7,0.0,0.0,0.2,0.2,0.0,0.0,0.2,0.0,0.0,0.0,89.9
Cândido Sales,53620000,Cândido Sales,Cândido Sales - 53620000,-15.512891,-41.236629,Sudoeste,RPGA do Rio Pardo,0.0,0.0,0.0,0.0,0.0,0.0,0.0,0.0,0.0,0.0,0.0,0.0,0.0,0.0,0.0,0.0,0.0,0.0,16.0,0.4,0.0,0.0,23.2,3.0,0.0,0.0,0.0,0.0,0.0,42.6
Itiruçu,A407,Itiruçu,Itiruçu - A407,-13.52629,-40.12055,Sudoeste,RPGA do Recôncavo Sul,0.0,0.0,0.2,1.8,0.0,0.0,0.0,0.0,0.8,0.0,0.0,0.0,0.0,0.0,0.8,0.0,0.0,0.0,0.0,0.0,0.0,0.2,0.0,0.0,8.6,0.0,0.0,0.0,0.0,12.4
Vitória da Conquista,A414,Vitória da Conquista,Vitória da Conquista - A414,-14.886428,-40.80133,Sudoeste,RPGA do Rio Pardo,0.0,0.2,0.0,0.2,0.0,0.0,0.0,8.8,0.0,0.2,0.0,0.0,0.0,0.2,0.6,0.2,0.0,0.0,2.0,6.8,0.0,0.0,0.0,6.8,0.6,0.8,0.0,0.0,0.0,27.41
Ituaçu,83292,Ituaçu,Ituaçu - 83292,-13.812778,-41.3,Sudoeste,RPGA do Rio de Contas,0.0,0.0,0.0,0.0,0.0,0.0,0.0,0.0,0.0,0.0,0.0,0.0,0.0,0.0,0.0,0.0,0.0,0.0,2.4,0.0,0.0,0.0,0.0,0.0,7.6,0.0,0.0,0.0,0.0,10.0
Lagoa,291760701A,Jaguaquara,Jaguaquara (Lagoa) - 291760701A,-13.523228,-39.968685,Sudoeste,RPGA do Recôncavo Sul,0.0,0.0,4.2,1.6,0.0,0.0,0.0,0.0,0.0,0.0,0.0,0.0,0.0,0.0,1.6,0.0,0.0,0.0,0.0,0.0,0.0,0.0,0.0,0.0,1.0,0.2,0.0,0.0,0.0,8.6
Entroncamento,291760702A,Jaguaquara,Jaguaquara (Entroncamento) - 291760702A,-13.509869,-40.05461,Sudoeste,RPGA do Recôncavo Sul,0.0,0.0,2.2,0.2,5.2,0.0,0.0,0.0,0.0,0.0,0.0,0.0,0.0,0.0,0.0,0.0,0.0,0.0,0.0,0.0,0.0,0.0,0.0,0.0,1.4,0.0,0.0,0.0,0.0,9.0
Vitória da Conquista,83344,Vitória da Conquista,Vitória da Conquista - 83344,-14.883333,-40.8,Sudoeste,RPGA do Rio Pardo,0.0,0.0,0.0,0.2,0.0,0.0,0.0,8.8,0.0,0.1,0.0,0.0,0.0,0.0,0.7,0.0,0.0,0.0,2.0,6.6,0.0,0.0,0.0,6.5,0.6,0.3,0.0,0.0,0.0,25.8
Brumado,A433,Brumado,Brumado - A433,-14.181886,-41.672281,Sudoeste,RPGA do Rio de Contas,0.0,0.0,0.0,0.0,6.0,0.0,0.0,0.0,0.0,0.0,0.0,0.0,0.0,0.0,0.0,0.0,0.0,0.0,0.0,0.0,0.0,0.0,0.0,6.0,0.0,0.0,0.0,0.0,2.4,14.4
Ipiaú,A445,Ipiaú,Ipiaú - A445,-14.171304,-39.692502,Sudoeste,RPGA do Rio de Contas,0.0,0.0,0.0,0.0,0.0,0.0,0.2,0.0,0.0,0.0,0.0,0.0,0.0,0.0,0.0,0.0,0.2,0.0,0.0,0.0,0.0,0.0,0.0,0.2,0.2,0.0,0.0,0.0,0.0,0.8
Itapetinga,A446,Itapetinga,Itapetinga - A446,-15.24462,-40.22955,Sudoeste,RPGA do Rio Pardo,0.0,0.0,0.0,0.0,0.0,2.4,2.6,0.6,0.0,0.0,0.0,0.0,0.0,0.0,0.0,0.0,0.0,0.0,6.6,0.0,0.0,0.0,0.0,0.0,0.8,2.2,0.0,0.0,0.0,15.2
Anagé,CO-CL-01,Anagé,Anagé - CO-CL-01,-14.618055,-41.149722,Sudoeste,RPGA do Rio de Contas,0.0,0.0,0.0,0.0,0.0,0.0,0.0,21.25,0.0,0.0,0.0,0.0,0.0,0.0,0.0,0.0,0.0,0.0,8.5,0.25,0.25,0.0,0.0,5.25,9.0,0.75,0.0,0.0,0.0,45.25
Vitória da Conquista,Inhobim (ANA),Vitória da Conquista,Vitória da Conquista - Inhobim (ANA),-15.340228,-40.933566,Sudoeste,RPGA do Rio Pardo,0.0,0.0,0.0,0.0,0.0,0.0,0.0,0.0,0.0,0.0,0.0,0.0,0.0,0.0,0.0,0.0,0.0,0.0,16.4,5.6,0.0,0.0,14.4,4.4,0.2,0.0,0.0,0.2,0.0,41.2
Centro,293330701A,Vitória da Conquista,Vitória da Conquista (Centro) - 293330701A,-14.852,-40.839,Sudoeste,RPGA do Rio Pardo,0.0,0.0,0.0,9.76,0.0,0.0,0.0,3.15,0.0,0.0,0.0,0.0,0.0,0.0,0.0,0.0,0.0,0.0,5.76,8.47,0.0,0.0,0.0,15.74,0.0,0.4,0.0,0.0,0.0,43.28
Centro,291710201A,Itororó,Itororó (Centro) - 291710201A,-15.119,-40.065,Sudoeste,RPGA do Leste,0.4,0.0,0.0,0.0,0.0,0.2,0.98,0.2,0.0,0.0,0.0,0.0,0.0,0.0,0.0,0.0,0.0,0.0,3.57,0.2,0.0,0.0,0.0,21.82,3.53,0.0,0.0,0.0,0.0,30.91
Clerolândia,291640101A,Itapetinga,Itapetinga (Clerolândia) - 291640101A,-15.243,-40.221,Sudoeste,RPGA do Rio Pardo,0.0,0.0,0.0,0.0,0.0,0.81,0.39,0.0,0.0,0.0,0.0,0.0,0.0,0.0,0.0,0.0,0.0,0.0,6.9,0.2,0.0,0.0,0.0,0.0,0.2,1.19,0.0,0.0,0.0,9.69
Recreio,293330702A,Vitória da Conquista,Vitória da Conquista (Recreio) - 293330702A,-14.861,-40.841,Sudoeste,RPGA do Rio Pardo,0.0,0.0,0.0,3.97,0.0,0.0,0.0,1.97,0.0,0.0,0.0,0.0,0.0,0.0,0.0,0.0,0.0,0.0,5.94,9.68,0.0,0.0,0.0,17.15,0.4,0.0,0.0,0.0,0.0,39.11
Patagônia,293330704A,Vitória da Conquista,Vitória da Conquista (Patagônia) - 293330704A,-14.87,-40.863,Sudoeste,RPGA do Rio Pardo,0.0,0.0,0.0,2.37,0.2,0.0,0.0,2.18,0.2,0.0,0.0,0.0,0.0,0.0,0.0,0.0,0.0,0.0,6.88,28.92,0.0,0.0,0.0,6.49,0.0,1.4,0.0,0.0,0.0,48.64
Lomantão,293330703A,Vitória da Conquista,Vitória da Conquista (Lomantão) - 293330703A,-14.87,-40.827,Sudoeste,RPGA do Rio Pardo,0.0,0.0,0.0,4.92,0.2,0.0,0.0,6.72,0.0,0.0,0.0,0.0,0.0,0.0,0.0,0.0,0.0,0.0,10.08,22.2,0.2,0.0,0.0,11.89,0.4,0.2,0.0,0.0,0.0,56.82
Maracás,292050201C,Maracás,Maracás - 292050201C,-13.443972,-40.450888,Sudoeste,RPGA do Rio de Contas,0.0,0.0,0.0,1.0,16.0,0.0,0.0,42.4,0.0,7.8,0.0,0.0,0.0,0.0,1.0,0.0,0.0,0.2,0.0,25.0,2.4,0.6,2.2,12.4,14.0,0.2,0.0,0.0,0.2,125.41
Jaguaquara,RS-CL-01,Jaguaquara,Jaguaquara - RS-CL-01,-13.573055,-39.940833,Sudoeste,RPGA do Recôncavo Sul,0.0,0.0,0.0,1.25,0.0,0.0,0.0,0.0,0.0,0.0,0.0,0.0,0.0,0.0,0.75,0.0,0.0,1.25,0.0,0.0,0.0,0.0,0.0,0.25,6.5,0.25,0.0,0.0,0.0,10.25
Vitória da Conquista,PA-CL-01,Vitória da Conquista,Vitória da Conquista - PA-CL-01,-14.886111,-40.800833,Sudoeste,RPGA do Rio Pardo,0.0,0.0,0.6,2.0,0.2,1.6,0.4,6.4,3.5,0.1,0.0,0.0,0.7,0.0,0.3,0.0,0.0,2.5,4.9,1.0,0.0,1.5,5.6,2.6,0.5,0.0,0.3,0.3,0.0,35.0
Itati,LE-CL-03,Itororó,Itororó (Itati) - LE-CL-03,-15.05273,-40.02292,Sudoeste,RPGA do Leste,0.0,0.0,0.0,0.4,0.4,0.2,5.6,10.2,0.0,0.2,0.0,0.0,0.0,0.0,0.0,0.0,0.0,0.0,0.6,0.2,0.0,0.0,0.0,28.0,2.2,0.0,0.0,0.0,0.0,48.0
Nova Canaã,292270601C,Nova Canaã,Nova Canaã - 292270601C,-14.662641,-40.274647,Sudoeste,RPGA do Rio de Contas,0.2,0.0,0.0,0.0,0.0,0.0,0.0,0.0,0.0,0.0,0.0,0.0,0.0,0.0,1.2,0.0,0.0,1.8,0.6,0.2,0.0,0.0,0.0,4.8,3.2,0.0,0.0,0.0,0.0,12.0
Caculé,290500801C,Caculé,Caculé - 290500801C,-14.498111,-42.259611,Sudoeste,RPGA do Rio de Contas,0.0,0.0,0.0,0.0,11.0,3.4,2.4,1.4,1.0,1.2,0.2,0.0,0.0,0.0,0.0,0.0,0.0,0.0,4.8,0.0,0.0,0.0,0.0,2.6,0.0,0.0,0.0,0.0,0.0,28.0
Caraíbas,290689901C,Caraíbas,Caraíbas - 290689901C,-14.725138,-41.276972,Sudoeste,RPGA do Rio de Contas,0.0,0.0,0.0,5.6,0.0,0.0,0.0,2.4,0.2,0.0,0.0,0.0,0.0,0.0,0.0,0.6,0.0,0.0,31.2,0.0,0.0,0.0,0.0,0.8,3.6,0.0,0.0,0.0,0.0,44.4
Fz Nanci,53880000,Camacã,Camacã (Fz Nanci) - 53880000,-15.581395,-39.521095,Sul,RPGA do Rio Pardo,0.0,0.0,1.0,0.2,0.0,0.2,0.8,0.0,0.0,0.0,0.0,0.0,0.0,0.0,0.0,1.0,6.4,8.6,3.0,0.0,0.0,0.0,0.0,0.2,0.4,0.0,0.0,0.0,0.0,21.8
PCH Cach. da Lixa M,55354000,Jucuruçu,Jucuruçu (PCH Cach. da Lixa M) - 55354000,-17.06703,-40.068619,Sul,"RPGA dos Rios Peruípe, Itanhém e Jucuruçu",0.0,0.0,0.0,0.0,0.0,0.0,0.0,0.8,0.6,0.0,1.8,0.0,0.0,0.0,0.0,0.0,0.0,0.0,0.0,0.0,0.0,5.0,19.4,10.8,1.2,0.0,0.0,0.0,0.0,39.6
Caravelas,A405,Caravelas,Caravelas - A405,-17.739413,-39.258617,Sul,"RPGA dos Rios Peruípe, Itanhém e Jucuruçu",0.0,0.0,0.0,0.0,0.0,0.0,0.0,0.4,0.0,0.0,0.0,0.0,0.2,0.0,6.2,0.0,0.0,0.0,0.0,0.0,0.0,0.0,1.4,5.4,0.4,0.2,0.2,0.6,0.4,15.4
PCH Colino II M,55355600,Vereda,Vereda (PCH Colino II M) - 55355600,-17.07126,-40.15474,Sul,"RPGA dos Rios Peruípe, Itanhém e Jucuruçu",0.0,0.0,0.0,0.0,0.0,0.0,0.0,0.0,0.5,3.5,12.5,0.0,0.0,0.0,0.0,0.0,0.0,0.0,0.25,3.25,0.0,0.0,30.5,12.0,3.75,0.0,0.0,0.0,0.0,66.25
Itamaraju,A455,Itamaraju,Itamaraju - A455,-17.17103,-39.58819,Sul,"RPGA dos Rios Peruípe, Itanhém e Jucuruçu",0.0,0.0,0.0,0.0,0.0,0.8,0.0,0.0,0.0,0.0,0.0,0.0,0.0,0.0,0.0,0.0,0.0,0.8,2.8,0.0,0.0,0.0,1.2,2.0,1.2,1.4,0.0,0.0,0.0,10.21
Itajuípe,,Itajuípe,Itajuípe,-14.6744,-39.3769,Sul,RPGA do Leste,2.2,0.0,0.2,11.0,0.0,0.0,16.0,0.0,0.0,0.0,0.0,0.0,0.0,0.0,1.8,0.0,0.0,7.6,11.2,0.2,0.0,0.0,0.0,1.6,11.4,0.2,0.0,0.0,0.0,63.41
Canavieiras,83398,Canavieiras,Canavieiras - 83398,-15.666667,-38.95,Sul,RPGA do Rio Pardo,0.0,0.0,0.0,8.1,0.0,0.0,0.0,0.0,0.0,0.0,0.0,0.0,0.0,0.0,0.0,1.2,2.2,6.4,6.9,16.5,0.0,4.4,0.0,0.0,10.2,0.0,0.0,0.0,0.0,55.9
Caravelas,83498,Caravelas,Caravelas - 83498,-17.739167,-39.258333,Sul,"RPGA dos Rios Peruípe, Itanhém e Jucuruçu",0.0,0.0,0.0,0.0,0.0,0.0,0.0,0.0,0.0,0.0,0.0,0.0,0.0,0.0,5.6,0.0,0.0,0.0,0.0,0.0,0.0,0.0,0.0,6.2,0.2,0.0,0.0,0.8,0.2,13.0
Barra do Rocha,290310201A,Barra do Rocha,Barra do Rocha - 290310201A,-14.208644,-39.598562,Sul,RPGA do Rio de Contas,4.0,0.0,0.0,0.4,0.0,0.0,0.0,0.0,2.2,2.4,0.0,0.0,0.0,0.0,4.4,0.2,2.6,2.8,0.4,0.2,0.2,0.0,0.0,3.4,2.4,0.0,0.0,0.0,0.6,26.2
Guaratinga,83446,Guaratinga,Guaratinga - 83446,-16.58,-39.78,Sul,"RPGA dos Rios dos Frades, Buranhém e Santo Antônio",0.0,0.0,0.0,1.4,0.0,0.0,0.0,0.0,0.0,0.0,0.0,0.0,0.0,0.0,0.0,1.0,0.0,4.8,3.8,0.0,0.0,0.0,0.0,0.0,0.0,1.4,0.0,0.0,0.0,12.4
Centro,290580001A,Camamu,Camamu (Centro) - 290580001A,-13.943506,-39.10251,Sul,RPGA do Recôncavo Sul,0.0,2.0,6.2,4.0,0.2,0.0,0.0,0.0,6.4,0.2,0.0,0.0,0.0,0.0,8.8,0.2,1.2,36.0,13.8,11.8,0.0,2.0,0.0,9.4,2.6,0.0,0.0,0.0,0.0,104.8
Novo Horizonte,291180801A,Guaratinga,Guaratinga (Novo Horizonte) - 291180801A,-16.582916,-39.780555,Sul,"RPGA dos Rios dos Frades, Buranhém e Santo Antônio",0.0,0.0,0.0,1.0,0.0,0.0,0.0,0.0,0.0,0.0,0.0,0.0,0.0,0.0,0.0,0.8,0.0,4.4,3.4,0.2,0.0,0.0,0.0,0.0,0.0,2.0,0.0,0.0,0.0,11.8
Passagem,291490101A,Itacaré,Itacaré (Passagem) - 291490101A,-14.280609,-39.002952,Sul,RPGA do Rio de Contas,0.0,0.0,5.0,0.2,0.0,0.0,0.0,0.0,0.0,0.0,0.0,0.0,1.0,0.4,4.4,0.0,0.2,8.2,9.2,33.8,2.6,1.0,0.0,11.8,10.8,0.0,0.0,0.0,0.0,88.6
Centro,291560101A,Itamaraju,Itamaraju (Centro) - 291560101A,-17.027541,-39.534994,Sul,"RPGA dos Rios Peruípe, Itanhém e Jucuruçu",0.0,0.0,0.0,0.0,0.0,2.8,0.0,0.0,0.0,0.0,0.0,0.0,0.0,0.0,0.0,0.6,0.0,0.4,4.4,0.6,0.0,0.0,0.4,6.2,1.6,6.4,0.0,0.0,0.0,23.4
Pau Brasil,292390201A,Pau Brasil,Pau Brasil - 292390201A,-15.46122,-39.65225,Sul,RPGA do Rio Pardo,0.0,0.0,0.0,2.4,0.0,0.0,0.2,0.2,0.0,0.0,0.0,0.0,0.0,0.0,0.0,0.0,0.0,4.6,3.2,0.2,0.0,0.0,0.0,5.4,3.2,0.2,0.0,0.0,0.0,19.6
Ribeira,292550101A,Prado,Prado (Ribeira) - 292550101A,-17.338255,-39.232281,Sul,"RPGA dos Rios Peruípe, Itanhém e Jucuruçu",0.0,0.0,0.0,0.0,0.0,0.0,0.0,0.0,0.0,0.0,0.0,0.0,0.0,0.0,0.0,0.0,4.4,0.0,0.0,0.0,0.0,0.0,0.0,16.0,4.0,0.0,0.0,0.0,0.0,24.4
Centro,292805901A,Santa Luzia,Santa Luzia (Centro) - 292805901A,-15.42976,-39.332759,Sul,RPGA do Leste,0.0,0.0,0.0,1.4,0.0,0.0,3.4,18.0,0.0,0.0,0.0,0.0,0.0,0.0,0.0,0.8,0.8,3.6,1.0,0.8,0.0,0.0,0.0,0.0,24.2,0.0,0.0,0.0,0.0,54.0
Maraú,A438,Maraú,Maraú - A438,-13.90694,-38.97222,Sul,RPGA do Recôncavo Sul,3.0,0.0,5.2,0.0,0.0,0.2,0.2,8.0,7.8,0.4,1.8,0.0,0.8,0.6,0.2,0.8,3.8,46.0,9.8,20.0,0.4,0.0,0.0,38.0,2.0,0.0,0.0,0.0,3.2,152.2
Una,A437,Una,Una - A437,-15.280215,-39.09127,Sul,RPGA do Leste,0.0,0.0,0.2,0.0,0.0,0.2,0.0,0.0,0.0,0.0,0.0,0.0,0.0,0.0,0.2,0.0,0.0,0.0,0.0,0.0,0.0,0.0,0.0,0.0,0.0,0.0,0.0,0.0,0.0,0.61
Porto Seguro,A427,Porto Seguro,Porto Seguro - A427,-16.388977,-39.182389,Sul,"RPGA dos Rios dos Frades, Buranhém e Santo Antônio",0.0,0.0,7.2,0.2,0.4,0.2,0.2,0.0,0.0,0.0,0.0,0.0,0.0,0.0,0.0,1.6,0.0,0.0,5.8,0.0,0.0,0.6,0.0,0.0,0.0,0.8,0.0,0.0,0.0,17.0
Abrolhos,A422,Caravelas,Caravelas (Abrolhos) - A422,-17.79052,-39.22789,Sul,"RPGA dos Rios Peruípe, Itanhém e Jucuruçu",0.0,0.0,0.0,0.0,0.0,0.0,0.0,0.0,0.0,0.0,0.0,0.0,0.0,0.0,0.6,0.0,0.0,0.0,0.0,2.8,0.0,0.0,3.0,0.0,3.6,0.0,0.0,0.0,0.0,10.0
Belmonte,A447,Belmonte,Belmonte - A447,-16.08487,-39.21726,Sul,"RPGA dos Rios dos Frades, Buranhém e Santo Antônio",0.0,0.0,2.2,0.6,0.2,0.0,0.0,0.0,0.0,0.0,0.0,0.0,0.0,0.8,0.2,0.6,0.0,0.4,6.8,0.0,0.0,0.0,0.0,0.2,4.0,0.2,0.0,0.0,0.2,16.4
Mascote,53950000,Mascote,Mascote - 53950000,-15.565561,-39.302756,Sul,RPGA do Rio Pardo,0.0,0.0,1.0,0.4,0.4,5.0,0.0,0.0,0.0,0.0,0.0,0.0,0.0,0.0,6.0,0.4,3.2,13.2,6.8,3.8,0.0,0.6,0.0,0.6,8.0,0.6,0.0,0.0,0.0,50.0
PCH Colino I J,55357000,Jucuruçu,Jucuruçu (PCH Colino I J) - 55357000,-17.0822,-40.0772,Sul,"RPGA dos Rios Peruípe, Itanhém e Jucuruçu",0.0,0.0,0.0,0.0,0.0,0.0,0.0,1.5,4.75,0.75,1.25,0.0,0.0,0.0,0.0,0.0,0.0,0.0,1.0,0.25,0.0,0.0,33.25,11.75,1.5,0.0,0.0,0.0,0.0,56.0
Eunápolis,FB-CL-01,Eunápolis,Eunápolis - FB-CL-01,-16.290555,-39.579722,Sul,"RPGA dos Rios dos Frades, Buranhém e Santo Antônio",0.0,0.0,0.0,0.0,0.0,1.25,1.25,4.25,0.0,0.0,1.25,0.0,0.0,0.0,3.0,0.0,0.0,2.75,0.0,0.0,0.0,0.0,0.0,28.5,0.0,1.0,0.0,0.0,0.0,43.25
Teixeira de Freitas,PJ-CL-01,Teixeira de Freitas,Teixeira de Freitas - PJ-CL-01,-17.575555,-39.732777,Sul,"RPGA dos Rios Peruípe, Itanhém e Jucuruçu",0.0,0.0,0.0,0.0,0.0,0.0,0.0,9.8,3.6,0.9,0.0,0.4,2.8,5.5,3.3,0.6,0.7,0.4,1.8,0.5,0.7,0.8,9.6,6.5,3.3,0.0,1.0,1.8,2.2,56.2
Itabuna,Fazenda Barra,Itabuna,Itabuna - Fazenda Barra,-14.8997,-39.3686,Sul,RPGA do Leste,0.6,0.0,0.8,4.0,1.4,0.2,0.6,23.0,0.0,0.0,0.0,0.0,0.0,0.0,0.0,0.2,2.0,4.4,0.6,11.8,0.0,0.2,0.0,0.0,1.8,2.4,0.0,0.0,0.0,54.0
Centro,290340901A,Belmonte,Belmonte (Centro) - 290340901A,-15.859179,-38.878025,Sul,RPGA do Rio Jequitinhonha,0.2,0.0,0.2,0.4,0.2,0.0,0.0,0.0,0.0,0.0,0.0,0.0,0.0,2.37,0.0,0.2,2.77,1.19,16.74,8.85,0.0,0.2,0.0,0.0,8.47,0.0,0.0,0.0,0.0,41.79
São João do Panelinha,290560202A,Camacan,Camacan (São João do Panelinha) - 290560202A,-15.375278,-39.489984,Sul,RPGA do Rio Pardo,0.0,0.0,0.39,4.52,0.0,0.0,32.58,0.98,0.2,0.0,0.0,0.0,0.0,0.0,0.0,0.2,0.0,0.39,3.35,0.78,0.0,0.0,0.0,0.79,5.15,0.0,0.0,0.0,0.0,49.33
Centro,290560203A,Camacan,Camacan (Centro) - 290560203A,-15.416389,-39.493873,Sul,RPGA do Rio Pardo,1.39,0.0,0.0,0.0,0.2,0.0,0.0,0.99,0.0,0.0,0.0,0.0,0.0,0.2,0.2,0.0,2.36,0.4,2.82,0.0,0.0,0.0,0.0,0.4,2.96,0.2,0.0,0.0,0.0,12.13
Conquista,291360601A,Ilhéus,Ilhéus (Conquista) - 291360601A,-14.797213,-39.04608,Sul,RPGA do Leste,0.79,5.12,19.7,20.27,0.0,0.0,0.0,0.0,0.0,0.0,0.0,0.0,1.19,0.0,1.38,0.2,0.0,18.42,24.01,13.8,0.98,7.34,0.0,6.9,9.1,0.2,0.0,0.0,0.0,129.4
Malhado,291360602A,Ilhéus,Ilhéus (Malhado) - 291360602A,-14.789158,-39.048858,Sul,RPGA do Leste,3.35,4.55,12.79,19.92,0.0,0.0,0.2,0.0,0.0,0.0,0.0,0.0,0.59,0.0,2.76,0.0,0.98,16.81,17.32,5.14,2.76,4.14,0.0,7.53,7.11,0.82,0.0,0.0,0.0,106.78
São Caetano,291480202A,Itabuna,Itabuna (São Caetano) - 291480202A,-14.80638,-39.27803,Sul,RPGA do Leste,1.58,0.0,0.0,2.23,0.98,0.2,6.3,11.64,0.0,0.0,0.0,0.0,0.0,0.0,8.3,3.96,0.79,6.9,1.97,1.38,0.2,0.0,0.0,0.0,24.26,0.99,0.0,0.0,0.0,71.68
Nova Ferradas,291480203A,Itabuna,Itabuna (Nova Ferradas) - 291480203A,-14.857213,-39.346922,Sul,RPGA do Leste,1.38,0.0,0.0,5.32,7.85,0.0,5.71,8.18,0.0,0.0,0.0,0.0,0.0,0.0,3.55,0.39,0.4,0.59,0.79,0.2,0.0,0.0,0.0,0.0,7.32,1.57,0.0,0.0,0.0,43.26
Planalto I,292110401A,Medeiros Neto,Medeiros Neto (Planalto I) - 292110401A,-17.365,-40.223,Sul,"RPGA dos Rios Peruípe, Itanhém e Jucuruçu",0.0,0.0,0.0,0.0,0.0,0.0,0.0,0.0,0.0,36.52,0.0,0.0,0.0,0.0,0.0,0.0,0.0,0.2,0.0,0.39,0.0,0.0,13.67,0.0,0.0,0.0,0.0,0.0,0.0,50.79
Centro,292300102A,Nova Viçosa,Nova Viçosa (Centro) - 292300102A,-17.893,-39.372,Sul,"RPGA dos Rios Peruípe, Itanhém e Jucuruçu",0.0,0.0,0.0,0.0,0.0,0.0,0.0,0.0,0.0,0.0,0.0,0.0,0.0,0.0,8.27,0.0,5.93,0.0,0.0,0.0,0.0,0.0,0.6,0.6,0.0,0.0,0.0,0.0,1.38,16.78
Posto da Mata,292300103A,Nova Viçosa,Nova Viçosa (Posto da Mata) - 292300103A,-17.896,-39.37,Sul,"RPGA dos Rios Peruípe, Itanhém e Jucuruçu",0.0,0.0,0.0,0.0,0.0,0.0,0.0,0.2,0.0,0.0,0.0,0.0,0.0,0.0,13.58,0.2,3.76,0.0,0.0,0.0,0.0,0.0,0.2,0.6,0.0,0.0,0.0,0.0,0.0,18.54
Areião,292530301A,Porto Seguro,Porto Seguro (Areião) - 292530301A,-16.441,-39.076,Sul,"RPGA dos Rios dos Frades, Buranhém e Santo Antônio",0.0,0.0,0.0,0.0,0.0,0.0,0.0,0.99,0.0,0.0,0.0,0.0,0.0,0.0,0.0,0.0,0.2,0.0,0.0,0.0,0.0,0.0,0.0,0.0,0.0,0.0,0.0,0.0,0.0,1.19
Paraguai,292530302A,Porto Seguro,Porto Seguro (Paraguai) - 292530302A,-16.41,-39.08,Sul,"RPGA dos Rios dos Frades, Buranhém e Santo Antônio",0.0,0.0,0.0,0.0,0.0,0.0,0.0,0.6,0.0,0.0,0.0,0.0,0.0,0.0,0.0,0.0,0.2,0.4,0.0,1.4,0.6,0.0,0.0,0.0,0.0,0.0,0.0,0.0,0.0,3.2
Trancoso,292530303A,Porto Seguro,Porto Seguro (Trancoso) - 292530303A,-16.595,-39.109,Sul,"RPGA dos Rios dos Frades, Buranhém e Santo Antônio",0.0,0.0,0.0,0.0,0.0,1.8,3.34,0.4,0.0,0.0,0.0,0.0,0.0,0.0,0.0,0.0,0.0,5.14,0.0,1.77,0.2,0.0,0.0,2.95,1.19,0.0,0.0,0.0,0.0,16.79
BR367km4,292770501A,Santa Cruz Cabrália,Santa Cruz Cabrália (BR367km4) - 292770501A,-16.321,-39.023,Sul,"RPGA dos Rios dos Frades, Buranhém e Santo Antônio",0.0,0.0,0.4,0.0,0.0,0.0,0.0,0.0,0.0,0.0,0.0,0.0,0.0,0.0,0.0,0.0,0.0,0.0,3.74,0.4,0.4,0.0,0.0,0.0,1.18,0.0,0.0,0.0,0.0,6.13
Estádio Municipal,291530401A,Itagimirim,Itagimirim (Estádio Municipal) - 291530401A,-16.089181,-39.615546,Sul,RPGA do Rio Jequitinhonha,0.0,0.0,0.0,0.0,0.0,1.77,2.36,0.0,0.0,0.0,0.0,0.0,0.0,0.0,0.0,0.0,0.0,0.0,6.71,9.05,0.0,0.0,0.0,0.0,0.0,0.59,0.0,0.0,0.0,20.48
Jusante,54945000,Itapebi,Itapebi (Jusante) - 54945000,-15.949206,-39.5225,Sul,RPGA do Rio Jequitinhonha,0.0,0.0,0.0,0.0,1.2,0.0,5.4,4.8,0.0,0.0,0.6,0.0,0.0,0.2,0.0,0.2,1.0,0.2,20.6,5.8,0.0,0.0,0.0,0.0,0.0,2.2,0.0,0.0,0.0,42.2
Bom Jesus da Lapa,A418,Bom Jesus da Lapa,Bom Jesus da Lapa - A418,-13.251094,-43.405365,São Francisco,RPGA do Rio Carnaíba de Dentro,0.0,0.0,0.0,0.4,7.4,0.0,2.4,33.0,21.6,0.0,0.0,0.0,0.0,0.0,0.0,0.2,0.0,0.0,0.0,0.0,0.2,0.0,8.8,0.0,0.0,0.0,0.0,0.6,3.4,78.01
Pilão Arcado,A449,Pilão Arcado,Pilão Arcado - A449,-10.003519,-42.474785,São Francisco,RPGA do Lago de Sobradinho,0.0,0.0,0.0,0.0,1.8,11.4,4.4,0.0,0.0,0.0,0.0,0.0,0.0,0.0,0.0,2.4,0.0,0.0,0.0,0.0,0.0,0.0,9.0,0.2,0.0,0.0,0.0,0.0,71.2,100.4
Barra,83179,Barra,Barra - 83179,-11.083333,-43.166667,São Francisco,RPGA do Rio Grande,0.0,0.0,0.0,10.2,43.4,3.3,6.6,0.0,0.0,12.0,0.0,0.9,0.0,0.0,0.0,8.0,0.0,0.0,6.5,0.0,0.0,13.8,6.2,6.0,0.0,0.0,0.0,0.0,18.4,135.3
Bom Jesus da Lapa,83288,Bom Jesus da Lapa,Bom Jesus da Lapa - 83288,-13.251389,-43.405278,São Francisco,RPGA do Rio Carnaíba de Dentro,0.0,0.0,0.0,0.2,7.5,0.0,2.4,33.7,21.0,0.0,0.0,0.0,0.0,0.0,0.0,0.0,0.0,0.0,0.0,0.0,0.0,0.0,10.0,0.0,0.0,0.0,0.0,0.0,2.6,77.4
Santa Rita de Cássia,83076,Santa Rita de Cássia,Santa Rita de Cássia - 83076,-11.016667,-44.516667,São Francisco,RPGA do Rio Grande,0.0,0.0,13.6,24.0,24.0,0.3,0.0,6.6,27.2,0.0,0.0,7.8,0.0,0.0,0.0,0.0,0.0,0.0,0.0,0.6,0.0,26.0,0.0,0.0,0.0,0.0,0.0,0.4,0.0,130.5
Guanambí,A426,Guanambí,Guanambí - A426,-14.208123,-42.749647,São Francisco,RPGA do Rio Carnaíba de Dentro,0.0,0.0,0.0,8.6,4.8,7.0,0.0,0.0,0.4,4.8,0.0,0.0,0.0,0.0,0.0,0.0,0.0,0.0,0.0,0.0,0.0,17.2,0.2,0.0,0.0,0.0,0.0,0.0,0.0,43.0
Buritirama,A432,Buritirama,Buritirama - A432,-10.722925,-43.651203,São Francisco,RPGA do Rio Grande,0.0,0.0,0.0,5.6,24.6,0.0,1.8,16.4,0.2,0.0,0.0,0.0,0.0,0.0,0.0,0.4,0.0,0.0,0.0,0.0,0.0,6.0,8.8,1.4,0.0,0.0,0.0,0.0,2.6,67.8
Barra,A429,Barra,Barra - A429,-11.084858,-43.138998,São Francisco,RPGA do Rio Grande,0.0,0.0,0.0,12.2,35.6,8.4,4.2,2.6,1.0,0.6,1.0,0.8,0.6,0.2,0.0,8.4,1.0,0.0,4.6,1.4,0.2,11.0,2.2,10.0,1.2,0.2,0.0,0.0,9.6,117.0
Ibotirama,A439,Ibotirama,Ibotirama - A439,-12.19306,-43.21342,São Francisco,RPGA dos Rios Paramirim e Santo Onofre,0.0,0.0,0.0,20.6,18.8,1.2,0.8,14.8,22.4,0.0,0.0,0.0,0.0,0.0,0.0,0.0,0.0,0.0,0.0,1.0,7.0,0.0,6.4,2.2,0.0,0.0,0.0,14.0,44.2,153.4
Macaúbas,PM-CL-02,Macaúbas,Macaúbas - PM-CL-02,-13.07953,-42.6957,São Francisco,RPGA dos Rios Paramirim e Santo Onofre,0.0,0.0,2.6,23.2,1.8,29.0,15.4,0.0,29.2,0.0,0.0,0.0,0.0,0.0,1.2,0.0,0.0,0.0,0.0,0.4,0.0,1.8,0.2,28.0,0.0,0.2,0.0,2.0,0.0,135.0
Faz. Macambira,46675000,Cotegipe,Cotegipe (Faz. Macambira) - 46675000,-11.6106,-44.1567,São Francisco,RPGA do Rio Grande,0.2,0.2,0.0,0.0,2.8,1.6,1.0,0.2,0.0,0.2,0.4,0.0,0.2,0.0,0.2,0.0,0.0,0.0,0.0,0.0,0.0,0.2,0.0,0.2,2.4,0.6,0.0,0.2,1.2,11.8
Fz.P. Limpo,46870000,Mansidão,Mansidão (Fz.P. Limpo) - 46870000,-11.236845,-43.950633,São Francisco,RPGA do Rio Grande,0.0,0.0,0.0,2.6,18.8,3.2,7.2,6.8,0.4,0.0,0.0,1.6,0.0,0.0,0.0,2.6,0.2,0.0,8.4,0.0,0.0,4.0,17.0,0.0,0.0,0.0,0.0,0.0,18.2,91.01
Santa Maria da Vitória,45910001,Santa Maria da Vitória,Santa Maria da Vitória - 45910001,-13.4006,-44.1989,São Francisco,"RPGA do Rio Corrente e Riachos do Ramalho, Serra Dourada e Brejo Velho",0.0,0.0,0.0,15.8,1.2,43.6,0.0,33.6,0.0,0.0,0.0,0.0,0.0,0.0,0.0,0.0,0.0,0.0,0.0,67.8,0.2,0.0,0.0,3.0,0.0,0.0,0.0,0.0,0.0,165.2
Caetité,CD-CL-01,Caetité,Caetité - CD-CL-01,-13.96659,-42.60482,São Francisco,RPGA do Rio Carnaíba de Dentro,0.0,0.1,3.6,16.6,3.8,2.5,6.5,8.7,17.3,1.7,0.0,0.4,0.8,0.3,2.2,0.0,0.0,2.3,1.6,2.4,1.7,6.2,11.7,0.6,0.1,0.0,0.0,2.3,0.4,93.8
Bom Jesus da Lapa,45480000,Bom Jesus da Lapa,Bom Jesus da Lapa - 45480000,-13.2572,-43.435,São Francisco,"RPGA do Rio Corrente e Riachos do Ramalho, Serra Dourada e Brejo Velho",0.0,0.0,0.0,0.4,2.0,0.0,3.8,33.8,0.0,0.0,0.0,0.0,0.2,0.0,0.0,0.0,0.0,0.0,0.0,0.0,0.0,0.0,4.6,0.0,1.2,1.2,0.0,1.4,1.6,50.21
Barra,46998000,Barra,Barra - 46998000,-11.0928,-43.1403,São Francisco,RPGA do Rio Grande,0.0,0.0,0.0,11.6,47.4,3.8,5.0,0.2,0.0,6.2,0.0,0.6,0.2,0.0,0.0,6.6,0.0,0.0,2.2,0.6,0.0,11.2,0.2,7.6,0.0,0.0,0.0,0.0,21.8,125.2
Boqueirão,46902000,Mansidão,Mansidão (Boqueirão) - 46902000,-11.345255,-43.826056,São Francisco,RPGA do Rio Grande,0.0,0.0,0.0,17.0,0.0,0.0,3.4,1.0,0.0,0.0,0.0,5.4,0.0,0.0,0.0,13.4,0.0,0.0,11.0,0.0,0.0,0.0,0.0,6.6,0.0,0.0,0.0,6.0,55.8,119.6
Volta da Serra,CD-CL-02,Paratinga,Paratinga (Volta da Serra) - CD-CL-02,-12.57591,-43.12782,São Francisco,RPGA do Rio Carnaíba de Dentro,0.0,0.0,0.0,5.4,21.4,0.4,2.4,4.2,6.6,8.8,0.0,0.0,0.0,0.0,0.0,0.0,0.0,0.0,0.0,0.0,7.2,0.0,14.0,0.0,0.0,0.0,0.0,8.4,32.4,111.21
Xique-Xique,PM-CL-05,Xique-Xique,Xique-Xique - PM-CL-05,-10.82519,-42.68914,São Francisco,RPGA dos Rios Paramirim e Santo Onofre,0.0,0.0,0.2,0.0,3.8,4.4,0.4,0.0,0.0,0.0,0.0,0.0,0.0,0.0,0.0,0.4,0.0,0.0,0.0,0.0,0.0,15.4,14.4,18.0,0.0,0.0,0.0,0.0,36.2,93.2
Boquira,290410001C,Boquira,Boquira - 290410001C,-12.809794,-42.71825,São Francisco,RPGA dos Rios Paramirim e Santo Onofre,0.0,0.0,0.0,19.0,2.8,18.2,1.4,0.0,2.4,0.0,0.0,0.0,0.0,0.0,0.0,0.0,0.0,0.0,0.0,0.0,0.0,0.0,0.0,0.0,0.0,0.2,0.0,0.0,0.0,44.0
Guanambi,291170901C,Guanambi,Guanambi - 291170901C,-14.212194,-42.839166,São Francisco,RPGA do Rio Carnaíba de Dentro,0.0,0.0,0.0,15.4,2.6,0.2,0.0,0.2,1.6,13.2,0.2,0.0,0.0,0.0,0.0,0.0,0.0,0.0,0.0,0.0,3.8,31.6,14.0,0.2,0.0,0.0,0.0,0.0,0.4,83.41
Licínio de Almeida,291940501C,Licínio de Almeida,Licínio de Almeida - 291940501C,-14.688861,-42.503,São Francisco,RPGA do Rio de Contas,0.0,0.0,0.0,0.0,2.2,0.0,0.0,0.0,1.2,1.2,0.0,0.2,0.0,0.0,0.0,0.0,0.0,0.0,0.0,0.0,0.0,0.0,0.0,0.0,0.0,3.8,0.0,0.0,0.0,8.61
