nome_estacao,codigo,municipio,estacao,latitude,longitude,regiao,rpga,01_05_20,02_05_20,03_05_20,04_05_20,05_05_20,06_05_20,07_05_20,08_05_20,09_05_20,10_05_20,11_05_20,12_05_20,13_05_20,14_05_20,15_05_20,16_05_20,17_05_20,18_05_20,19_05_20,20_05_20,21_05_20,22_05_20,23_05_20,24_05_20,25_05_20,26_05_20,27_05_20,28_05_20,29_05_20,30_05_20,31_05_20,total
Lençóis,83242,Lençóis,Lençóis - 83242,-12.5575,-41.388889,Chapada Diamantina,RPGA do Rio Paraguaçu,0.0,0.0,0.0,1.0,0.6,1.4,0.0,0.8,0.2,0.0,0.0,0.8,35.7,1.3,0.0,0.0,0.0,12.3,4.0,1.0,0.1,1.3,3.4,10.9,0.0,0.0,13.8,2.0,1.0,0.0,0.0,91.6
Piatã,A430,Piatã,Piatã - A430,-13.155681,-41.774125,Chapada Diamantina,RPGA do Rio de Contas,0.2,0.0,0.0,0.0,0.0,0.0,0.2,0.0,2.0,0.4,1.0,2.2,7.2,0.2,0.0,0.2,0.8,12.0,7.6,2.6,0.0,1.8,1.2,0.8,0.0,0.0,0.4,0.2,0.0,0.0,0.0,41.0
Livramento de Nossa Senhora,291950401U,Livramento de Nossa Senhora,Livramento de Nossa Senhora - 291950401U,-13.682872,-41.841236,Chapada Diamantina,RPGA do Rio de Contas,0.0,0.0,0.0,0.0,0.0,0.0,0.0,0.0,2.0,0.0,0.0,0.0,8.4,0.0,0.2,0.0,0.0,0.0,0.2,0.0,0.0,0.0,0.0,0.0,0.0,0.0,0.0,0.0,0.0,0.0,0.0,10.8
Iaçu,51280000,Iaçu,Iaçu - 51280000,-12.7622,-40.2136,Chapada Diamantina,RPGA do Rio Paraguaçu,0.0,0.0,0.0,0.0,0.6,0.0,0.6,0.6,0.0,0.0,0.0,0.4,2.2,0.6,0.0,0.6,0.0,0.0,7.6,1.2,0.0,2.2,0.4,0.0,0.0,0.0,0.0,0.4,0.0,0.0,0.0,17.4
Lençóis,A425,Lençóis,Lençóis - A425,-12.557854,-41.388808,Chapada Diamantina,RPGA do Rio Paraguaçu,0.2,0.0,0.0,1.0,0.6,1.4,0.0,0.6,0.2,0.0,0.0,0.6,34.4,1.4,0.0,0.0,0.0,12.4,4.2,1.0,0.0,1.2,3.2,10.8,0.0,0.0,13.6,2.2,1.0,0.0,0.0,90.0
Itaetê,,Itaetê,Itaetê,-12.991944,-40.960833,Chapada Diamantina,RPGA do Rio Paraguaçu,0.0,0.0,0.0,0.0,0.0,0.0,0.0,0.0,0.0,0.0,0.0,0.0,0.0,0.0,0.0,0.0,0.0,0.0,0.0,0.0,0.0,0.0,0.0,0.0,0.0,0.0,0.0,0.0,0.0,0.0,0.0,0.0
Lagoa Bonita,PG-PR-15,Iacú,Iacú (Lagoa Bonita) - PG-PR-15,-12.931506,-40.226468,Chapada Diamantina,RPGA do Rio Paraguaçu,0.0,0.0,0.0,0.0,0.0,0.8,0.0,0.0,0.0,0.0,0.0,1.0,2.2,0.0,0.0,0.0,0.0,0.2,4.0,0.0,0.0,1.6,0.2,0.0,0.0,0.0,0.2,0.6,0.0,0.0,0.0,10.8
João Amaro,PG-PR-16,Iaçu,Iaçu (João Amaro) - PG-PR-16,-12.800391,-40.363139,Chapada Diamantina,RPGA do Rio Paraguaçu,0.0,0.0,0.0,0.0,1.0,0.2,0.0,0.2,0.0,0.0,0.0,0.2,0.0,0.0,0.0,0.0,0.0,0.4,2.8,0.0,0.0,0.8,4.4,0.0,0.0,0.0,0.8,16.8,0.0,0.0,0.0,27.6
Guiné,PG-PR-24,Mucugê,Mucugê (Guiné) - PG-PR-24,-12.771772,-41.540679,Chapada Diamantina,RPGA do Rio Paraguaçu,0.0,0.2,0.0,0.4,0.0,0.0,0.0,8.6,0.0,0.0,0.0,0.4,10.0,0.0,0.0,0.0,0.0,5.0,0.4,0.8,0.0,1.2,5.0,0.8,0.2,0.0,0.0,0.0,0.0,0.0,0.0,33.0
Machado Portela,PG-PR-26,Marcionílio Souza,Marcionílio Souza (Machado Portela) - PG-PR-26,-13.153732,-40.768155,Chapada Diamantina,RPGA do Rio Paraguaçu,0.0,0.0,0.0,0.0,0.0,0.0,0.0,0.0,0.0,0.0,0.0,0.0,6.8,7.8,0.2,0.0,0.0,4.0,2.0,0.0,0.0,0.4,0.4,0.2,0.0,0.0,3.8,8.2,0.0,0.0,0.0,33.8
Rio do Pires,PM-CL-04,Rio do Pires,Rio do Pires - PM-CL-04,-13.11695,-42.28411,Chapada Diamantina,RPGA dos Rios Paramirim e Santo Onofre,0.4,0.3,0.0,0.3,1.0,0.0,0.0,1.1,0.4,0.1,0.2,0.7,0.3,0.1,0.1,0.2,0.6,0.1,0.3,0.2,0.6,0.5,0.3,0.1,0.2,0.6,0.5,0.0,0.1,0.1,0.0,9.4
Seabra,PG-CL-09,Seabra,Seabra - PG-CL-09,-12.39971,-41.78893,Chapada Diamantina,RPGA do Rio Paraguaçu,0.0,0.0,0.0,0.0,1.8,0.0,0.0,0.0,0.0,0.0,0.0,0.2,0.6,0.0,0.0,0.0,0.0,8.4,0.2,0.4,0.2,0.4,0.2,0.2,0.0,0.0,0.6,0.2,0.0,0.0,0.0,13.4
Iaçu,PG-CL-05,Iaçu,Iaçu - PG-CL-05,-12.9114,-40.03177,Chapada Diamantina,RPGA do Rio Paraguaçu,0.0,0.0,0.0,0.0,0.2,0.2,0.0,0.0,0.0,0.0,0.0,2.2,0.2,0.0,1.0,0.2,0.0,0.0,1.6,0.8,0.0,9.0,0.0,0.0,1.8,0.2,0.0,0.2,0.0,0.0,0.0,17.6
Ibiaporã,PG-CL-01,Mundo Novo,Mundo Novo (Ibiaporã) - PG-CL-01,-12.05379,-40.83722,Chapada Diamantina,RPGA do Rio Paraguaçu,0.0,0.0,0.0,0.2,5.2,0.8,0.2,0.0,0.4,1.0,0.4,3.0,6.8,3.4,0.4,0.2,0.0,0.0,19.8,13.4,2.2,10.8,1.8,6.2,0.0,0.0,17.6,8.0,2.6,0.2,1.0,105.61
Marcionílio Souza,PG-CL-03,Marcionílio Souza,Marcionílio Souza - PG-CL-03,-13.00021,-40.537783,Chapada Diamantina,RPGA do Rio Paraguaçu,0.0,0.0,0.0,0.0,0.0,0.0,0.0,0.0,4.4,0.0,0.0,0.0,6.8,0.0,0.0,0.0,0.0,5.8,0.0,0.4,0.0,0.0,0.2,3.0,0.0,0.0,2.2,0.6,0.0,0.0,0.2,23.6
Seabra,PG-PR-01,Seabra,Seabra - PG-PR-01,-12.428149,-41.770409,Chapada Diamantina,RPGA do Rio Paraguaçu,0.0,0.0,0.0,0.0,0.2,0.0,0.0,0.0,0.2,0.0,0.0,0.0,0.2,0.0,0.0,0.0,0.0,10.0,0.0,0.6,0.0,0.0,0.2,0.0,0.0,0.0,10.6,0.0,0.0,0.0,0.0,22.0
Baixa Grande,PG-PR-08,Baixa Grande,Baixa Grande - PG-PR-08,-11.908701,-40.183683,Chapada Diamantina,RPGA do Rio Paraguaçu,0.0,0.0,0.0,0.0,3.4,1.2,3.8,0.2,0.0,3.4,3.8,3.6,6.0,4.6,0.2,0.0,0.0,0.0,7.6,8.4,4.6,16.2,3.4,2.2,0.0,0.0,0.0,1.2,0.8,0.0,2.6,77.2
Ventura,PG-PR-10,Morro do Chapéu,Morro do Chapéu (Ventura) - PG-PR-10,-11.650911,-40.951765,Chapada Diamantina,RPGA do Rio Paraguaçu,0.0,0.2,0.0,0.0,1.0,2.4,0.4,0.0,0.0,0.0,0.6,2.2,4.0,0.0,0.0,0.2,0.0,0.0,0.0,5.6,0.8,3.4,1.8,0.8,0.0,0.0,0.0,0.2,14.8,0.0,0.0,38.41
Cafarnaum,290530501C,Cafarnaum,Cafarnaum - 290530501C,-11.745086,-41.497934,Chapada Diamantina,RPGA dos Rios Verde e Jacaré,0.0,0.2,0.0,0.0,0.0,0.0,0.0,0.0,0.0,0.0,0.0,0.0,0.0,0.0,0.0,0.0,0.0,0.0,6.2,0.0,0.0,0.0,0.0,0.8,0.0,0.0,0.8,50.4,0.0,0.0,0.0,58.4
Piatã,CO-CL-04,Piatã,Piatã - CO-CL-04,-13.164166,-41.770833,Chapada Diamantina,RPGA do Rio de Contas,0.0,0.0,0.0,0.0,0.0,0.0,0.0,0.5,2.75,0.5,1.0,3.25,6.0,0.0,0.0,0.0,0.0,13.5,9.0,3.75,0.5,2.25,1.0,0.0,0.0,2.75,0.25,0.0,0.0,0.0,0.0,47.0
PC Ponte Rio Capivari,51326200,Itaberaba,Itaberaba (PC Ponte Rio Capivari) - 51326200,-12.51429,-39.93422,Chapada Diamantina,RPGA do Rio Paraguaçu,0.0,0.0,0.0,0.0,3.2,0.0,0.0,0.0,0.0,0.0,0.0,0.0,0.4,0.0,0.4,0.0,0.0,0.0,0.0,0.0,0.0,0.0,0.0,0.0,0.0,0.0,0.0,0.0,0.0,0.0,0.0,4.0
Itaberaba,291470301C,Itaberaba,Itaberaba - 291470301C,-12.457663,-40.201519,Chapada Diamantina,RPGA do Rio Paraguaçu,0.0,0.0,0.0,0.0,4.6,0.0,0.0,0.0,0.0,0.0,0.0,0.4,5.6,0.4,0.0,0.0,0.0,0.0,0.0,2.4,0.8,3.0,0.8,0.0,0.0,0.2,0.0,0.2,0.0,0.0,0.0,18.41
Utinga,293280401C,Utinga,Utinga - 293280401C,-12.0756,-41.102466,Chapada Diamantina,RPGA do Rio Paraguaçu,0.0,0.0,0.0,0.0,1.0,1.8,0.0,0.0,0.4,0.0,0.0,0.0,1.8,12.4,0.0,0.0,0.0,0.0,10.4,1.2,0.0,1.2,0.0,10.8,0.0,0.0,41.2,5.6,0.0,0.0,1.2,89.0
Rio de Contas,292670701C,Rio de Contas,Rio de Contas - 292670701C,-13.570177,-41.818819,Chapada Diamantina,RPGA do Rio de Contas,0.0,0.0,0.2,0.0,0.0,0.0,0.0,0.0,9.0,0.4,0.4,0.2,18.6,0.0,0.0,13.2,0.0,8.6,1.2,2.0,0.0,0.0,0.4,1.0,0.0,0.0,0.0,1.0,0.0,0.0,0.0,56.2
Chorrochó,290770701C,Chorrochó,Chorrochó - 290770701C,-8.98354,-39.11837,Nordeste,RPGA dos Rios Macururé e Curaçá,0.0,0.0,0.0,0.0,0.0,0.0,0.0,0.0,0.0,3.8,0.0,0.0,0.0,1.6,0.0,0.0,0.0,0.0,0.0,13.8,5.2,1.0,0.0,0.0,0.0,0.0,3.0,2.4,1.2,0.0,0.0,32.0
Rodelas,292710101C,Rodelas,Rodelas - 292710101C,-8.85236,-38.76462,Nordeste,RPGA dos Rios Macururé e Curaçá,0.0,0.0,0.0,0.0,0.0,0.0,0.0,0.0,0.0,0.0,0.0,0.0,0.0,0.0,0.0,0.0,0.0,0.0,0.0,0.0,0.0,0.0,0.0,0.0,0.0,0.0,0.0,0.0,0.0,0.0,0.0,0.0
Ladeira Vermelha,291750801A,Jacobina,Jacobina (Ladeira Vermelha) - 291750801A,-11.161707,-40.554213,Nordeste,RPGA do Rio Itapicuru,0.0,0.0,9.0,0.0,0.2,4.8,0.6,0.0,0.4,0.4,0.2,0.2,1.6,0.6,0.6,0.8,0.0,0.0,0.0,2.0,4.4,11.0,3.8,0.6,1.2,0.2,0.0,18.4,2.2,0.0,0.0,63.21
Feliz Tomaz,291750802A,Jacobina,Jacobina (Feliz Tomaz) - 291750802A,-11.174316,-40.517837,Nordeste,RPGA do Rio Itapicuru,0.0,0.2,76.8,0.2,0.6,6.0,3.4,0.2,0.0,0.6,0.0,0.2,6.6,2.4,2.0,1.8,0.0,0.0,0.6,5.6,7.4,16.4,8.4,0.6,1.4,0.2,0.0,12.4,1.4,0.0,0.0,155.4
Conde,A431,Conde,Conde - A431,-12.03622,-37.68322,Nordeste,RPGA do Rio Itapicuru,12.6,14.2,0.0,0.4,3.0,9.0,4.8,0.0,12.8,62.8,12.4,1.4,22.6,33.4,0.0,0.0,0.0,0.0,35.4,165.4,49.6,8.2,9.8,2.4,0.0,0.0,1.2,25.4,15.4,0.6,0.2,503.0
Uauá,A435,Uauá,Uauá - A435,-9.833617,-39.495631,Nordeste,RPGA do Rio Vaza-Barris,0.0,0.8,0.0,0.0,0.0,0.0,0.0,1.4,1.2,1.2,0.2,0.2,0.8,8.0,0.0,0.0,0.0,0.0,0.0,6.2,17.8,1.4,1.0,0.0,0.6,0.0,0.0,11.0,1.6,0.0,0.0,53.4
Euclides da Cunha,A442,Euclides da Cunha,Euclides da Cunha - A442,-10.537233,-38.996605,Nordeste,RPGA do Rio Itapicuru,0.0,0.0,0.0,0.0,0.0,1.2,15.4,0.0,1.8,32.8,4.2,4.4,2.8,1.8,1.4,1.0,0.2,0.0,1.8,26.0,18.4,30.0,1.2,0.2,0.0,0.0,0.4,0.0,3.0,0.0,0.0,148.0
Queimadas,A436,Queimadas,Queimadas - A436,-10.984645,-39.617009,Nordeste,RPGA do Rio Itapicuru,0.2,0.0,10.4,0.2,0.8,0.0,1.2,0.0,0.0,0.6,0.0,0.8,0.0,0.0,2.6,0.0,0.0,0.0,0.0,21.6,0.6,8.6,0.2,0.0,0.0,0.2,0.2,0.0,0.0,0.0,0.0,48.21
Heliópolis,291185701C,Heliópolis,Heliópolis - 291185701C,-10.67348,-38.32726,Nordeste,RPGA do Rio Real,3.0,1.0,0.0,0.0,0.0,2.0,0.0,9.6,2.2,6.8,18.2,2.8,0.2,8.8,0.0,1.2,0.0,0.2,1.6,10.4,3.8,3.2,4.2,0.0,0.6,0.0,0.0,0.0,3.0,0.0,0.0,82.8
Serrinha,A441,Serrinha,Serrinha - A441,-11.664586,-39.022946,Nordeste,RPGA do Rio Paraguaçu,0.0,0.0,0.2,0.0,0.0,0.0,0.0,0.0,0.0,0.0,0.0,0.0,0.2,0.0,0.0,0.0,0.0,0.0,0.0,0.0,0.0,0.2,0.0,0.0,0.0,0.0,0.0,0.0,0.0,0.0,0.0,0.61
Senhor do Bonfim,A428,Senhor do Bonfim,Senhor do Bonfim - A428,-10.443072,-40.148244,Nordeste,RPGA do Rio Itapicuru,10.2,0.0,0.0,0.0,1.2,1.0,7.4,0.0,0.0,1.6,4.2,6.2,5.0,5.6,1.8,0.0,0.0,0.0,0.4,22.4,9.4,12.2,0.8,1.8,0.2,0.0,0.6,14.0,4.6,0.0,0.0,110.6
Pedras Altas,50430000,Capim Grosso,Capim Grosso (Pedras Altas) - 50430000,-11.18288,-40.04725,Nordeste,RPGA do Rio Itapicuru,0.0,1.2,0.6,0.0,0.0,0.0,1.6,0.0,0.0,1.0,0.0,0.0,5.0,0.0,0.0,0.0,0.0,0.0,0.0,9.8,1.6,10.4,5.6,2.4,0.6,0.0,0.4,2.4,28.4,0.0,0.0,71.0
Ponto Novo,50380000,Ponto Novo,Ponto Novo - 50380000,-10.845,-40.1128,Nordeste,RPGA do Rio Itapicuru,0.2,0.0,19.4,0.0,0.2,0.0,1.6,0.0,12.8,0.8,1.4,2.0,1.8,0.6,4.2,0.0,0.0,0.0,0.4,17.0,5.4,7.6,1.4,0.2,0.0,0.0,0.0,36.6,4.4,0.0,0.0,118.0
Capim Grosso,IT-CL-03,Capim Grosso,Capim Grosso - IT-CL-03,-11.36833,-40.03417,Nordeste,RPGA do Rio Itapicuru,0.0,2.6,0.0,0.0,0.0,2.0,3.0,0.0,0.0,2.8,1.4,0.6,4.2,1.0,0.2,0.0,0.0,0.0,0.6,16.2,4.8,6.0,1.2,0.6,0.0,0.0,0.0,2.6,0.2,0.2,0.8,51.0
Pé de Serra,PG-CL-07,Pé de Serra,Pé de Serra - PG-CL-07,-11.83676,-39.65905,Nordeste,RPGA do Rio Paraguaçu,0.0,0.0,0.0,0.0,0.8,2.2,2.2,1.0,0.2,0.4,1.0,0.2,2.2,0.2,5.0,0.2,0.0,0.0,0.0,15.8,5.6,5.0,0.0,7.0,0.0,0.0,0.0,6.8,0.0,0.8,0.8,57.4
Caldas do Jorro,IT-CL-05,Tucano,Tucano (Caldas do Jorro) - IT-CL-05,-11.03477,-38.80386,Nordeste,RPGA do Rio Itapicuru,0.0,0.0,0.0,0.0,0.0,1.6,1.8,0.0,0.8,24.4,6.2,6.4,2.8,0.6,0.6,0.2,0.0,0.0,1.6,51.4,8.4,1.0,0.8,0.8,0.0,0.0,0.0,0.0,4.6,0.0,0.0,114.0
Saúde,IT-CL-04,Saúde,Saúde - IT-CL-04,-10.95669,-40.38329,Nordeste,RPGA do Rio Itapicuru,0.0,1.0,6.8,0.0,0.0,0.4,1.0,0.0,0.0,0.2,0.0,0.2,5.6,3.0,1.2,0.0,0.0,0.2,0.2,10.6,6.6,7.2,3.6,3.4,0.2,0.0,0.2,41.0,17.4,0.0,0.0,110.0
Lajinha,IT-CL-06,Várzea do Poço,Várzea do Poço (Lajinha) - IT-CL-06,-11.4964,-40.34474,Nordeste,RPGA do Rio Itapicuru,0.0,0.0,0.0,0.2,1.2,5.4,2.8,0.2,0.0,0.4,0.0,0.8,1.2,0.4,0.8,2.8,0.0,0.2,0.6,5.2,4.0,4.6,0.8,0.6,0.0,0.0,0.0,78.6,1.2,0.0,0.6,112.6
Itapeipu,IT-PR-34,Jacobina,Jacobina (Itapeipu) - IT-PR-34,-11.315629,-40.356742,Nordeste,RPGA do Rio Itapicuru,1.0,0.6,0.2,0.0,3.8,4.0,6.0,0.2,0.0,0.2,0.8,1.0,3.6,1.4,0.2,0.0,0.0,0.0,1.2,10.8,5.6,10.0,2.0,3.0,0.0,0.0,0.0,59.4,2.0,0.6,0.4,118.0
Caém,IT-PR-35,Caém,Caém - IT-PR-35,-11.093399,-40.437579,Nordeste,RPGA do Rio Itapicuru,0.0,2.0,16.6,0.0,0.0,3.0,3.6,0.0,0.0,1.0,1.4,0.6,7.6,1.0,0.0,0.0,0.0,0.0,2.2,24.0,15.0,22.8,8.0,1.6,0.6,0.0,0.0,50.6,2.8,0.0,0.0,164.4
Tombador Araújo,IT-PR-36,Jacobina,Jacobina (Tombador Araújo) - IT-PR-36,-11.168677,-40.670642,Nordeste,RPGA do Rio Itapicuru,0.0,0.0,0.0,0.0,1.0,1.8,4.8,5.4,0.2,0.6,0.0,0.8,2.0,0.6,0.2,2.4,0.0,0.0,0.0,4.6,1.8,5.0,4.6,0.2,0.6,0.0,0.0,33.8,1.2,0.0,0.2,71.81
Carrapichel,IT-PR-37,Senhor do Bonfim,Senhor do Bonfim (Carrapichel) - IT-PR-37,-10.388101,-40.220067,Nordeste,RPGA do Rio Itapicuru,10.0,0.0,0.0,0.0,2.8,1.0,8.2,0.0,0.4,3.4,8.6,4.8,4.6,7.6,1.0,0.0,0.0,0.0,0.8,27.4,16.4,14.8,2.2,0.2,0.0,0.0,0.0,70.8,3.4,0.2,0.0,188.6
Santaluz,IT-PR-17,Santaluz,Santaluz - IT-PR-17,-11.24831,-39.37563,Nordeste,RPGA do Rio Itapicuru,0.2,0.2,6.4,0.0,0.0,1.8,18.8,0.0,0.2,1.2,0.4,0.4,2.6,0.8,2.6,0.0,0.2,0.0,0.0,33.6,2.2,35.8,0.4,0.0,0.4,0.0,0.0,0.0,1.6,0.0,0.0,109.81
Fazenda Boa Vista,IT-PR-18,Uauá,Uauá (Fazenda Boa Vista) - IT-PR-18,-10.05893,-39.706158,Nordeste,RPGA do Rio Itapicuru,0.0,0.0,0.0,0.0,0.0,0.0,0.4,0.0,2.8,8.8,1.8,0.6,0.4,5.0,0.4,0.0,0.2,0.0,0.0,7.4,10.4,18.4,0.0,0.2,0.0,0.0,3.6,27.6,1.8,0.0,0.2,90.0
Cansanção,IT-PR-20,Cansanção,Cansanção - IT-PR-20,-10.702836,-39.543932,Nordeste,RPGA do Rio Itapicuru,0.4,0.4,0.0,0.0,0.0,0.2,1.8,0.0,0.4,7.8,2.4,1.2,0.8,1.2,0.4,0.0,0.0,0.0,0.0,34.2,7.6,9.0,1.0,0.0,0.0,0.0,2.4,0.0,1.6,0.0,0.0,72.81
Pedra Vermelha,IT-PR-24,Monte Santo,Monte Santo (Pedra Vermelha) - IT-PR-24,-10.454497,-39.559488,Nordeste,RPGA do Rio Itapicuru,0.2,0.0,0.2,0.2,0.6,1.4,6.6,0.6,1.2,16.6,8.0,5.6,0.8,1.4,0.0,0.0,0.6,0.0,0.0,18.2,14.0,7.8,1.6,3.0,0.2,0.2,0.0,0.2,2.6,0.6,0.4,92.8
Ribeira do Amparo,A458,Ribeira do Amparo,Ribeira do Amparo - A458,-11.058722,-38.444028,Nordeste,RPGA do Rio Itapicuru,0.0,0.0,0.0,0.0,0.0,1.8,3.0,0.0,2.6,29.8,2.6,0.4,3.0,2.6,0.2,0.0,0.0,0.0,1.0,33.6,16.2,2.0,0.0,0.4,0.0,0.0,0.0,0.0,0.6,0.2,0.0,100.01
Quijingue,IT-PR-25,Quijingue,Quijingue - IT-PR-25,-10.783951,-39.20809,Nordeste,RPGA do Rio Itapicuru,0.0,0.0,0.0,0.0,2.8,0.2,1.2,0.0,0.4,9.4,2.2,6.8,0.8,3.4,0.0,0.2,0.0,0.0,0.0,17.2,6.6,3.6,0.0,0.0,0.2,0.0,0.2,0.0,1.4,0.0,0.0,56.6
Inhambupe,RN-CL-10,Inhambupe,Inhambupe - RN-CL-10,-11.69267,-38.31361,Nordeste,RPGA do Recôncavo Norte,0.6,0.0,0.0,0.0,3.0,7.0,2.8,0.0,3.2,43.8,12.2,1.8,3.6,5.6,0.6,0.0,0.2,0.0,2.6,89.4,41.8,21.2,2.8,2.0,0.0,0.2,0.0,3.4,8.2,0.6,0.0,256.6
Curral Falso,IT-PR-01,Ribeira do Pombal,Ribeira do Pombal (Curral Falso) - IT-PR-01,-10.697843,-38.5714,Nordeste,RPGA do Rio Itapicuru,0.0,0.0,0.0,0.0,0.0,10.4,0.0,0.0,3.8,17.4,6.4,0.4,2.8,3.0,2.0,2.2,0.0,0.0,1.0,13.2,15.0,16.0,2.4,0.2,0.0,0.0,0.0,0.6,0.6,0.2,0.0,97.6
Pedro Alexandre,VB-PR-01,Pedro Alexandre,Pedro Alexandre - VB-PR-01,-9.98818,-37.88213,Nordeste,RPGA do Rio Vaza-Barris,0.4,0.0,0.0,0.0,0.0,0.0,0.2,1.0,0.2,2.0,10.4,0.4,7.0,3.8,0.2,0.2,0.2,0.0,3.4,0.4,2.4,1.0,1.4,0.6,0.0,0.0,0.0,1.6,11.6,0.0,0.2,48.6
Ribeira do Pombal,IT-PR-04,Ribeira do Pombal,Ribeira do Pombal - IT-PR-04,-10.823399,-38.545844,Nordeste,RPGA do Rio Itapicuru,0.0,0.0,0.0,0.0,0.0,0.0,0.0,0.0,0.0,0.0,0.0,0.0,0.0,0.0,0.0,0.0,0.0,0.0,0.0,0.0,0.0,0.0,0.0,0.0,0.0,0.0,0.0,0.0,0.0,0.0,0.0,0.0
BR 116 E. Cunha / Tucano,IT-PR-05,Quijingue,Quijingue (BR 116 E. Cunha / Tucano) - IT-PR-05,-10.7105,-38.9227,Nordeste,RPGA do Rio Itapicuru,0.0,0.0,0.0,0.0,0.0,3.8,0.2,0.0,1.0,23.4,3.0,0.4,0.0,5.2,0.4,0.2,0.0,0.0,0.4,24.2,5.6,7.6,2.8,2.4,0.0,0.0,0.0,0.0,0.2,0.0,0.0,80.8
Crisópolis,IT-PR-08,Crisópolis,Crisópolis - IT-PR-08,-11.510923,-38.120832,Nordeste,RPGA do Rio Itapicuru,0.4,0.2,1.6,0.0,2.4,1.6,0.0,0.0,3.6,25.0,2.6,3.0,4.4,2.0,0.8,0.0,0.2,0.0,4.2,86.0,46.4,14.4,3.0,3.4,0.0,0.0,0.0,0.0,4.8,0.0,0.0,210.01
Estação Experimental,IT-PR-10,Nova Soure,Nova Soure (Estação Experimental) - IT-PR-10,-11.3083,-38.5361,Nordeste,RPGA do Rio Itapicuru,0.0,0.0,0.0,0.0,4.8,3.8,1.4,0.2,2.6,14.6,2.8,0.0,4.4,8.0,1.0,0.0,0.6,0.0,0.2,51.6,29.4,5.0,1.0,6.4,0.0,0.0,0.0,8.6,0.2,0.2,0.0,146.8
Boa Hora,IT-PR-13,Ribeira do Amparo,Ribeira do Amparo (Boa Hora) - IT-PR-13,-10.965,-38.5234,Nordeste,RPGA do Rio Itapicuru,0.0,0.2,3.4,0.0,0.0,2.0,0.4,0.0,4.6,38.2,10.4,0.4,2.2,5.8,3.4,0.2,0.0,0.0,2.6,57.6,23.0,10.0,0.2,0.4,0.0,0.0,0.0,0.0,0.2,0.2,0.0,165.4
Jeremoabo,A450,Jeremoabo,Jeremoabo - A450,-10.0807,-38.3459,Nordeste,RPGA do Rio Vaza-Barris,0.0,0.0,0.0,0.0,0.0,0.2,0.0,10.2,3.4,2.8,5.2,0.0,5.6,8.8,0.0,0.0,0.2,0.0,0.2,9.6,12.6,14.2,3.2,3.6,0.0,0.0,2.0,0.0,0.8,0.0,0.0,82.61
Itaberaba,291840701A,Juazeiro,Juazeiro (Itaberaba) - 291840701A,-9.44837,-40.48517,Norte,RPGA dos Rios Macururé e Curaçá,0.0,0.0,0.0,0.0,0.0,0.0,0.0,0.0,0.4,0.0,0.0,0.0,4.8,0.2,0.0,0.0,0.0,0.0,0.0,0.0,0.0,0.2,0.0,0.0,0.0,0.0,0.8,21.6,0.4,0.0,0.0,28.4
João Paulo II,291840704A,Juazeiro,Juazeiro (João Paulo II) - 291840704A,-9.47067,-40.49805,Norte,RPGA dos Rios Macururé e Curaçá,0.0,0.0,0.0,0.0,0.0,0.0,0.0,0.0,1.8,0.0,0.0,0.0,4.8,0.0,0.0,0.0,0.0,0.0,0.0,0.0,0.0,0.4,0.2,0.0,0.0,0.0,0.0,3.0,0.0,0.0,0.0,10.2
Lapão,291915701A,Lapão,Lapão - 291915701A,-11.38,-41.83,Norte,RPGA dos Rios Verde e Jacaré,0.0,0.0,0.0,0.0,0.0,0.0,0.0,0.0,0.0,0.0,0.0,0.0,0.0,0.0,0.0,0.0,0.0,0.0,0.0,0.4,0.2,0.0,0.4,0.2,0.0,0.0,0.0,0.0,4.4,0.0,0.0,5.61
Centro,290115501A,América Dourada,América Dourada (Centro) - 290115501A,-11.45011,-41.434004,Norte,RPGA dos Rios Verde e Jacaré,0.0,0.0,0.0,0.0,0.0,0.0,0.0,0.0,0.0,0.0,0.0,0.0,0.0,0.0,0.0,0.0,0.0,0.0,0.0,0.0,0.0,0.0,0.0,0.0,0.0,0.0,0.0,0.2,0.0,0.0,0.0,0.2
Remanso,82979,Remanso,Remanso - 82979,-9.633333,-42.1,Norte,RPGA do Lago de Sobradinho,0.0,0.0,0.0,0.0,0.0,0.0,0.0,0.0,0.0,0.1,0.6,0.0,0.0,0.0,0.0,0.0,0.0,0.0,0.0,0.0,0.0,0.0,0.0,0.0,0.0,0.0,0.0,0.0,2.4,0.0,0.0,3.1
Remanso,A423,Remanso,Remanso - A423,-9.625693,-42.077214,Norte,RPGA do Lago de Sobradinho,0.0,0.0,0.0,0.0,0.0,0.0,0.0,0.0,0.2,0.2,0.4,0.0,0.0,0.0,0.0,0.0,0.0,0.0,0.0,0.0,0.0,0.0,0.0,0.0,0.0,0.0,1.0,0.0,1.8,0.0,0.0,3.6
Irecê,A424,Irecê,Irecê - A424,-11.328998,-41.864504,Norte,RPGA dos Rios Verde e Jacaré,0.0,0.0,0.0,0.0,0.0,0.0,0.0,0.0,0.0,0.0,0.0,0.0,0.0,0.0,0.0,0.0,0.0,0.0,0.0,0.4,0.0,0.0,0.0,0.0,0.0,0.0,0.0,0.0,0.0,0.0,0.0,0.4
Várzea Nova,SA-CL-02,Várzea Nova,Várzea Nova - SA-CL-02,-11.23996,-40.935618,Norte,RPGA do Rio Salitre,0.0,0.0,0.0,0.0,0.0,0.4,0.4,0.2,0.0,0.0,0.0,0.0,0.0,0.0,0.0,0.0,0.0,0.0,0.0,0.4,0.0,0.6,0.0,0.0,0.0,0.0,0.0,16.8,0.0,0.0,0.0,18.8
CODEVASF Salitre,MC-CL-01,Juazeiro,Juazeiro (CODEVASF Salitre) - MC-CL-01,-9.48778,-40.61333,Norte,RPGA dos Rios Macururé e Curaçá,0.0,0.0,0.0,0.0,0.0,0.0,0.0,0.0,0.0,0.0,0.0,0.0,0.2,0.0,0.0,0.0,0.0,0.0,0.0,0.0,0.0,0.6,0.0,0.0,0.0,0.0,2.4,0.0,0.2,0.0,0.0,3.41
Campo Formoso,IT-CL-02,Campo Formoso,Campo Formoso - IT-CL-02,-10.47062,-40.33412,Norte,RPGA do Rio Itapicuru,3.8,0.4,0.0,0.0,1.8,5.6,4.2,0.0,0.6,7.6,10.0,8.4,7.8,9.0,3.0,0.2,0.0,0.0,3.6,38.4,28.4,19.8,2.0,0.8,0.0,0.0,58.4,4.0,14.6,0.0,0.8,233.21
Sento Sé,SO-CL-01,Sento Sé,Sento Sé - SO-CL-01,-9.78228,-41.81872,Norte,RPGA do Lago de Sobradinho,0.0,0.0,0.0,0.0,0.0,0.0,0.0,0.0,0.0,0.0,0.0,0.0,0.0,0.0,0.0,0.0,0.0,0.0,0.0,0.0,0.0,0.4,0.0,0.0,0.0,0.0,0.2,33.8,0.0,0.0,0.0,34.4
Itaguaçu da Bahia,VJ-CL-03,Itaguaçu da Bahia,Itaguaçu da Bahia - VJ-CL-03,-10.9549,-42.3465,Norte,RPGA dos Rios Verde e Jacaré,0.0,0.0,0.0,0.0,0.0,0.0,0.0,0.0,0.0,0.0,0.0,0.0,0.0,0.0,0.0,0.0,0.0,0.2,3.2,0.0,0.0,0.0,0.6,0.0,0.0,0.0,0.0,0.0,0.0,0.0,0.0,4.0
Juazeiro,48020000,Juazeiro,Juazeiro - 48020000,-9.4064,-40.5036,Norte,RPGA dos Rios Macururé e Curaçá,0.0,0.0,0.0,0.0,0.0,0.0,0.0,0.0,0.6,0.0,0.0,0.0,0.6,0.0,0.0,0.0,0.0,0.0,0.0,0.0,0.0,0.2,0.0,0.0,0.0,0.0,0.0,3.2,0.2,0.0,0.0,4.8
Ibipeba,VJ-CL-02,Ibipeba,Ibipeba - VJ-CL-02,-11.62667,-42.06444,Norte,RPGA dos Rios Verde e Jacaré,0.0,0.0,0.0,0.0,0.0,0.0,0.0,0.0,0.0,0.0,0.0,0.4,0.0,3.4,0.0,0.0,0.0,0.0,0.0,0.0,0.0,0.0,0.0,0.0,0.0,0.0,0.0,0.0,0.0,0.0,0.0,3.8
Santa Rosa,SM-PR-01,Jaguarari,Jaguarari (Santa Rosa) - SM-PR-01,-10.098374,-39.869774,Norte,RPGA dos Rios Macururé e Curaçá,0.0,0.0,0.0,0.0,0.0,3.8,0.8,0.0,0.0,2.4,1.0,2.6,0.0,5.0,0.2,0.0,0.0,0.0,0.0,14.6,8.4,16.2,1.0,0.0,0.2,0.0,0.0,0.6,4.8,0.0,0.4,62.0
João Dourado,291835701C,João Dourado,João Dourado - 291835701C,-11.313636,-41.633467,Norte,RPGA dos Rios Verde e Jacaré,0.0,0.0,0.0,0.0,0.0,0.0,0.0,0.0,0.0,0.0,0.0,0.0,0.0,0.0,0.0,0.0,0.0,0.0,0.2,0.2,0.0,0.0,0.0,0.0,0.0,0.0,0.0,0.0,0.0,0.0,0.0,0.4
Fazenda Vila Verde,,Fazenda Vila Verde,Fazenda Vila Verde,-12.032839,-46.054434,Oeste,RPGA do Rio Grande,0.0,0.0,0.0,0.0,0.0,0.0,0.0,0.0,0.0,0.0,0.0,0.0,0.0,0.6,0.0,5.2,0.8,0.0,0.0,0.0,0.0,0.0,0.0,0.0,0.0,0.0,7.2,23.6,0.0,0.0,0.0,37.41
Limoeiro,GR-PR-18,Barreiras,Barreiras (Limoeiro) - GR-PR-18,-12.293403,-45.544421,Oeste,RPGA do Rio Grande,0.0,0.0,0.0,0.0,0.0,0.0,0.0,0.0,0.0,0.0,0.0,0.0,0.0,7.2,6.8,7.2,1.0,0.0,26.8,0.0,0.0,0.0,0.0,0.0,15.6,5.8,4.4,46.6,0.0,0.0,0.0,121.4
Arrojolândia,,Arrojolândia,Arrojolândia,-13.741772,-45.466093,Oeste,"RPGA do Rio Corrente e Riachos do Ramalho, Serra Dourada e Brejo Velho",0.0,0.0,0.0,0.0,0.0,0.0,0.0,40.6,1.6,0.0,0.0,0.0,0.0,0.0,0.0,0.0,36.8,0.0,0.0,0.0,0.0,0.0,0.0,0.0,0.0,4.2,0.0,0.0,0.2,0.0,0.0,83.4
Projeto Alto Formoso,,Projeto Alto Formoso,Projeto Alto Formoso,-14.260954,-45.27887,Oeste,"RPGA do Rio Corrente e Riachos do Ramalho, Serra Dourada e Brejo Velho",0.0,0.0,0.0,0.0,0.0,0.0,0.0,7.4,0.2,0.0,0.0,0.2,0.0,10.4,0.0,0.0,31.4,0.2,0.0,0.0,0.0,0.0,0.0,0.0,0.0,8.0,0.0,0.0,0.0,0.0,0.2,58.01
Ponte do Itaguari,CA-PR-02,Cocos,Cocos (Ponte do Itaguari) - CA-PR-02,-14.234011,-44.626902,Oeste,RPGA do Rio Carinhanha,0.0,0.0,0.0,0.0,0.0,0.0,0.0,0.4,0.0,0.0,0.0,0.0,0.0,0.0,0.0,0.0,24.8,0.0,0.0,0.0,0.0,0.0,0.0,0.0,2.0,10.2,0.2,0.0,0.2,0.0,0.2,38.01
Formosa do Rio Preto,A452,Formosa do Rio Preto,Formosa do Rio Preto - A452,-11.052163,-45.200769,Oeste,RPGA do Rio Grande,0.0,0.0,0.2,0.0,0.0,0.0,0.0,0.0,0.0,0.0,0.0,0.0,0.0,0.0,0.0,0.0,0.0,0.0,0.0,3.8,0.0,0.0,0.0,0.0,0.0,0.0,7.8,0.4,0.0,0.0,0.0,12.21
Nova Vida Montante,46590000,Barreiras,Barreiras (Nova Vida Montante) - 46590000,-11.867963,-45.084552,Oeste,RPGA do Rio Grande,0.0,0.0,0.0,0.0,0.0,0.0,0.0,0.0,0.0,0.0,0.0,0.0,0.0,0.0,0.0,0.0,0.2,0.0,0.0,0.0,0.0,0.0,0.0,0.0,0.0,4.0,23.2,0.0,0.0,0.0,0.0,27.4
Barreiras,83236,Barreiras,Barreiras - 83236,-12.155556,-45.007778,Oeste,RPGA do Rio Grande,0.0,0.0,0.0,0.0,0.0,0.0,0.0,0.0,0.0,0.0,0.0,0.0,0.0,0.0,0.0,0.0,0.0,0.0,0.0,0.0,0.0,0.0,0.0,0.0,0.0,20.4,3.0,0.0,0.0,0.0,0.0,23.4
Derocal,46455000,São Desidério,São Desidério (Derocal) - 46455000,-12.412696,-45.121499,Oeste,RPGA do Rio Grande,0.0,0.0,0.0,0.0,0.0,0.0,0.0,0.0,0.0,0.0,0.0,0.0,0.0,0.0,0.0,0.0,3.8,0.0,0.0,0.0,0.0,0.0,0.0,0.0,0.0,27.0,0.2,0.0,0.0,0.0,0.0,31.0
Arrojado,45770000,Correntina,Correntina (Arrojado) - 45770000,-13.4528,-44.5689,Oeste,"RPGA do Rio Corrente e Riachos do Ramalho, Serra Dourada e Brejo Velho",0.0,0.0,0.0,0.0,0.2,0.0,0.0,0.0,0.0,0.0,0.0,0.0,0.0,0.0,1.8,0.0,35.8,0.6,0.0,0.0,0.0,0.0,0.0,0.0,5.6,6.8,0.0,0.2,0.0,0.0,0.0,51.0
Correntina,45590000,Correntina,Correntina - 45590000,-13.3406,-44.6386,Oeste,"RPGA do Rio Corrente e Riachos do Ramalho, Serra Dourada e Brejo Velho",0.0,0.0,0.0,0.0,0.0,0.0,0.0,0.6,0.0,0.0,0.0,0.0,0.0,0.0,0.0,0.0,13.6,0.4,0.0,0.0,0.0,0.0,0.0,0.0,4.0,0.2,0.2,0.0,0.0,0.0,0.0,19.0
Fazenda Redenção,46543000,Barreiras,Barreiras (Fazenda Redenção) - 46543000,-12.1358,-45.1033,Oeste,RPGA do Rio Grande,0.0,0.0,0.0,0.0,0.0,0.0,0.0,0.0,0.0,0.0,0.0,0.0,0.0,0.0,0.0,0.0,0.2,0.0,0.0,0.0,0.0,0.0,0.0,0.0,0.0,10.4,16.2,1.2,0.0,0.0,0.0,28.0
Fazenda Santa Luzia,CA-CL-01,Cocos,Cocos (Fazenda Santa Luzia) - CA-CL-01,-14.85528,-45.93583,Oeste,RPGA do Rio Carinhanha,0.0,0.0,0.0,0.0,0.0,0.0,0.0,2.4,1.2,0.2,0.0,0.0,0.0,1.8,0.0,0.8,32.0,0.0,0.0,0.0,0.0,0.0,0.0,0.0,0.0,2.2,0.0,0.0,0.0,0.0,0.0,40.6
Fazenda Porta do Céu,CT-CL-02,Jaborandi,Jaborandi (Fazenda Porta do Céu) - CT-CL-02,-14.11621,-45.84417,Oeste,"RPGA do Rio Corrente e Riachos do Ramalho, Serra Dourada e Brejo Velho",0.0,0.0,0.0,0.0,0.0,0.0,0.0,3.2,0.4,0.0,0.0,0.0,0.1,0.2,0.2,0.3,0.6,0.3,0.0,0.0,0.0,0.2,0.2,0.6,1.3,0.4,0.0,0.0,0.0,0.0,0.0,8.0
Fazenda Morinaga,CT-CL-01,Correntina,Correntina (Fazenda Morinaga) - CT-CL-01,-13.75194,-45.87028,Oeste,"RPGA do Rio Corrente e Riachos do Ramalho, Serra Dourada e Brejo Velho",0.0,0.0,0.0,0.0,0.0,0.0,0.0,10.0,0.0,0.0,0.0,0.0,0.0,8.8,0.0,0.0,42.8,9.4,0.0,0.0,0.0,0.0,0.0,0.0,0.2,16.0,0.0,0.0,0.0,0.0,0.0,87.2
Fazenda Madras,GR-CL-04,Riachão das Neves,Riachão das Neves (Fazenda Madras) - GR-CL-04,-11.63028,-44.84556,Oeste,RPGA do Rio Grande,0.0,0.0,0.0,0.0,0.0,0.0,0.0,0.0,0.0,2.2,0.0,0.0,0.0,0.0,0.0,0.0,9.4,0.0,0.2,0.0,0.0,0.0,0.0,0.0,0.0,1.0,13.0,0.0,0.0,0.0,0.0,25.8
Fazenda Barcelona,GR-CL-03,Formosa do Rio Preto,Formosa do Rio Preto (Fazenda Barcelona) - GR-CL-03,-11.59139,-46.02194,Oeste,RPGA do Rio Grande,0.0,0.0,0.0,0.0,0.0,0.0,0.0,0.0,0.0,0.0,0.0,0.0,0.0,2.4,6.0,6.0,0.2,0.0,4.6,0.0,0.0,0.0,0.0,0.0,0.2,0.0,8.8,12.0,0.2,0.0,0.0,40.41
PCH Pres. Goulart-J,45600000,Correntina,Correntina (PCH Pres. Goulart-J) - 45600000,-13.3344,-44.6208,Oeste,"RPGA do Rio Corrente e Riachos do Ramalho, Serra Dourada e Brejo Velho",0.0,0.0,0.0,0.0,0.0,0.0,0.0,0.25,0.0,0.0,0.0,0.0,0.0,0.0,0.25,0.0,11.0,0.0,0.0,0.0,0.0,0.0,0.0,0.0,0.75,0.0,2.75,0.0,0.0,0.0,0.0,15.0
PCH Pres. Goulart-M1,45588000,Correntina,Correntina (PCH Pres. Goulart-M1) - 45588000,-13.3408,-44.6414,Oeste,"RPGA do Rio Corrente e Riachos do Ramalho, Serra Dourada e Brejo Velho",0.0,0.0,0.0,0.25,0.0,0.0,0.0,1.0,0.0,0.0,0.0,0.0,0.0,0.0,0.0,0.0,19.0,0.0,0.0,0.0,0.0,0.0,0.0,0.0,6.25,0.25,0.5,0.0,0.0,0.0,0.0,27.25
PCH Sítio Grande-J,46453500,São Desidério,São Desidério (PCH Sítio Grande-J) - 46453500,-12.4286,-45.1528,Oeste,RPGA do Rio Grande,0.0,0.0,0.0,0.0,0.0,0.0,0.0,0.0,0.0,0.0,0.0,0.0,0.0,0.0,0.0,0.0,32.75,22.25,0.0,0.0,0.0,0.0,0.0,0.0,0.0,33.75,0.0,0.0,0.0,0.0,0.0,88.75
COACERAL,GR-CL-02,Formosa do Rio Preto,Formosa do Rio Preto (COACERAL) - GR-CL-02,-10.561944,-45.693333,Oeste,RPGA do Rio Grande,0.0,0.0,0.0,1.0,0.0,0.0,0.0,0.0,0.0,0.0,0.0,0.0,0.0,0.0,0.0,0.7,2.0,1.4,2.0,0.1,0.1,0.3,0.3,0.4,0.2,1.8,2.5,0.7,0.3,0.0,0.0,13.8
Luís Eduardo Magalhães,A404,Luís Eduardo Magalhães,Luís Eduardo Magalhães - A404,-12.152394,-45.829745,Oeste,RPGA do Rio Grande,0.0,0.0,0.0,0.0,0.0,0.0,0.0,0.0,0.0,0.0,0.0,0.0,0.0,26.4,0.4,6.0,11.0,0.0,0.0,0.0,0.0,0.0,0.0,0.0,6.4,0.0,0.4,0.0,0.0,0.0,0.0,50.6
Fazenda Evandro,GR-PR-01,Formosa do Rio Preto,Formosa do Rio Preto (Fazenda Evandro) - GR-PR-01,-10.600581,-45.822752,Oeste,RPGA do Rio Grande,0.0,0.0,0.0,16.4,0.0,0.0,0.0,0.0,0.0,0.0,0.0,0.0,0.0,0.0,0.0,0.0,0.0,0.0,0.0,0.0,0.0,0.0,0.0,0.0,0.0,0.0,17.2,1.6,0.2,0.2,0.0,35.6
Fazenda Santa Rita de Cássia,,Fazenda Santa Rita de Cássia,Fazenda Santa Rita de Cássia,-11.625053,-45.645252,Oeste,RPGA do Rio Grande,0.0,0.0,0.0,0.0,0.0,0.0,0.0,0.0,0.0,0.0,0.0,0.0,0.0,0.0,0.0,0.0,14.4,32.4,0.0,0.0,0.0,0.0,0.0,0.0,0.0,29.8,28.4,5.2,0.2,0.0,0.0,110.4
J. Zoológico,A401,Salvador,Salvador (J. Zoológico) - A401,-13.005515,-38.50576,Recôncavo,RPGA do Recôncavo Norte,31.0,2.2,0.0,11.4,3.0,5.8,16.0,0.0,43.6,13.6,36.2,43.4,86.6,10.8,0.0,0.0,0.0,1.8,4.0,7.8,1.4,100.0,12.0,8.4,0.0,0.0,0.0,5.0,1.2,12.0,0.2,457.4
Cruz das Almas,A406,Cruz das Almas,Cruz das Almas - A406,-12.675422,-39.08958,Recôncavo,RPGA do Rio Paraguaçu,0.2,1.0,0.2,28.4,18.6,4.6,1.6,0.2,2.6,1.6,12.2,11.0,16.2,0.2,0.2,0.4,0.2,0.0,1.2,37.0,2.8,40.4,1.0,0.4,0.4,0.2,0.2,0.6,0.2,3.6,2.4,189.8
Feira de Santana,A413,Feira de Santana,Feira de Santana - A413,-12.1962,-38.967384,Recôncavo,RPGA do Recôncavo Norte,0.2,0.8,0.0,0.0,5.4,11.2,3.4,0.2,0.0,12.2,9.4,2.2,3.6,2.2,3.4,0.0,0.0,0.0,0.0,32.2,6.8,13.6,5.0,0.2,1.8,0.0,0.0,0.0,0.2,3.0,0.2,117.2
Periperi,292740820A,Salvador,Salvador (Periperi) - 292740820A,-12.867344,-38.458111,Recôncavo,RPGA do Recôncavo Norte,10.4,0.2,0.0,3.0,34.0,23.6,7.8,0.0,33.8,24.4,48.4,32.4,51.8,2.4,0.6,1.4,0.0,0.0,2.2,39.4,34.8,77.8,3.2,2.4,0.0,0.0,0.0,13.2,2.6,12.4,0.6,462.8
Itapuã,292740819A,Salvador,Salvador (Itapuã) - 292740819A,-12.947736,-38.370136,Recôncavo,RPGA do Recôncavo Norte,12.6,0.0,0.0,12.8,3.2,28.2,25.0,0.2,25.8,9.4,24.0,26.2,86.2,4.2,0.0,0.0,0.0,0.0,3.2,54.8,47.2,111.0,12.8,1.6,0.0,0.0,0.0,21.4,0.2,12.8,0.4,523.2
Tancredo Neves,292740823A,Salvador,Salvador (Tancredo Neves) - 292740823A,-12.945347,-38.453472,Recôncavo,RPGA do Recôncavo Norte,5.4,0.0,0.0,8.8,16.8,14.6,11.2,0.0,31.0,19.4,48.0,34.8,80.4,5.2,0.0,0.0,0.0,0.0,4.4,46.8,33.4,110.6,10.8,6.8,0.2,0.0,0.0,15.4,0.0,23.8,0.2,528.0
Polivalente,292860401A,Santo Amaro,Santo Amaro (Polivalente) - 292860401A,-12.552863,-38.712504,Recôncavo,RPGA do Recôncavo Norte,0.0,0.0,0.0,1.2,7.6,3.4,3.0,0.2,4.6,35.2,61.0,4.8,7.2,3.6,0.0,0.8,0.2,1.2,1.0,64.8,10.6,29.4,1.6,0.6,0.6,0.0,0.0,10.8,0.6,14.2,8.6,276.8
Estação Rádio Marinha,A456,Salvador,Salvador (Estação Rádio Marinha) - A456,-12.808222,-38.495944,Recôncavo,RPGA do Recôncavo Norte,3.0,0.2,7.8,3.4,18.2,17.6,17.4,0.0,15.6,14.0,45.4,14.8,25.2,9.6,0.2,1.4,0.2,0.0,1.8,32.6,12.0,47.8,0.8,4.8,0.4,0.0,0.0,16.2,0.8,6.0,1.0,318.2
Cruz das Almas,83222,Cruz das Almas,Cruz das Almas - 83222,-12.666667,-39.083333,Recôncavo,RPGA do Rio Paraguaçu,0.0,0.8,0.0,31.8,20.1,4.7,1.3,0.0,2.4,1.4,13.8,12.7,18.0,0.0,0.0,0.0,0.0,0.0,0.8,41.5,2.8,43.9,0.8,0.2,0.2,0.0,0.0,0.4,0.2,3.6,2.0,203.4
Cachoeira,290490201A,Cachoeira,Cachoeira - 290490201A,-12.607725,-38.960655,Recôncavo,RPGA do Rio Paraguaçu,0.2,0.4,0.0,11.6,12.6,7.4,1.2,0.2,0.4,9.2,5.4,12.0,14.4,3.0,0.2,0.0,0.0,0.0,4.0,41.4,24.4,37.2,0.2,2.2,0.8,0.0,0.0,0.0,0.2,8.6,2.0,199.2
Centro,291345701A,Igrapiúna,Igrapiúna (Centro) - 291345701A,-13.819025,-39.141885,Recôncavo,RPGA do Recôncavo Sul,0.2,12.0,0.2,0.0,3.8,0.0,0.0,0.0,0.2,0.0,0.6,62.8,13.4,0.0,3.4,0.0,0.0,26.0,16.4,13.2,2.4,39.6,4.0,9.0,0.0,0.0,0.0,0.0,0.0,2.8,1.0,211.0
São Félix,292900801A,São Félix,São Félix - 292900801A,-12.606591,-38.969939,Recôncavo,RPGA do Rio Paraguaçu,0.2,0.2,0.0,18.6,11.0,7.4,1.4,0.2,4.0,9.4,5.2,9.4,14.0,3.6,0.0,0.0,0.0,0.0,4.4,43.0,21.4,38.6,0.0,2.6,0.6,0.0,0.0,0.0,0.0,8.2,1.8,205.2
Góes Calmon,293070901A,Simões Filho,Simões Filho (Góes Calmon) - 293070901A,-12.780101,-38.353331,Recôncavo,RPGA do Recôncavo Norte,8.6,6.2,0.2,19.8,8.4,24.2,25.6,0.0,71.4,44.8,49.6,46.0,37.2,21.0,0.0,0.4,0.0,0.4,3.8,57.4,20.6,70.6,1.6,3.4,0.0,0.0,0.0,43.6,0.6,9.2,0.8,575.4
Centro,293070903A,Simões Filho,Simões Filho (Centro) - 293070903A,-12.788344,-38.396864,Recôncavo,RPGA do Recôncavo Norte,6.8,2.4,0.2,4.2,6.4,22.8,29.6,0.2,34.4,36.8,41.2,33.6,39.0,8.2,5.2,0.0,0.0,0.0,1.4,52.6,27.4,52.8,1.0,4.0,0.0,0.0,0.0,25.4,1.0,15.8,0.2,452.6
Amargosa,A434,Amargosa,Amargosa - A434,-13.009468,-39.616881,Recôncavo,RPGA do Recôncavo Sul,0.0,0.0,0.0,0.0,6.2,4.6,0.0,0.0,0.6,0.0,0.4,12.0,5.8,0.6,4.8,0.0,0.0,1.8,0.0,2.4,1.6,15.6,4.4,3.8,0.0,0.0,0.0,28.0,0.0,0.0,0.0,92.6
Ondina,83229,Salvador,Salvador (Ondina) - 83229,-13.005278,-38.505833,Recôncavo,RPGA do Recôncavo Norte,33.1,2.3,0.0,12.3,3.7,6.0,16.4,0.0,46.6,15.0,38.2,45.3,92.7,12.1,0.0,0.0,0.0,0.0,4.2,0.0,0.0,86.2,12.6,9.3,0.0,0.0,0.0,5.6,0.0,12.2,0.4,454.21
Feira de Santana,PG-PR-13,Feira de Santana,Feira de Santana - PG-PR-13,-12.268161,-38.96642,Recôncavo,RPGA do Rio Paraguaçu,1.4,2.6,0.2,0.0,6.2,5.4,2.0,0.2,0.0,8.6,10.6,1.8,2.2,1.4,0.0,0.0,0.0,0.0,0.2,32.0,7.0,27.8,4.4,0.0,0.8,0.0,0.0,0.0,0.2,3.0,0.2,118.21
Centro,292740802A,Salvador,Salvador (Centro) - 292740802A,-12.97821,-38.515945,Recôncavo,RPGA do Recôncavo Norte,34.38,0.4,0.0,7.67,2.95,13.17,18.9,0.2,49.37,16.94,47.64,48.49,78.64,6.55,0.2,0.0,0.0,2.96,4.36,21.64,1.97,113.94,23.25,7.67,0.0,0.0,0.0,8.75,3.02,17.36,0.0,530.43
Federação,292740803A,Salvador,Salvador (Federação) - 292740803A,-13.000791,-38.511056,Recôncavo,RPGA do Recôncavo Norte,22.2,1.76,0.0,7.28,1.38,7.48,18.79,0.0,46.47,13.77,32.97,38.77,72.21,10.82,0.0,0.0,0.0,0.2,2.37,8.87,0.6,99.25,15.62,7.31,0.0,0.0,0.0,4.14,1.19,7.28,0.2,420.93
Cabula,292740810A,Salvador,Salvador (Cabula) - 292740810A,-12.961347,-38.460778,Recôncavo,RPGA do Recôncavo Norte,6.89,0.0,0.0,5.91,26.27,13.01,7.1,0.0,26.98,13.41,42.34,34.67,68.94,7.29,0.0,0.0,0.0,0.0,3.94,41.83,23.06,101.47,8.86,4.15,1.97,0.0,0.0,12.1,0.4,25.0,0.2,475.79
Santo Estevão,PG-CL-08,Santo Estevão,Santo Estevão - PG-CL-08,-12.43521,-39.21209,Recôncavo,RPGA do Rio Paraguaçu,0.6,0.2,0.0,11.0,15.0,4.0,0.8,0.0,0.0,0.2,4.4,1.8,3.4,0.8,0.0,0.2,0.2,0.0,0.0,26.2,7.0,14.4,0.4,0.2,0.8,0.0,0.0,0.8,0.0,2.2,3.2,97.81
Caminho das Árvores,292740815A,Salvador,Salvador (Caminho das Árvores) - 292740815A,-12.97718,-38.453834,Recôncavo,RPGA do Recôncavo Norte,17.46,0.0,0.0,2.57,26.02,17.32,17.67,0.2,23.85,10.13,45.48,34.67,69.28,8.3,0.0,0.0,0.0,0.0,2.57,33.44,10.27,95.56,35.36,2.0,0.2,0.0,0.0,6.87,0.0,19.28,2.59,481.09
Águas Claras,292740808A,Salvador,Salvador (Águas Claras) - 292740808A,-12.8944,-38.441889,Recôncavo,RPGA do Recôncavo Norte,6.89,0.4,0.0,3.76,25.83,26.12,10.66,0.0,25.29,19.29,37.79,26.01,62.1,2.59,2.4,1.2,0.0,0.0,1.0,27.29,35.71,94.49,7.1,1.8,0.4,0.0,0.0,0.6,6.51,14.82,0.4,440.45
Alto do Peru,292740812A,Salvador,Salvador (Alto do Peru) - 292740812A,-12.939122,-38.486334,Recôncavo,RPGA do Recôncavo Norte,4.55,0.2,0.0,6.88,42.87,15.71,7.29,0.0,44.33,18.56,47.56,43.54,33.8,33.16,0.0,1.38,0.0,0.0,7.49,25.44,9.0,17.4,10.2,6.8,5.2,0.2,0.0,4.54,3.36,20.08,0.0,409.54
Cosme de Farias,292740816A,Salvador,Salvador (Cosme de Farias) - 292740816A,-12.979402,-38.4855,Recôncavo,RPGA do Recôncavo Norte,38.45,0.0,0.0,10.05,9.83,17.12,13.17,0.0,44.3,23.03,45.28,47.84,62.61,6.12,0.0,0.0,0.0,0.0,4.55,23.8,5.13,116.9,16.77,3.94,0.0,0.0,0.0,6.17,1.76,18.28,0.0,515.1
São Caetano,292740814A,Salvador,Salvador (São Caetano) - 292740814A,-12.939678,-38.474667,Recôncavo,RPGA do Recôncavo Norte,3.95,0.2,0.0,8.86,36.88,14.35,7.68,0.0,29.1,26.23,36.65,36.08,61.26,5.31,0.0,0.0,0.0,0.0,5.54,41.13,28.56,109.74,5.32,16.33,0.4,0.0,0.0,12.8,1.0,20.05,0.0,507.42
Pirajá,292740801A,Salvador,Salvador (Pirajá) - 292740801A,-12.8994,-38.458833,Recôncavo,RPGA do Recôncavo Norte,4.54,0.0,0.2,11.89,35.77,26.05,12.01,0.2,24.23,0.0,0.0,0.0,0.0,0.0,0.2,0.0,0.0,0.0,0.2,28.4,62.85,0.0,0.0,7.3,39.76,2.57,2.18,0.2,0.59,15.98,3.33,278.45
Rio Sena,292740805A,Salvador,Salvador (Rio Sena) - 292740805A,-12.891344,-38.470778,Recôncavo,RPGA do Recôncavo Norte,7.8,22.59,5.4,2.0,1.8,30.34,12.2,9.0,4.2,10.2,12.0,10.2,78.91,5.73,1.38,0.2,0.0,0.0,0.8,49.19,48.37,79.73,6.29,3.37,0.0,0.0,0.0,7.87,1.97,13.4,2.76,427.7
Valéria,292740817A,Salvador,Salvador (Valéria) - 292740817A,-12.8644,-38.438276,Recôncavo,RPGA do Recôncavo Norte,13.39,1.58,0.2,14.37,25.04,20.07,9.47,0.0,25.63,24.88,58.08,29.35,54.55,4.53,0.79,0.6,0.0,0.0,0.8,36.17,28.07,67.33,2.75,1.38,0.0,0.0,0.0,16.4,4.12,7.49,0.6,447.64
Santa Terezinha,290650105A,Candeias,Candeias (Santa Terezinha) - 290650105A,-12.647172,-38.539112,Recôncavo,RPGA do Recôncavo Norte,5.11,0.0,6.1,6.69,13.8,4.75,13.81,0.0,25.03,29.55,41.92,19.07,14.96,3.55,0.2,2.39,2.77,0.0,5.31,64.12,17.15,37.43,0.6,0.4,0.59,0.0,0.0,12.8,2.77,5.94,0.4,337.21
Centro,290650101A,Candeias,Candeias (Centro) - 290650101A,-12.670229,-38.544112,Recôncavo,RPGA do Recôncavo Norte,6.32,1.38,0.4,2.36,23.86,8.29,24.59,0.0,26.6,38.05,60.63,19.54,13.82,7.31,0.79,0.6,0.99,1.78,3.54,83.63,15.57,30.55,0.2,3.74,0.2,0.0,0.0,20.85,2.97,6.5,2.18,407.25
Malemba,290650102A,Candeias,Candeias (Malemba) - 290650102A,-12.678285,-38.544112,Recôncavo,RPGA do Recôncavo Norte,7.68,1.58,0.2,3.16,29.36,10.06,28.94,0.0,28.33,38.56,64.53,20.29,13.42,11.42,1.78,0.98,0.0,3.93,3.16,72.04,16.38,30.93,0.2,7.69,0.0,0.0,0.0,23.47,3.53,8.48,2.76,432.86
Sarandi,290650104A,Candeias,Candeias (Sarandi) - 290650104A,-12.671341,-38.531056,Recôncavo,RPGA do Recôncavo Norte,9.25,0.2,0.99,2.96,26.25,11.05,19.88,0.0,28.77,34.64,49.37,18.48,13.64,7.68,0.99,1.18,3.15,0.59,2.17,80.91,16.35,30.54,0.2,3.75,0.79,0.0,0.0,21.08,4.53,5.54,1.19,396.13
Areia Branca,291920706A,Lauro de Freitas,Lauro de Freitas (Areia Branca) - 291920706A,-12.841,-38.337,Recôncavo,RPGA do Recôncavo Norte,4.52,1.59,0.0,25.85,12.18,30.48,18.92,0.0,87.56,19.32,47.85,33.89,41.74,5.92,0.0,0.0,0.0,0.39,6.11,44.44,28.54,71.23,1.38,5.32,0.0,0.0,0.2,17.51,0.2,10.83,0.79,516.76
Vila Praiana,291920702A,Lauro de Freitas,Lauro de Freitas (Vila Praiana) - 291920702A,-12.901,-38.308,Recôncavo,RPGA do Recôncavo Norte,8.12,0.99,0.2,15.76,5.52,26.4,8.68,0.2,49.87,12.04,43.54,33.88,69.81,7.31,0.2,0.0,0.0,0.0,4.95,31.7,20.45,88.67,9.86,0.2,1.78,0.2,0.98,13.2,0.0,1.78,0.99,457.28
Portão,291920701A,Lauro de Freitas,Lauro de Freitas (Portão) - 291920701A,-12.87,-38.305,Recôncavo,RPGA do Recôncavo Norte,1.78,0.59,0.0,16.13,10.65,20.31,8.29,0.2,32.36,19.13,34.83,37.35,51.57,7.88,0.0,0.2,0.0,0.0,16.34,37.4,24.82,88.2,1.78,1.58,3.35,0.0,5.9,14.39,0.0,13.0,1.19,449.22
Rua 02 de Julho,291920705A,Lauro de Freitas,Lauro de Freitas (Rua 02 de Julho) - 291920705A,-12.839,-38.35,Recôncavo,RPGA do Recôncavo Norte,5.32,11.81,0.0,14.76,13.77,29.18,20.09,0.0,70.7,14.97,41.76,30.52,42.71,8.11,0.0,0.39,0.0,0.0,5.33,36.18,27.35,71.8,1.57,4.92,0.0,0.0,0.0,12.58,0.0,11.83,1.18,476.83
Muritiba,PG-PR-12,Muritiba,Muritiba - PG-PR-12,-12.617895,-39.005591,Recôncavo,RPGA do Rio Paraguaçu,0.6,0.2,0.2,14.2,22.8,8.6,1.2,0.0,2.2,5.6,6.2,4.6,12.0,3.4,0.2,0.2,0.0,0.0,2.6,30.6,19.0,34.2,0.0,1.8,0.8,0.0,0.0,0.4,0.0,0.8,0.2,172.61
Dois de Julho,291120401A,Gandú,Gandú (Dois de Julho) - 291120401A,-13.741357,-39.48303,Recôncavo,RPGA do Recôncavo Sul,0.0,0.0,0.0,0.0,1.22,1.02,0.0,0.0,4.17,0.0,0.0,16.43,6.2,0.2,6.3,0.0,0.0,5.17,3.4,2.18,3.95,24.25,0.4,2.17,0.0,0.2,0.0,11.44,0.0,1.4,0.4,90.51
Centro,292060101A,Maragogipe,Maragogipe (Centro) - 292060101A,-12.78,-38.917,Recôncavo,RPGA do Rio Paraguaçu,0.2,1.58,0.0,4.94,18.43,4.73,2.41,0.2,0.2,7.92,27.6,23.39,49.91,2.0,0.0,0.0,0.0,0.0,19.14,39.79,5.36,68.94,1.19,0.4,0.2,0.0,0.0,6.1,0.6,3.37,5.7,294.3
Rua São Roque,293290301A,Valença,Valença (Rua São Roque) - 293290301A,-13.363,-39.078,Recôncavo,RPGA do Recôncavo Sul,0.2,0.0,0.0,2.36,28.25,1.97,4.15,0.2,0.79,0.8,7.94,105.88,11.66,0.8,0.4,0.0,0.0,1.78,9.66,21.27,28.36,48.33,6.12,0.2,1.18,0.0,0.0,0.0,0.0,1.8,0.4,284.5
Amélia Rodrigues,RN-CL-03,Amélia Rodrigues,Amélia Rodrigues - RN-CL-03,-12.4194,-38.77668,Recôncavo,RPGA do Recôncavo Norte,0.6,0.4,0.6,0.4,0.4,0.6,0.4,0.4,0.4,0.4,0.0,0.4,0.4,0.2,0.4,0.4,0.2,0.4,0.2,0.2,0.2,0.4,0.0,1.4,0.8,3.5,36.6,40.4,8.8,32.2,4.9,136.6
Abaeté,RN-CL-05,Salvador,Salvador (Abaeté) - RN-CL-05,-12.9469,-38.35933,Recôncavo,RPGA do Recôncavo Norte,14.2,0.2,0.0,15.0,2.0,26.8,16.8,0.0,31.2,9.8,18.8,27.6,77.2,4.2,0.0,0.0,0.0,0.0,3.8,49.4,41.2,105.0,8.2,2.6,0.0,0.0,0.0,20.8,0.2,12.4,0.2,487.6
Lauro de Freitas,RN-CL-09,Lauro de Freitas,Lauro de Freitas - RN-CL-09,-12.88712,-38.29659,Recôncavo,RPGA do Recôncavo Norte,2.8,2.6,0.0,20.0,2.2,20.8,6.2,0.0,30.8,17.4,31.2,37.4,58.8,8.4,0.0,0.0,0.0,0.0,9.8,34.6,21.8,85.2,4.8,0.2,4.2,0.0,4.6,7.6,0.0,12.6,1.2,425.21
São Francisco do Conde,RN-CL-07,São Francisco do Conde,São Francisco do Conde - RN-CL-07,-12.61136,-38.68222,Recôncavo,RPGA do Recôncavo Norte,0.8,0.4,0.0,3.4,13.6,6.4,14.6,0.0,9.0,35.8,71.8,7.6,13.2,4.0,0.2,1.8,2.8,0.2,1.2,55.0,25.0,33.4,5.0,2.4,0.2,0.0,0.0,21.2,0.2,37.2,2.6,369.0
CIA,293070902A,Simões Filho,Simões Filho (CIA) - 293070902A,-12.825461,-38.409051,Recôncavo,RPGA do Recôncavo Norte,13.2,1.4,0.2,4.6,15.6,20.2,13.2,0.2,22.2,28.8,59.8,19.2,45.4,7.0,0.2,0.2,0.2,0.0,4.2,61.8,35.0,71.0,1.2,10.2,1.4,0.0,0.0,10.2,3.6,5.2,4.6,460.0
PC Fazenda Jurema,51346050,Rafael Jambeiro,Rafael Jambeiro (PC Fazenda Jurema) - 51346050,-12.4881,-39.6981,Recôncavo,RPGA do Rio Paraguaçu,0.0,0.0,0.0,2.8,3.2,0.0,0.0,0.0,0.0,0.0,0.4,1.2,3.2,0.0,0.0,0.0,0.0,0.0,0.4,1.6,0.0,1.6,3.6,0.0,0.0,0.0,0.0,0.4,0.0,0.2,1.4,20.0
PC Argoim,51351000,Rafael Jambeiro,Rafael Jambeiro (PC Argoim) - 51351000,-12.5867,-39.5217,Recôncavo,RPGA do Rio Paraguaçu,0.0,0.4,0.0,2.4,4.0,0.0,0.0,0.0,2.0,0.4,0.0,1.6,1.4,0.2,0.4,0.0,0.0,0.0,0.0,1.6,0.4,8.4,0.8,0.4,0.4,0.0,0.0,0.0,0.0,0.0,8.4,33.2
PC Rio Paratigi,51370000,Santo Estevão,Santo Estevão (PC Rio Paratigi) - 51370000,-12.51503,-39.38272,Recôncavo,RPGA do Rio Paraguaçu,0.4,0.0,0.0,0.0,0.4,0.4,2.2,21.4,2.4,0.4,4.4,0.6,1.4,0.4,0.4,0.8,0.4,0.0,0.4,1.8,0.2,0.0,0.0,0.0,0.0,0.2,0.2,0.0,0.0,0.0,0.0,38.8
Abaeté,RN-PR-01,Salvador,Salvador (Abaeté) - RN-PR-01,-12.945407,-38.361404,Recôncavo,RPGA do Recôncavo Norte,22.4,0.0,0.0,14.3,1.8,31.3,33.6,0.0,23.3,15.6,32.2,27.6,87.6,1.0,0.0,0.0,0.0,0.0,3.9,54.7,16.8,101.2,14.4,2.9,2.9,0.0,0.0,24.1,0.2,12.9,12.9,537.6
Cândido Sales,53620000,Cândido Sales,Cândido Sales - 53620000,-15.512891,-41.236629,Sudoeste,RPGA do Rio Pardo,0.0,0.0,0.0,0.0,0.0,0.0,0.0,0.0,4.8,0.0,0.0,0.0,0.0,0.0,0.0,0.0,28.6,6.4,0.0,0.0,0.0,0.2,0.2,0.0,0.0,6.8,0.2,0.0,0.0,0.2,1.4,48.81
Itiruçu,A407,Itiruçu,Itiruçu - A407,-13.52629,-40.12055,Sudoeste,RPGA do Recôncavo Sul,0.6,0.2,0.2,0.0,0.0,1.2,0.0,0.0,0.4,0.8,0.0,6.4,5.6,0.2,0.0,0.2,0.0,3.8,9.0,5.4,4.4,5.0,0.2,1.8,0.2,0.0,0.0,0.0,0.2,1.6,0.4,47.81
Vitória da Conquista,A414,Vitória da Conquista,Vitória da Conquista - A414,-14.886428,-40.80133,Sudoeste,RPGA do Rio Pardo,0.0,0.0,0.2,0.0,0.0,0.0,2.6,0.2,1.2,0.4,0.0,0.6,3.4,1.4,0.2,0.8,0.8,15.2,1.0,1.6,3.0,3.4,0.6,1.0,0.0,0.2,0.2,0.2,0.2,0.0,0.2,38.61
Ituaçu,83292,Ituaçu,Ituaçu - 83292,-13.812778,-41.3,Sudoeste,RPGA do Rio de Contas,0.0,0.0,0.0,0.0,0.0,0.0,0.0,0.0,4.7,0.0,0.0,0.0,5.6,0.0,0.0,0.0,0.0,0.0,1.2,0.0,0.0,0.0,0.0,0.0,0.0,0.0,5.2,0.0,0.0,0.0,0.0,16.7
Lagoa,291760701A,Jaguaquara,Jaguaquara (Lagoa) - 291760701A,-13.523228,-39.968685,Sudoeste,RPGA do Recôncavo Sul,0.0,0.0,0.0,0.0,0.6,0.0,0.0,0.0,0.0,0.2,0.0,3.2,3.6,0.0,0.0,0.2,0.0,2.0,2.0,1.2,4.8,2.0,0.2,4.6,0.0,0.0,0.0,0.0,0.0,1.0,0.0,25.6
Entroncamento,291760702A,Jaguaquara,Jaguaquara (Entroncamento) - 291760702A,-13.509869,-40.05461,Sudoeste,RPGA do Recôncavo Sul,0.2,0.2,0.0,0.0,0.0,0.4,0.0,7.6,0.0,0.0,0.0,4.6,3.8,0.0,0.0,0.0,0.0,1.4,1.8,2.8,3.6,1.6,0.0,0.4,0.2,0.2,0.0,0.0,0.0,0.8,0.0,29.6
Brumado,A433,Brumado,Brumado - A433,-14.181886,-41.672281,Sudoeste,RPGA do Rio de Contas,0.0,0.0,0.2,0.0,0.0,0.0,0.0,1.2,8.2,0.0,0.0,0.2,12.8,0.2,0.2,0.0,0.0,6.0,0.4,0.2,0.0,0.6,0.0,0.2,0.2,0.0,0.8,0.0,0.0,0.2,0.0,31.6
Itapetinga,A446,Itapetinga,Itapetinga - A446,-15.24462,-40.22955,Sudoeste,RPGA do Rio Pardo,0.0,0.2,0.0,0.0,0.0,0.0,0.0,0.0,0.2,2.4,0.0,0.8,3.8,2.4,0.0,0.0,0.2,0.4,1.0,2.2,7.8,2.8,11.2,10.0,0.0,0.0,0.6,0.0,0.2,0.0,0.0,46.2
Anagé,CO-CL-01,Anagé,Anagé - CO-CL-01,-14.618055,-41.149722,Sudoeste,RPGA do Rio de Contas,0.0,0.0,0.0,0.0,0.0,0.0,0.0,0.0,0.5,1.75,0.0,0.0,1.25,1.25,0.0,0.0,0.0,0.0,0.25,0.0,0.0,0.0,0.0,0.0,0.0,0.0,0.0,0.0,0.0,0.0,0.0,5.0
Centro,293330701A,Vitória da Conquista,Vitória da Conquista (Centro) - 293330701A,-14.852,-40.839,Sudoeste,RPGA do Rio Pardo,0.0,0.0,0.0,0.0,0.0,0.0,0.0,0.0,0.4,0.2,0.0,0.4,1.19,2.57,0.0,6.48,2.76,9.07,0.6,0.6,2.36,1.6,1.38,0.0,0.0,0.0,8.86,0.0,5.72,2.56,0.0,46.75
Centro,291710201A,Itororó,Itororó (Centro) - 291710201A,-15.119,-40.065,Sudoeste,RPGA do Leste,4.73,2.39,7.89,1.23,2.17,1.0,1.38,0.0,0.0,0.39,0.0,0.6,1.0,1.6,0.0,0.79,0.0,0.2,0.99,3.75,0.0,0.0,0.2,0.0,0.2,0.6,7.52,0.2,0.0,0.0,0.0,38.84
Clerolândia,291640101A,Itapetinga,Itapetinga (Clerolândia) - 291640101A,-15.243,-40.221,Sudoeste,RPGA do Rio Pardo,0.0,0.0,0.0,0.0,0.0,0.0,0.0,0.0,0.0,0.78,0.0,0.6,5.33,1.64,0.0,0.0,0.0,0.2,0.2,2.37,5.15,2.44,10.1,8.7,0.2,0.0,0.39,0.2,0.2,0.0,0.0,38.5
Recreio,293330702A,Vitória da Conquista,Vitória da Conquista (Recreio) - 293330702A,-14.861,-40.841,Sudoeste,RPGA do Rio Pardo,0.0,0.0,0.0,0.0,0.0,0.0,0.0,0.0,0.8,0.0,0.0,0.2,1.42,3.35,0.2,7.28,0.6,10.64,0.4,0.4,1.6,2.42,0.6,0.0,0.0,0.0,5.52,0.0,0.2,0.0,0.0,35.64
Patagônia,293330704A,Vitória da Conquista,Vitória da Conquista (Patagônia) - 293330704A,-14.87,-40.863,Sudoeste,RPGA do Rio Pardo,0.0,0.4,0.0,0.0,0.0,0.0,0.0,0.0,0.6,0.2,0.0,0.0,1.58,2.4,0.0,0.0,0.4,17.88,0.6,0.4,1.99,1.8,0.4,0.39,0.0,0.0,0.99,0.0,0.0,0.0,0.0,30.03
Lomantão,293330703A,Vitória da Conquista,Vitória da Conquista (Lomantão) - 293330703A,-14.87,-40.827,Sudoeste,RPGA do Rio Pardo,0.0,0.0,0.0,0.0,0.0,0.0,0.2,0.0,0.6,0.2,0.0,0.4,2.02,1.41,0.0,4.14,1.22,8.68,0.2,0.6,1.79,1.96,0.8,0.79,0.0,0.0,2.17,0.0,0.2,0.0,0.0,27.38
Maracás,292050201C,Maracás,Maracás - 292050201C,-13.443972,-40.450888,Sudoeste,RPGA do Rio de Contas,0.0,0.0,0.0,0.0,0.0,1.6,0.0,0.0,0.0,0.0,0.0,0.4,0.2,0.2,0.0,0.2,0.0,0.0,0.2,0.2,0.0,0.2,0.2,0.2,0.2,0.0,0.2,0.0,0.0,0.0,0.2,4.21
Jaguaquara,RS-CL-01,Jaguaquara,Jaguaquara - RS-CL-01,-13.573055,-39.940833,Sudoeste,RPGA do Recôncavo Sul,0.75,0.0,0.0,0.0,0.5,0.0,0.0,0.0,0.25,0.5,0.0,4.75,6.0,0.5,0.25,0.0,0.0,4.5,4.0,4.75,9.5,3.25,0.25,25.0,0.0,0.0,13.75,2.0,0.0,1.25,0.25,82.0
Vitória da Conquista,PA-CL-01,Vitória da Conquista,Vitória da Conquista - PA-CL-01,-14.886111,-40.800833,Sudoeste,RPGA do Rio Pardo,0.8,0.1,0.1,0.0,1.0,0.0,1.1,3.6,0.0,0.0,0.0,0.25,3.0,1.0,0.25,0.5,0.75,16.25,0.75,1.25,2.5,3.0,0.25,0.75,0.0,0.0,0.0,0.0,0.0,0.0,0.0,37.2
Itati,LE-CL-03,Itororó,Itororó (Itati) - LE-CL-03,-15.05273,-40.02292,Sudoeste,RPGA do Leste,0.0,0.0,0.0,0.0,0.0,0.0,0.0,1.4,0.0,2.0,0.0,1.0,10.0,1.0,0.0,0.0,0.0,1.0,3.6,1.0,5.4,8.2,7.8,11.4,3.0,0.0,10.2,0.0,0.2,1.8,0.0,69.0
Nova Canaã,292270601C,Nova Canaã,Nova Canaã - 292270601C,-14.662641,-40.274647,Sudoeste,RPGA do Rio de Contas,0.0,0.2,0.2,1.2,0.2,0.4,0.0,0.4,2.2,0.2,0.6,8.2,10.2,1.6,0.4,0.0,0.4,4.8,11.4,3.4,9.2,4.4,2.8,16.8,0.2,0.2,1.2,7.0,0.2,0.0,0.0,88.01
Caculé,290500801C,Caculé,Caculé - 290500801C,-14.498111,-42.259611,Sudoeste,RPGA do Rio de Contas,0.0,0.0,0.0,0.0,0.0,0.0,0.0,0.0,0.0,0.0,0.0,0.0,2.8,0.0,0.0,0.0,0.0,1.0,0.0,0.0,0.0,0.0,0.0,0.0,0.0,0.0,0.0,0.0,0.0,0.0,0.0,3.8
Caraíbas,290689901C,Caraíbas,Caraíbas - 290689901C,-14.725138,-41.276972,Sudoeste,RPGA do Rio de Contas,0.0,0.0,0.0,0.0,0.0,0.0,0.0,0.0,1.8,0.2,0.0,0.0,3.4,0.0,0.0,0.0,0.0,0.2,0.0,0.4,0.2,0.0,0.0,3.2,0.0,0.0,0.2,0.0,0.0,0.0,0.0,9.61
Fz Nanci,53880000,Camacã,Camacã (Fz Nanci) - 53880000,-15.581395,-39.521095,Sul,RPGA do Rio Pardo,0.2,0.0,0.0,0.0,0.4,0.0,0.0,0.0,0.6,0.0,0.2,0.0,10.2,0.2,0.0,0.2,0.0,0.0,3.2,4.6,1.6,13.8,5.2,5.2,1.0,0.0,0.2,0.0,1.2,0.0,0.8,48.81
PCH Cach. da Lixa M,55354000,Jucuruçu,Jucuruçu (PCH Cach. da Lixa M) - 55354000,-17.06703,-40.068619,Sul,"RPGA dos Rios Peruípe, Itanhém e Jucuruçu",0.0,0.0,2.4,7.0,0.4,0.2,0.0,7.6,13.6,3.2,0.2,0.2,0.0,0.0,11.0,29.8,13.4,1.0,7.4,8.6,2.0,14.2,6.8,4.2,0.0,3.0,5.8,0.2,0.2,0.0,0.0,142.4
PCH Colino II M,55355600,Vereda,Vereda (PCH Colino II M) - 55355600,-17.07126,-40.15474,Sul,"RPGA dos Rios Peruípe, Itanhém e Jucuruçu",0.0,0.0,1.25,3.0,0.25,0.0,0.0,5.5,26.75,1.25,0.0,1.5,0.0,0.0,3.5,19.75,25.25,2.0,2.5,5.25,7.5,26.0,6.25,4.5,0.0,0.5,6.25,0.25,0.0,0.0,0.5,149.5
Itamaraju,A455,Itamaraju,Itamaraju - A455,-17.17103,-39.58819,Sul,"RPGA dos Rios Peruípe, Itanhém e Jucuruçu",0.0,0.0,0.4,4.2,0.4,0.0,0.0,0.4,13.0,0.0,3.0,0.0,0.0,0.0,0.0,33.4,1.0,0.0,0.0,3.2,2.4,4.2,13.2,0.2,0.2,1.6,0.0,0.0,0.0,0.4,0.2,81.4
Itajuípe,,Itajuípe,Itajuípe,-14.6744,-39.3769,Sul,RPGA do Leste,2.0,0.0,0.0,0.0,1.0,0.0,0.0,0.0,0.0,0.0,0.0,13.6,11.4,0.0,6.2,0.0,0.0,2.4,10.2,9.6,8.8,2.0,28.0,4.0,0.0,0.0,0.0,0.0,0.0,0.2,0.0,99.4
Barra do Rocha,290310201A,Barra do Rocha,Barra do Rocha - 290310201A,-14.208644,-39.598562,Sul,RPGA do Rio de Contas,0.2,0.0,0.0,0.0,1.8,0.0,0.0,0.2,0.0,0.0,0.0,29.6,5.4,0.8,0.2,0.0,0.0,0.2,5.2,8.0,9.4,2.8,12.2,14.6,0.0,0.0,0.0,6.2,0.2,0.0,0.0,97.0
Centro,290580001A,Camamu,Camamu (Centro) - 290580001A,-13.943506,-39.10251,Sul,RPGA do Recôncavo Sul,0.4,3.8,0.0,0.0,2.4,0.4,0.0,1.0,0.2,0.0,1.8,61.4,14.2,0.0,4.6,0.0,0.0,2.6,26.8,9.0,16.2,20.4,4.4,0.8,0.0,0.0,0.0,0.0,0.0,0.4,0.4,171.21
Novo Horizonte,291180801A,Guaratinga,Guaratinga (Novo Horizonte) - 291180801A,-16.582916,-39.780555,Sul,"RPGA dos Rios dos Frades, Buranhém e Santo Antônio",0.0,0.0,0.0,0.4,0.0,0.0,0.0,2.6,10.4,0.2,0.0,0.0,0.0,0.0,0.0,3.4,34.2,0.6,0.0,3.4,0.4,7.4,3.6,0.0,0.0,0.6,0.0,0.0,0.0,0.6,1.8,69.6
Passagem,291490101A,Itacaré,Itacaré (Passagem) - 291490101A,-14.280609,-39.002952,Sul,RPGA do Rio de Contas,1.8,0.2,0.0,6.2,86.4,2.0,0.0,3.0,0.2,0.2,2.0,133.0,32.8,0.0,0.0,0.0,0.4,8.8,107.4,17.6,14.8,20.8,5.8,3.6,0.0,0.0,0.0,0.0,0.0,0.6,0.8,448.41
Centro,291560101A,Itamaraju,Itamaraju (Centro) - 291560101A,-17.027541,-39.534994,Sul,"RPGA dos Rios Peruípe, Itanhém e Jucuruçu",0.0,0.0,0.0,1.2,4.2,0.0,0.0,0.4,14.8,0.6,4.2,0.2,0.0,0.0,0.0,52.4,6.0,0.6,0.0,5.2,0.8,3.6,9.0,0.0,0.4,2.4,0.0,0.0,0.0,0.0,0.0,106.0
Pau Brasil,292390201A,Pau Brasil,Pau Brasil - 292390201A,-15.46122,-39.65225,Sul,RPGA do Rio Pardo,0.0,0.2,0.0,0.0,1.6,0.0,0.0,0.2,1.0,1.0,0.4,1.0,11.6,0.0,0.0,0.0,0.2,12.2,7.8,9.2,3.8,4.0,6.4,14.0,0.4,0.0,13.8,0.2,0.4,0.0,3.2,92.61
Ribeira,292550101A,Prado,Prado (Ribeira) - 292550101A,-17.338255,-39.232281,Sul,"RPGA dos Rios Peruípe, Itanhém e Jucuruçu",0.0,0.8,0.0,1.6,2.8,0.0,0.0,0.2,15.6,1.6,1.4,0.0,0.0,0.0,0.0,0.0,6.6,0.0,0.2,10.4,0.0,7.4,67.8,0.0,0.0,6.2,21.6,0.0,0.0,1.0,0.0,145.21
Centro,292805901A,Santa Luzia,Santa Luzia (Centro) - 292805901A,-15.42976,-39.332759,Sul,RPGA do Leste,0.0,0.0,0.0,0.0,1.0,0.0,0.0,4.2,0.0,0.0,0.4,0.2,20.8,0.0,0.0,1.8,1.8,11.6,10.4,2.0,5.8,4.4,12.2,16.2,0.2,0.0,0.0,0.0,0.0,0.6,0.2,93.81
Maraú,A438,Maraú,Maraú - A438,-13.90694,-38.97222,Sul,RPGA do Recôncavo Sul,1.8,0.0,0.8,2.6,13.6,2.2,3.4,0.0,0.0,0.4,10.4,80.6,45.2,0.0,1.4,0.0,0.4,8.0,28.4,10.8,3.2,60.2,6.8,0.6,0.6,0.2,0.0,21.2,0.0,10.8,0.4,314.01
Porto Seguro,A427,Porto Seguro,Porto Seguro - A427,-16.388977,-39.182389,Sul,"RPGA dos Rios dos Frades, Buranhém e Santo Antônio",0.2,0.2,0.0,17.2,0.0,0.2,0.2,8.0,6.0,0.2,0.4,0.8,4.4,0.4,0.0,0.2,32.6,4.6,0.0,1.8,15.6,13.6,8.2,1.8,0.2,1.0,0.2,0.0,0.4,1.6,2.8,122.8
Abrolhos,A422,Caravelas,Caravelas (Abrolhos) - A422,-17.79052,-39.22789,Sul,"RPGA dos Rios Peruípe, Itanhém e Jucuruçu",0.0,0.0,0.0,0.4,0.0,0.0,0.0,3.0,5.8,1.2,0.6,0.0,0.0,0.0,0.0,1.2,5.0,0.0,0.0,2.4,0.0,0.0,8.4,0.2,0.0,0.4,0.0,0.0,0.0,0.0,0.0,28.6
Mascote,53950000,Mascote,Mascote - 53950000,-15.565561,-39.302756,Sul,RPGA do Rio Pardo,0.0,0.0,0.0,0.0,0.6,0.0,0.2,0.6,0.0,0.2,0.4,2.6,13.2,0.0,0.0,0.0,9.6,4.4,7.6,0.2,4.6,10.2,2.8,4.4,0.2,0.0,0.0,0.2,0.0,1.0,0.0,63.01
PCH Colino I J,55357000,Jucuruçu,Jucuruçu (PCH Colino I J) - 55357000,-17.0822,-40.0772,Sul,"RPGA dos Rios Peruípe, Itanhém e Jucuruçu",0.0,0.0,11.75,10.0,10.0,0.0,0.0,9.75,16.75,4.5,0.25,0.0,0.0,0.0,2.25,47.75,14.75,1.5,0.25,3.0,6.25,14.75,8.5,5.25,0.25,2.0,5.5,0.25,0.0,0.0,0.0,175.25
Eunápolis,FB-CL-01,Eunápolis,Eunápolis - FB-CL-01,-16.290555,-39.579722,Sul,"RPGA dos Rios dos Frades, Buranhém e Santo Antônio",0.0,0.0,0.0,0.0,0.5,9.0,0.0,28.25,8.0,0.25,0.0,0.25,0.0,0.0,0.0,2.25,20.25,3.25,5.0,2.5,3.0,4.25,14.75,0.0,0.0,0.75,0.0,0.0,0.0,0.0,2.5,104.75
Itabuna,Fazenda Barra,Itabuna,Itabuna - Fazenda Barra,-14.8997,-39.3686,Sul,RPGA do Leste,0.0,0.0,0.0,0.0,0.8,0.0,0.0,0.0,0.0,0.0,0.0,2.4,7.8,0.4,0.0,0.2,2.8,0.0,6.8,3.0,3.6,1.4,13.2,7.4,0.2,0.2,0.0,0.0,0.0,0.0,0.0,50.2
Centro,290340901A,Belmonte,Belmonte (Centro) - 290340901A,-15.859179,-38.878025,Sul,RPGA do Rio Jequitinhonha,2.56,0.0,0.0,0.0,0.0,0.0,0.0,7.68,0.6,0.4,3.74,14.41,15.54,0.0,0.0,0.0,4.34,12.99,21.48,0.0,0.59,10.65,5.13,2.96,0.2,0.2,0.0,0.0,0.0,4.94,0.59,109.0
São João do Panelinha,290560202A,Camacan,Camacan (São João do Panelinha) - 290560202A,-15.375278,-39.489984,Sul,RPGA do Rio Pardo,0.0,0.4,0.0,0.0,4.93,0.2,0.2,0.42,0.0,0.0,0.0,2.76,14.59,0.0,0.59,0.2,1.38,6.96,14.6,3.15,11.66,4.77,12.04,14.68,0.59,0.0,0.0,0.0,0.0,0.2,0.0,94.33
Centro,290560203A,Camacan,Camacan (Centro) - 290560203A,-15.416389,-39.493873,Sul,RPGA do Rio Pardo,0.0,0.59,0.2,0.0,0.0,0.0,0.0,0.4,0.2,0.59,0.2,2.56,13.19,0.2,0.0,0.6,6.89,3.56,9.84,3.16,3.96,9.31,17.98,5.56,15.75,0.2,0.0,0.0,0.0,0.0,0.0,94.94
Conquista,291360601A,Ilhéus,Ilhéus (Conquista) - 291360601A,-14.797213,-39.04608,Sul,RPGA do Leste,0.59,5.72,0.2,0.0,3.58,0.0,0.0,0.0,0.0,0.0,3.58,47.45,11.82,0.0,0.0,0.0,0.0,19.27,47.21,11.09,9.87,10.63,23.44,11.84,0.0,0.0,0.0,0.0,0.0,0.0,1.18,207.47
Malhado,291360602A,Ilhéus,Ilhéus (Malhado) - 291360602A,-14.789158,-39.048858,Sul,RPGA do Leste,1.18,3.16,0.0,0.0,3.56,0.2,0.0,0.0,0.0,0.0,3.81,49.19,10.22,0.4,0.0,0.0,0.0,16.97,50.39,9.65,8.08,6.7,28.75,6.88,0.0,0.0,0.0,0.0,0.0,0.0,2.37,201.51
São Caetano,291480202A,Itabuna,Itabuna (São Caetano) - 291480202A,-14.80638,-39.27803,Sul,RPGA do Leste,0.4,0.59,0.2,0.0,2.59,2.17,0.2,0.0,0.0,0.0,0.59,6.11,7.12,0.2,8.07,0.2,3.94,13.41,11.63,13.62,2.6,2.57,7.74,2.58,0.0,0.0,0.0,0.0,0.0,0.0,0.0,86.53
Nova Ferradas,291480203A,Itabuna,Itabuna (Nova Ferradas) - 291480203A,-14.857213,-39.346922,Sul,RPGA do Leste,0.2,0.0,0.0,0.0,0.2,9.64,0.0,0.0,0.0,0.0,0.0,1.82,3.2,0.4,0.0,0.0,0.4,7.09,10.44,5.12,4.13,5.33,6.75,2.37,0.79,0.0,0.0,0.0,0.0,0.0,0.0,57.88
Planalto I,292110401A,Medeiros Neto,Medeiros Neto (Planalto I) - 292110401A,-17.365,-40.223,Sul,"RPGA dos Rios Peruípe, Itanhém e Jucuruçu",0.0,0.0,0.0,19.85,0.0,0.0,0.0,5.85,9.67,0.2,0.0,0.0,0.0,0.0,0.0,2.82,7.82,1.41,0.4,1.38,1.81,3.57,0.4,2.76,0.0,0.2,0.2,0.0,0.2,0.0,0.0,58.55
Centro,292300102A,Nova Viçosa,Nova Viçosa (Centro) - 292300102A,-17.893,-39.372,Sul,"RPGA dos Rios Peruípe, Itanhém e Jucuruçu",0.0,0.0,0.0,9.93,0.0,0.0,0.0,26.58,13.37,0.2,0.0,0.0,0.0,0.0,0.0,1.19,3.55,0.0,0.0,2.38,0.0,1.78,5.71,0.0,0.0,0.0,0.0,0.0,0.0,0.59,0.2,65.48
Posto da Mata,292300103A,Nova Viçosa,Nova Viçosa (Posto da Mata) - 292300103A,-17.896,-39.37,Sul,"RPGA dos Rios Peruípe, Itanhém e Jucuruçu",0.0,0.0,0.0,9.46,0.0,0.0,0.0,29.32,14.55,0.0,0.0,0.0,0.0,0.0,0.0,1.19,4.54,0.0,0.0,2.55,0.0,2.58,5.91,0.0,0.0,0.0,0.0,0.0,0.0,0.2,0.0,70.3
Areião,292530301A,Porto Seguro,Porto Seguro (Areião) - 292530301A,-16.441,-39.076,Sul,"RPGA dos Rios dos Frades, Buranhém e Santo Antônio",0.0,0.0,0.0,20.74,0.39,0.0,0.0,6.1,3.56,0.2,0.99,1.2,1.18,0.2,0.0,0.0,25.18,12.78,0.0,4.54,4.33,29.1,7.88,2.76,8.47,0.0,0.0,0.0,0.0,2.56,8.26,140.43
Paraguai,292530302A,Porto Seguro,Porto Seguro (Paraguai) - 292530302A,-16.41,-39.08,Sul,"RPGA dos Rios dos Frades, Buranhém e Santo Antônio",1.4,1.6,1.0,1.4,1.2,1.0,1.0,0.6,1.0,1.0,0.6,0.8,0.8,1.0,0.6,0.8,1.0,1.0,1.2,1.0,1.0,1.0,0.8,1.2,1.0,1.0,0.6,0.8,0.6,0.8,0.6,29.41
BR367km4,292770501A,Santa Cruz Cabrália,Santa Cruz Cabrália (BR367km4) - 292770501A,-16.321,-39.023,Sul,"RPGA dos Rios dos Frades, Buranhém e Santo Antônio",0.0,0.0,0.0,47.6,0.0,0.0,0.0,8.49,3.76,0.0,1.78,7.67,3.34,0.2,0.0,0.0,6.51,33.46,8.46,8.08,7.12,9.5,20.08,6.89,5.31,0.4,0.0,0.0,0.0,2.96,1.97,183.58
Estádio Municipal,291530401A,Itagimirim,Itagimirim (Estádio Municipal) - 291530401A,-16.089181,-39.615546,Sul,RPGA do Rio Jequitinhonha,0.0,0.0,0.2,0.0,0.0,0.0,0.0,0.0,5.93,0.0,0.0,0.0,0.4,0.79,0.0,0.0,2.37,3.79,0.0,0.0,3.95,0.79,2.6,0.8,7.51,0.0,17.13,0.2,0.0,0.0,2.81,49.28
Jusante,54945000,Itapebi,Itapebi (Jusante) - 54945000,-15.949206,-39.5225,Sul,RPGA do Rio Jequitinhonha,0.0,0.0,0.0,0.0,0.0,0.0,4.2,0.0,6.6,0.0,0.0,0.2,0.6,1.8,0.0,0.0,0.0,4.4,4.0,5.6,8.4,2.4,7.8,0.6,0.0,0.6,17.6,0.0,0.0,0.2,1.0,66.0
Morpará,46360000,Morpará,Morpará - 46360000,-11.5583,-43.2825,São Francisco,RPGA dos Rios Paramirim e Santo Onofre,0.0,0.0,0.0,0.0,0.0,0.0,0.0,0.0,0.0,0.0,0.0,0.0,0.0,0.0,0.0,0.0,0.0,0.0,0.0,0.0,0.0,0.0,0.0,0.0,0.0,0.0,0.0,0.0,0.0,0.0,0.0,0.0
Bom Jesus da Lapa,A418,Bom Jesus da Lapa,Bom Jesus da Lapa - A418,-13.251094,-43.405365,São Francisco,RPGA do Rio Carnaíba de Dentro,0.0,0.0,0.0,0.0,0.0,0.0,0.0,0.0,0.0,0.0,0.0,0.0,0.0,0.0,0.0,0.0,59.4,0.0,0.0,0.0,0.0,0.0,0.0,0.0,0.0,0.0,5.0,0.0,0.0,0.0,0.0,64.4
Pilão Arcado,A449,Pilão Arcado,Pilão Arcado - A449,-10.003519,-42.474785,São Francisco,RPGA do Lago de Sobradinho,0.0,0.0,0.0,0.0,0.0,0.0,0.0,0.0,0.0,0.0,0.0,0.0,0.0,0.0,0.0,0.0,0.0,0.0,0.0,0.0,0.0,0.0,0.0,0.0,0.0,0.0,9.4,0.0,0.0,0.0,0.0,9.4
Bom Jesus da Lapa,83288,Bom Jesus da Lapa,Bom Jesus da Lapa - 83288,-13.251389,-43.405278,São Francisco,RPGA do Rio Carnaíba de Dentro,0.0,0.0,0.0,0.0,0.0,0.0,0.0,0.0,0.0,0.0,0.0,0.0,0.0,0.0,0.0,0.0,61.2,0.0,0.0,0.0,0.0,0.0,0.0,0.0,0.0,0.0,4.8,0.0,0.0,0.0,0.0,66.0
Santa Rita de Cássia,83076,Santa Rita de Cássia,Santa Rita de Cássia - 83076,-11.016667,-44.516667,São Francisco,RPGA do Rio Grande,0.0,0.0,0.0,0.0,0.0,0.0,0.0,0.0,0.0,5.4,0.0,0.0,0.0,0.0,0.0,0.0,0.0,0.0,0.0,0.0,0.0,0.0,0.0,0.0,0.0,0.0,1.0,0.0,0.0,0.0,0.0,6.4
Guanambí,A426,Guanambí,Guanambí - A426,-14.208123,-42.749647,São Francisco,RPGA do Rio Carnaíba de Dentro,0.0,0.0,0.0,0.0,0.0,0.0,0.0,0.0,1.2,0.0,0.0,0.0,0.0,0.0,0.0,0.0,0.0,0.2,0.0,0.0,0.0,0.0,0.0,0.0,0.0,0.0,0.0,0.0,0.0,0.0,0.0,1.4
Barra,A429,Barra,Barra - A429,-11.084858,-43.138998,São Francisco,RPGA do Rio Grande,0.0,0.0,0.0,0.0,0.0,0.0,0.0,0.0,0.0,0.2,0.0,0.0,4.8,0.0,0.0,0.0,0.0,0.0,5.6,0.8,0.0,0.0,0.0,0.0,0.0,0.0,0.0,0.0,0.2,0.0,0.0,11.6
Ibotirama,A439,Ibotirama,Ibotirama - A439,-12.19306,-43.21342,São Francisco,RPGA dos Rios Paramirim e Santo Onofre,0.0,0.0,0.0,0.0,0.0,0.0,0.0,0.0,0.0,0.0,0.0,0.0,0.0,0.0,0.0,0.0,0.0,0.0,0.0,0.0,0.0,0.0,0.0,0.0,0.0,0.0,0.0,0.0,0.0,0.0,0.0,0.0
Macaúbas,PM-CL-02,Macaúbas,Macaúbas - PM-CL-02,-13.07953,-42.6957,São Francisco,RPGA dos Rios Paramirim e Santo Onofre,0.0,0.0,0.0,0.0,0.0,0.0,0.0,0.0,6.2,0.0,0.0,0.0,3.0,0.0,0.0,0.0,0.0,1.6,0.0,0.0,0.0,0.0,0.0,0.0,0.0,0.0,0.0,0.0,0.0,0.0,0.0,10.8
Faz. Macambira,46675000,Cotegipe,Cotegipe (Faz. Macambira) - 46675000,-11.6106,-44.1567,São Francisco,RPGA do Rio Grande,0.0,0.0,0.0,0.0,0.0,0.0,0.0,0.0,0.0,0.0,0.0,0.0,0.0,0.0,0.0,0.0,0.0,0.0,0.0,0.0,0.0,0.0,0.0,0.0,0.0,0.0,2.8,0.0,0.0,0.0,0.0,2.8
Caetité,CD-CL-01,Caetité,Caetité - CD-CL-01,-13.96659,-42.60482,São Francisco,RPGA do Rio Carnaíba de Dentro,0.3,0.5,0.0,0.6,0.5,0.0,0.0,0.9,0.4,0.0,0.2,0.0,0.5,0.0,0.0,0.0,3.25,0.75,0.0,0.0,0.0,0.0,0.0,0.0,0.0,3.5,0.0,0.0,0.0,0.0,0.0,11.4
Bom Jesus da Lapa,45480000,Bom Jesus da Lapa,Bom Jesus da Lapa - 45480000,-13.2572,-43.435,São Francisco,"RPGA do Rio Corrente e Riachos do Ramalho, Serra Dourada e Brejo Velho",0.0,0.0,0.0,0.0,0.0,0.0,0.0,0.0,1.6,0.0,0.0,0.0,0.0,0.0,0.0,0.0,44.2,0.2,0.0,0.0,0.0,0.0,0.0,0.0,0.0,0.0,0.6,0.0,0.0,0.0,0.0,46.61
Boqueirão,46902000,Mansidão,Mansidão (Boqueirão) - 46902000,-11.345255,-43.826056,São Francisco,RPGA do Rio Grande,0.0,0.0,0.0,0.0,2.2,0.0,0.0,0.0,0.0,0.0,0.0,0.0,0.0,0.0,0.0,0.0,0.0,0.0,0.0,0.0,0.0,0.0,0.0,0.0,0.0,0.0,0.4,0.0,0.0,0.0,0.0,2.6
Volta da Serra,CD-CL-02,Paratinga,Paratinga (Volta da Serra) - CD-CL-02,-12.57591,-43.12782,São Francisco,RPGA do Rio Carnaíba de Dentro,0.0,0.0,0.0,0.0,0.0,0.0,0.0,0.0,0.0,0.0,0.0,0.0,0.0,0.0,0.0,0.0,3.2,1.4,0.0,0.0,0.0,0.0,0.0,0.0,0.0,0.4,0.0,0.4,0.0,0.0,0.0,5.4
Xique-Xique,PM-CL-05,Xique-Xique,Xique-Xique - PM-CL-05,-10.82519,-42.68914,São Francisco,RPGA dos Rios Paramirim e Santo Onofre,0.0,0.0,0.0,0.0,0.0,0.0,0.0,0.0,0.0,0.0,0.0,0.0,0.0,0.0,0.0,0.0,0.0,0.0,0.0,0.0,0.0,0.0,0.0,0.0,0.0,0.0,0.6,0.0,0.0,0.0,0.0,0.6
Boquira,290410001C,Boquira,Boquira - 290410001C,-12.809794,-42.71825,São Francisco,RPGA dos Rios Paramirim e Santo Onofre,0.0,0.0,0.0,0.0,0.0,0.0,0.0,0.0,0.6,0.0,0.0,0.0,0.0,1.0,0.0,0.0,0.0,0.0,2.8,0.0,0.0,0.0,0.0,0.0,7.6,0.0,0.0,0.0,0.0,0.0,0.0,12.0
Licínio de Almeida,291940501C,Licínio de Almeida,Licínio de Almeida - 291940501C,-14.688861,-42.503,São Francisco,RPGA do Rio de Contas,0.0,0.0,0.0,0.0,0.0,0.0,0.0,0.0,17.0,0.0,0.0,0.0,3.6,0.0,0.0,0.0,2.6,0.2,0.0,0.0,0.0,0.0,0.0,0.0,0.0,1.4,2.4,0.0,0.0,0.0,0.0,27.2
