nome_estacao,codigo,municipio,estacao,latitude,longitude,regiao,rpga,01_05_20,02_05_20,03_05_20,04_05_20,05_05_20,06_05_20,07_05_20,08_05_20,09_05_20,10_05_20,11_05_20,12_05_20,13_05_20,14_05_20,15_05_20,16_05_20,17_05_20,18_05_20,19_05_20,20_05_20,21_05_20,22_05_20,23_05_20,24_05_20,25_05_20,26_05_20,27_05_20,28_05_20,29_05_20,30_05_20,total
Lençóis,83242,Lençóis,Lençóis - 83242,-12.557,-41.389,Chapada Diamantina,RPGA do Rio Paraguaçu,0.0,0.0,0.0,1.0,0.6,1.4,0.0,0.8,0.2,0.0,0.0,0.8,35.7,1.3,0.0,0.0,0.0,12.3,4.0,1.0,0.1,1.3,3.4,10.9,0.0,0.0,13.8,2.0,1.0,0.0,91.6
Morro do Chapéu,83184,Morro do Chapéu,Morro do Chapéu - 83184,-11.217,-41.217,Chapada Diamantina,RPGA do Rio Salitre,0.0,0.4,0.0,0.0,1.6,2.8,1.8,0.0,0.8,0.4,0.2,1.4,2.3,0.0,0.0,0.0,0.0,0.1,2.4,4.6,3.0,3.3,1.2,3.2,0.0,0.0,0.0,7.8,5.2,0.0,42.5
Piatã,A430,Piatã,Piatã - A430,-13.156,-41.774,Chapada Diamantina,RPGA do Rio de Contas,0.2,0.0,0.0,0.0,0.0,0.0,0.2,0.0,2.0,0.4,1.0,2.2,7.2,0.2,0.0,0.2,0.8,12.0,7.6,2.6,0.0,1.8,1.2,0.8,0.0,0.0,0.4,0.2,0.0,0.0,41.0
Livramento de Nossa Senhora,291950401U,Livramento de Nossa Senhora,Livramento de Nossa Senhora - 291950401U,-13.683,-41.841,Chapada Diamantina,RPGA do Rio de Contas,0.0,0.0,0.0,0.0,0.0,0.0,0.0,0.0,2.0,0.0,0.0,0.0,8.4,0.0,0.2,0.0,0.0,0.0,0.2,0.0,0.0,0.0,0.0,0.0,0.0,0.0,0.0,0.0,0.0,0.0,10.8
Iaçu,51280000,Iaçu,Iaçu - 51280000,-12.762,-40.214,Chapada Diamantina,RPGA do Rio Paraguaçu,0.0,0.0,0.0,0.0,0.6,0.0,0.6,0.6,0.0,0.0,0.0,0.4,2.2,0.6,0.0,0.6,0.0,0.0,7.6,1.2,0.0,2.2,0.4,0.0,0.0,0.0,0.0,0.4,0.0,0.0,17.4
Lençóis,A425,Lençóis,Lençóis - A425,-12.558,-41.389,Chapada Diamantina,RPGA do Rio Paraguaçu,0.2,0.0,0.0,1.0,0.6,1.4,0.0,0.6,0.2,0.0,0.0,0.6,34.4,1.4,0.0,0.0,0.0,12.4,4.2,1.0,0.0,1.2,3.2,10.8,0.0,0.0,13.6,2.2,1.0,0.0,90.0
Itaetê,,Itaetê,Itaetê,-12.992,-40.961,Chapada Diamantina,RPGA do Rio Paraguaçu,0.0,0.0,0.0,0.0,0.0,0.0,0.0,0.0,0.0,0.0,0.0,0.0,0.0,0.0,0.0,0.0,0.0,0.0,0.0,0.0,0.0,0.0,0.0,0.0,0.0,0.0,0.0,0.0,0.0,0.0,0.0
Lagoa Bonita,PG-PR-15,Iacú,Iacú (Lagoa Bonita) - PG-PR-15,-12.932,-40.226,Chapada Diamantina,RPGA do Rio Paraguaçu,0.0,0.0,0.0,0.0,0.0,0.8,0.0,0.0,0.0,0.0,0.0,1.0,2.2,0.0,0.0,0.0,0.0,0.2,4.0,0.0,0.0,1.6,0.2,0.0,0.0,0.0,0.2,0.6,0.0,0.0,10.8
João Amaro,PG-PR-16,Iaçu,Iaçu (João Amaro) - PG-PR-16,-12.8,-40.363,Chapada Diamantina,RPGA do Rio Paraguaçu,0.0,0.0,0.0,0.0,1.0,0.2,0.0,0.2,0.0,0.0,0.0,0.2,0.0,0.0,0.0,0.0,0.0,0.4,2.8,0.0,0.0,0.8,4.4,0.0,0.0,0.0,0.8,16.8,0.0,0.0,27.6
Guiné,PG-PR-24,Mucugê,Mucugê (Guiné) - PG-PR-24,-12.772,-41.541,Chapada Diamantina,RPGA do Rio Paraguaçu,0.0,0.2,0.0,0.4,0.0,0.0,0.0,8.6,0.0,0.0,0.0,0.4,10.0,0.0,0.0,0.0,0.0,5.0,0.4,0.8,0.0,1.2,5.0,0.8,0.2,0.0,0.0,0.0,0.0,0.0,33.0
Machado Portela,PG-PR-26,Marcionílio Souza,Marcionílio Souza (Machado Portela) - PG-PR-26,-13.154,-40.768,Chapada Diamantina,RPGA do Rio Paraguaçu,0.0,0.0,0.0,0.0,0.0,0.0,0.0,0.0,0.0,0.0,0.0,0.0,6.8,7.8,0.2,0.0,0.0,4.0,2.0,0.0,0.0,0.4,0.4,0.2,0.0,0.0,3.8,8.2,0.0,0.0,33.8
Seabra,PG-CL-09,Seabra,Seabra - PG-CL-09,-12.4,-41.789,Chapada Diamantina,RPGA do Rio Paraguaçu,0.0,0.0,0.0,0.0,1.8,0.0,0.0,0.0,0.0,0.0,0.0,0.2,0.6,0.0,0.0,0.0,0.0,8.4,0.2,0.4,0.2,0.4,0.2,0.2,0.0,0.0,0.6,0.2,0.0,0.0,13.4
Iaçu,PG-CL-05,Iaçu,Iaçu - PG-CL-05,-12.911,-40.032,Chapada Diamantina,RPGA do Rio Paraguaçu,0.0,0.0,0.0,0.0,0.2,0.2,0.0,0.0,0.0,0.0,0.0,2.2,0.2,0.0,1.0,0.2,0.0,0.0,1.6,0.8,0.0,9.0,0.0,0.0,1.8,0.2,0.0,0.2,0.0,0.0,17.6
Ibiaporã,PG-CL-01,Mundo Novo,Mundo Novo (Ibiaporã) - PG-CL-01,-12.054,-40.837,Chapada Diamantina,RPGA do Rio Paraguaçu,0.0,0.0,0.0,0.2,5.2,0.8,0.2,0.0,0.4,1.0,0.4,3.0,6.8,3.4,0.4,0.2,0.0,0.0,19.8,13.4,2.2,10.8,1.8,6.2,0.0,0.0,17.6,8.0,2.6,0.2,104.6
Marcionílio Souza,PG-CL-03,Marcionílio Souza,Marcionílio Souza - PG-CL-03,-13.0,-40.538,Chapada Diamantina,RPGA do Rio Paraguaçu,0.0,0.0,0.0,0.0,0.0,0.0,0.0,0.0,4.4,0.0,0.0,0.0,6.8,0.0,0.0,0.0,0.0,5.8,0.0,0.4,0.0,0.0,0.2,3.0,0.0,0.0,2.2,0.6,0.0,0.0,23.4
Seabra,PG-PR-01,Seabra,Seabra - PG-PR-01,-12.428,-41.77,Chapada Diamantina,RPGA do Rio Paraguaçu,0.0,0.0,0.0,0.0,0.2,0.0,0.0,0.0,0.2,0.0,0.0,0.0,0.2,0.0,0.0,0.0,0.0,10.0,0.0,0.6,0.0,0.0,0.2,0.0,0.0,0.0,10.6,0.0,0.0,0.0,22.0
Baixa Grande,PG-PR-08,Baixa Grande,Baixa Grande - PG-PR-08,-11.909,-40.184,Chapada Diamantina,RPGA do Rio Paraguaçu,0.0,0.0,0.0,0.0,3.4,1.2,3.8,0.2,0.0,3.4,3.8,3.6,6.0,4.6,0.2,0.0,0.0,0.0,7.6,8.4,4.6,16.2,3.4,2.2,0.0,0.0,0.0,1.2,0.8,0.0,74.6
Ventura,PG-PR-10,Morro do Chapéu,Morro do Chapéu (Ventura) - PG-PR-10,-11.651,-40.952,Chapada Diamantina,RPGA do Rio Paraguaçu,0.0,0.2,0.0,0.0,1.0,2.4,0.4,0.0,0.0,0.0,0.6,2.2,4.0,0.0,0.0,0.2,0.0,0.0,0.0,5.6,0.8,3.4,1.8,0.8,0.0,0.0,0.0,0.2,14.8,0.0,38.4
Cafarnaum,290530501C,Cafarnaum,Cafarnaum - 290530501C,-11.745,-41.498,Chapada Diamantina,RPGA dos Rios Verde e Jacaré,0.0,0.2,0.0,0.0,0.0,0.0,0.0,0.0,0.0,0.0,0.0,0.0,0.0,0.0,0.0,0.0,0.0,0.0,6.2,0.0,0.0,0.0,0.0,0.8,0.0,0.0,0.8,50.4,0.0,0.0,58.4
Piatã,CO-CL-04,Piatã,Piatã - CO-CL-04,-13.164,-41.771,Chapada Diamantina,RPGA do Rio de Contas,0.0,0.0,0.0,0.0,0.0,0.0,0.0,0.5,2.8,0.5,1.0,3.2,6.0,0.0,0.0,0.0,0.0,13.5,9.0,3.8,0.5,2.2,1.0,0.0,0.0,2.8,0.2,0.0,0.0,0.0,47.0
PC Ponte Rio Capivari,51326200,Itaberaba,Itaberaba (PC Ponte Rio Capivari) - 51326200,-12.514,-39.934,Chapada Diamantina,RPGA do Rio Paraguaçu,0.0,0.0,0.0,0.0,3.2,0.0,0.0,0.0,0.0,0.0,0.0,0.0,0.4,0.0,0.4,0.0,0.0,0.0,0.0,0.0,0.0,0.0,0.0,0.0,0.0,0.0,0.0,0.0,0.0,0.0,4.0
Itaberaba,291470301C,Itaberaba,Itaberaba - 291470301C,-12.458,-40.202,Chapada Diamantina,RPGA do Rio Paraguaçu,0.0,0.0,0.0,0.0,4.6,0.0,0.0,0.0,0.0,0.0,0.0,0.4,5.6,0.4,0.0,0.0,0.0,0.0,0.0,2.4,0.8,3.0,0.8,0.0,0.0,0.2,0.0,0.2,0.0,0.0,18.4
Utinga,293280401C,Utinga,Utinga - 293280401C,-12.076,-41.102,Chapada Diamantina,RPGA do Rio Paraguaçu,0.0,0.0,0.0,0.0,1.0,1.8,0.0,0.0,0.4,0.0,0.0,0.0,1.8,12.4,0.0,0.0,0.0,0.0,10.4,1.2,0.0,1.2,0.0,10.8,0.0,0.0,41.2,5.6,0.0,0.0,87.8
Rio de Contas,292670701C,Rio de Contas,Rio de Contas - 292670701C,-13.57,-41.819,Chapada Diamantina,RPGA do Rio de Contas,0.0,0.0,0.2,0.0,0.0,0.0,0.0,0.0,9.0,0.4,0.4,0.2,18.6,0.0,0.0,13.2,0.0,8.6,1.2,2.0,0.0,0.0,0.4,1.0,0.0,0.0,0.0,1.0,0.0,0.0,56.2
Chorrochó,290770701C,Chorrochó,Chorrochó - 290770701C,-8.984,-39.118,Nordeste,RPGA dos Rios Macururé e Curaçá,0.0,0.0,0.0,0.0,0.0,0.0,0.0,0.0,0.0,3.8,0.0,0.0,0.0,1.6,0.0,0.0,0.0,0.0,0.0,13.8,5.2,1.0,0.0,0.0,0.0,0.0,3.0,2.4,1.2,0.0,32.0
Rodelas,292710101C,Rodelas,Rodelas - 292710101C,-8.852,-38.765,Nordeste,RPGA dos Rios Macururé e Curaçá,0.0,0.0,0.0,0.0,0.0,0.0,0.0,0.0,0.0,0.0,0.0,0.0,0.0,0.0,0.0,0.0,0.0,0.0,0.0,0.0,0.0,0.0,0.0,0.0,0.0,0.0,0.0,0.0,0.0,0.0,0.0
Ladeira Vermelha,291750801A,Jacobina,Jacobina (Ladeira Vermelha) - 291750801A,-11.162,-40.554,Nordeste,RPGA do Rio Itapicuru,0.0,0.0,9.0,0.0,0.2,4.8,0.6,0.0,0.4,0.4,0.2,0.2,1.6,0.6,0.6,0.8,0.0,0.0,0.0,2.0,4.4,11.0,3.8,0.6,1.2,0.2,0.0,18.4,2.2,0.0,63.2
Feliz Tomaz,291750802A,Jacobina,Jacobina (Feliz Tomaz) - 291750802A,-11.174,-40.518,Nordeste,RPGA do Rio Itapicuru,0.0,0.2,76.8,0.2,0.6,6.0,3.4,0.2,0.0,0.6,0.0,0.2,6.6,2.4,2.0,1.8,0.0,0.0,0.6,5.6,7.4,16.4,8.4,0.6,1.4,0.2,0.0,12.4,1.4,0.0,155.4
Conde,A431,Conde,Conde - A431,-12.036,-37.683,Nordeste,RPGA do Rio Itapicuru,12.6,14.2,0.0,0.4,3.0,9.0,4.8,0.0,12.8,62.8,12.4,1.4,22.6,33.4,0.0,0.0,0.0,0.0,35.4,165.4,49.6,8.2,9.8,2.4,0.0,0.0,1.2,25.4,15.4,0.6,502.8
Uauá,A435,Uauá,Uauá - A435,-9.834,-39.496,Nordeste,RPGA do Rio Vaza-Barris,0.0,0.8,0.0,0.0,0.0,0.0,0.0,1.4,1.2,1.2,0.2,0.2,0.8,8.0,0.0,0.0,0.0,0.0,0.0,6.2,17.8,1.4,1.0,0.0,0.6,0.0,0.0,11.0,1.6,0.0,53.4
Euclides da Cunha,A442,Euclides da Cunha,Euclides da Cunha - A442,-10.537,-38.997,Nordeste,RPGA do Rio Itapicuru,0.0,0.0,0.0,0.0,0.0,1.2,15.4,0.0,1.8,32.8,4.2,4.4,2.8,1.8,1.4,1.0,0.2,0.0,1.8,26.0,18.4,30.0,1.2,0.2,0.0,0.0,0.4,0.0,3.0,0.0,148.0
Queimadas,A436,Queimadas,Queimadas - A436,-10.985,-39.617,Nordeste,RPGA do Rio Itapicuru,0.2,0.0,10.4,0.2,0.8,0.0,1.2,0.0,0.0,0.6,0.0,0.8,0.0,0.0,2.6,0.0,0.0,0.0,0.0,21.6,0.6,8.6,0.2,0.0,0.0,0.2,0.2,0.0,0.0,0.0,48.2
Heliópolis,291185701C,Heliópolis,Heliópolis - 291185701C,-10.673,-38.327,Nordeste,RPGA do Rio Real,3.0,1.0,0.0,0.0,0.0,2.0,0.0,9.6,2.2,6.8,18.2,2.8,0.2,8.8,0.0,1.2,0.0,0.2,1.6,10.4,3.8,3.2,4.2,0.0,0.6,0.0,0.0,0.0,3.0,0.0,82.8
Serrinha,A441,Serrinha,Serrinha - A441,-11.665,-39.023,Nordeste,RPGA do Rio Paraguaçu,0.0,0.0,0.2,0.0,0.0,0.0,0.0,0.0,0.0,0.0,0.0,0.0,0.2,0.0,0.0,0.0,0.0,0.0,0.0,0.0,0.0,0.2,0.0,0.0,0.0,0.0,0.0,0.0,0.0,0.0,0.6
Senhor do Bonfim,A428,Senhor do Bonfim,Senhor do Bonfim - A428,-10.443,-40.148,Nordeste,RPGA do Rio Itapicuru,10.2,0.0,0.0,0.0,1.2,1.0,7.4,0.0,0.0,1.6,4.2,6.2,5.0,5.6,1.8,0.0,0.0,0.0,0.4,22.4,9.4,12.2,0.8,1.8,0.2,0.0,0.6,14.0,4.6,0.0,110.6
Pedras Altas,50430000,Capim Grosso,Capim Grosso (Pedras Altas) - 50430000,-11.183,-40.047,Nordeste,RPGA do Rio Itapicuru,0.0,1.2,0.6,0.0,0.0,0.0,1.6,0.0,0.0,1.0,0.0,0.0,5.0,0.0,0.0,0.0,0.0,0.0,0.0,9.8,1.6,10.4,5.6,2.4,0.6,0.0,0.4,2.4,28.4,0.0,71.0
Ponto Novo,50380000,Ponto Novo,Ponto Novo - 50380000,-10.845,-40.113,Nordeste,RPGA do Rio Itapicuru,0.2,0.0,19.4,0.0,0.2,0.0,1.6,0.0,12.8,0.8,1.4,2.0,1.8,0.6,4.2,0.0,0.0,0.0,0.4,17.0,5.4,7.6,1.4,0.2,0.0,0.0,0.0,36.6,4.4,0.0,118.0
Capim Grosso,IT-CL-03,Capim Grosso,Capim Grosso - IT-CL-03,-11.368,-40.034,Nordeste,RPGA do Rio Itapicuru,0.0,2.6,0.0,0.0,0.0,2.0,3.0,0.0,0.0,2.8,1.4,0.6,4.2,1.0,0.2,0.0,0.0,0.0,0.6,16.2,4.8,6.0,1.2,0.6,0.0,0.0,0.0,2.6,0.2,0.2,50.2
Pé de Serra,PG-CL-07,Pé de Serra,Pé de Serra - PG-CL-07,-11.837,-39.659,Nordeste,RPGA do Rio Paraguaçu,0.0,0.0,0.0,0.0,0.8,2.2,2.2,1.0,0.2,0.4,1.0,0.2,2.2,0.2,5.0,0.2,0.0,0.0,0.0,15.8,5.6,5.0,0.0,7.0,0.0,0.0,0.0,6.8,0.0,0.8,56.6
Caldas do Jorro,IT-CL-05,Tucano,Tucano (Caldas do Jorro) - IT-CL-05,-11.035,-38.804,Nordeste,RPGA do Rio Itapicuru,0.0,0.0,0.0,0.0,0.0,1.6,1.8,0.0,0.8,24.4,6.2,6.4,2.8,0.6,0.6,0.2,0.0,0.0,1.6,51.4,8.4,1.0,0.8,0.8,0.0,0.0,0.0,0.0,4.6,0.0,114.0
Saúde,IT-CL-04,Saúde,Saúde - IT-CL-04,-10.957,-40.383,Nordeste,RPGA do Rio Itapicuru,0.0,1.0,6.8,0.0,0.0,0.4,1.0,0.0,0.0,0.2,0.0,0.2,5.6,3.0,1.2,0.0,0.0,0.2,0.2,10.6,6.6,7.2,3.6,3.4,0.2,0.0,0.2,41.0,17.4,0.0,110.0
Lajinha,IT-CL-06,Várzea do Poço,Várzea do Poço (Lajinha) - IT-CL-06,-11.496,-40.345,Nordeste,RPGA do Rio Itapicuru,0.0,0.0,0.0,0.2,1.2,5.4,2.8,0.2,0.0,0.4,0.0,0.8,1.2,0.4,0.8,2.8,0.0,0.2,0.6,5.2,4.0,4.6,0.8,0.6,0.0,0.0,0.0,78.6,1.2,0.0,112.0
Itapeipu,IT-PR-34,Jacobina,Jacobina (Itapeipu) - IT-PR-34,-11.316,-40.357,Nordeste,RPGA do Rio Itapicuru,1.0,0.6,0.2,0.0,3.8,4.0,6.0,0.2,0.0,0.2,0.8,1.0,3.6,1.4,0.2,0.0,0.0,0.0,1.2,10.8,5.6,10.0,2.0,3.0,0.0,0.0,0.0,59.4,2.0,0.6,117.6
Caém,IT-PR-35,Caém,Caém - IT-PR-35,-11.093,-40.438,Nordeste,RPGA do Rio Itapicuru,0.0,2.0,16.6,0.0,0.0,3.0,3.6,0.0,0.0,1.0,1.4,0.6,7.6,1.0,0.0,0.0,0.0,0.0,2.2,24.0,15.0,22.8,8.0,1.6,0.6,0.0,0.0,50.6,2.8,0.0,164.4
Tombador Araújo,IT-PR-36,Jacobina,Jacobina (Tombador Araújo) - IT-PR-36,-11.169,-40.671,Nordeste,RPGA do Rio Itapicuru,0.0,0.0,0.0,0.0,1.0,1.8,4.8,5.4,0.2,0.6,0.0,0.8,2.0,0.6,0.2,2.4,0.0,0.0,0.0,4.6,1.8,5.0,4.6,0.2,0.6,0.0,0.0,33.8,1.2,0.0,71.6
Carrapichel,IT-PR-37,Senhor do Bonfim,Senhor do Bonfim (Carrapichel) - IT-PR-37,-10.388,-40.22,Nordeste,RPGA do Rio Itapicuru,10.0,0.0,0.0,0.0,2.8,1.0,8.2,0.0,0.4,3.4,8.6,4.8,4.6,7.6,1.0,0.0,0.0,0.0,0.8,27.4,16.4,14.8,2.2,0.2,0.0,0.0,0.0,70.8,3.4,0.2,188.6
Santaluz,IT-PR-17,Santaluz,Santaluz - IT-PR-17,-11.248,-39.376,Nordeste,RPGA do Rio Itapicuru,0.2,0.2,6.4,0.0,0.0,1.8,18.8,0.0,0.2,1.2,0.4,0.4,2.6,0.8,2.6,0.0,0.2,0.0,0.0,33.6,2.2,35.8,0.4,0.0,0.4,0.0,0.0,0.0,1.6,0.0,109.8
Fazenda Boa Vista,IT-PR-18,Uauá,Uauá (Fazenda Boa Vista) - IT-PR-18,-10.059,-39.706,Nordeste,RPGA do Rio Itapicuru,0.0,0.0,0.0,0.0,0.0,0.0,0.4,0.0,2.8,8.8,1.8,0.6,0.4,5.0,0.4,0.0,0.2,0.0,0.0,7.4,10.4,18.4,0.0,0.2,0.0,0.0,3.6,27.6,1.8,0.0,89.8
Cansanção,IT-PR-20,Cansanção,Cansanção - IT-PR-20,-10.703,-39.544,Nordeste,RPGA do Rio Itapicuru,0.4,0.4,0.0,0.0,0.0,0.2,1.8,0.0,0.4,7.8,2.4,1.2,0.8,1.2,0.4,0.0,0.0,0.0,0.0,34.2,7.6,9.0,1.0,0.0,0.0,0.0,2.4,0.0,1.6,0.0,72.8
Pedra Vermelha,IT-PR-24,Monte Santo,Monte Santo (Pedra Vermelha) - IT-PR-24,-10.454,-39.559,Nordeste,RPGA do Rio Itapicuru,0.2,0.0,0.2,0.2,0.6,1.4,6.6,0.6,1.2,16.6,8.0,5.6,0.8,1.4,0.0,0.0,0.6,0.0,0.0,18.2,14.0,7.8,1.6,3.0,0.2,0.2,0.0,0.2,2.6,0.6,92.4
Ribeira do Amparo,A458,Ribeira do Amparo,Ribeira do Amparo - A458,-11.059,-38.444,Nordeste,RPGA do Rio Itapicuru,0.0,0.0,0.0,0.0,0.0,1.8,3.0,0.0,2.6,29.8,2.6,0.4,3.0,2.6,0.2,0.0,0.0,0.0,1.0,33.6,16.2,2.0,0.0,0.4,0.0,0.0,0.0,0.0,0.6,0.2,100.0
Quijingue,IT-PR-25,Quijingue,Quijingue - IT-PR-25,-10.784,-39.208,Nordeste,RPGA do Rio Itapicuru,0.0,0.0,0.0,0.0,2.8,0.2,1.2,0.0,0.4,9.4,2.2,6.8,0.8,3.4,0.0,0.2,0.0,0.0,0.0,17.2,6.6,3.6,0.0,0.0,0.2,0.0,0.2,0.0,1.4,0.0,56.6
Inhambupe,RN-CL-10,Inhambupe,Inhambupe - RN-CL-10,-11.693,-38.314,Nordeste,RPGA do Recôncavo Norte,0.6,0.0,0.0,0.0,3.0,7.0,2.8,0.0,3.2,43.8,12.2,1.8,3.6,5.6,0.6,0.0,0.2,0.0,2.6,89.4,41.8,21.2,2.8,2.0,0.0,0.2,0.0,3.4,8.2,0.6,256.6
Curral Falso,IT-PR-01,Ribeira do Pombal,Ribeira do Pombal (Curral Falso) - IT-PR-01,-10.698,-38.571,Nordeste,RPGA do Rio Itapicuru,0.0,0.0,0.0,0.0,0.0,10.4,0.0,0.0,3.8,17.4,6.4,0.4,2.8,3.0,2.0,2.2,0.0,0.0,1.0,13.2,15.0,16.0,2.4,0.2,0.0,0.0,0.0,0.6,0.6,0.2,97.6
Pedro Alexandre,VB-PR-01,Pedro Alexandre,Pedro Alexandre - VB-PR-01,-9.988,-37.882,Nordeste,RPGA do Rio Vaza-Barris,0.4,0.0,0.0,0.0,0.0,0.0,0.2,1.0,0.2,2.0,10.4,0.4,7.0,3.8,0.2,0.2,0.2,0.0,3.4,0.4,2.4,1.0,1.4,0.6,0.0,0.0,0.0,1.6,11.6,0.0,48.4
Ribeira do Pombal,IT-PR-04,Ribeira do Pombal,Ribeira do Pombal - IT-PR-04,-10.823,-38.546,Nordeste,RPGA do Rio Itapicuru,0.0,0.0,0.0,0.0,0.0,0.0,0.0,0.0,0.0,0.0,0.0,0.0,0.0,0.0,0.0,0.0,0.0,0.0,0.0,0.0,0.0,0.0,0.0,0.0,0.0,0.0,0.0,0.0,0.0,0.0,0.0
BR 116 E. Cunha / Tucano,IT-PR-05,Quijingue,Quijingue (BR 116 E. Cunha / Tucano) - IT-PR-05,-10.71,-38.923,Nordeste,RPGA do Rio Itapicuru,0.0,0.0,0.0,0.0,0.0,3.8,0.2,0.0,1.0,23.4,3.0,0.4,0.0,5.2,0.4,0.2,0.0,0.0,0.4,24.2,5.6,7.6,2.8,2.4,0.0,0.0,0.0,0.0,0.2,0.0,80.8
Crisópolis,IT-PR-08,Crisópolis,Crisópolis - IT-PR-08,-11.511,-38.121,Nordeste,RPGA do Rio Itapicuru,0.4,0.2,1.6,0.0,2.4,1.6,0.0,0.0,3.6,25.0,2.6,3.0,4.4,2.0,0.8,0.0,0.2,0.0,4.2,86.0,46.4,14.4,3.0,3.4,0.0,0.0,0.0,0.0,4.8,0.0,210.0
Estação Experimental,IT-PR-10,Nova Soure,Nova Soure (Estação Experimental) - IT-PR-10,-11.308,-38.536,Nordeste,RPGA do Rio Itapicuru,0.0,0.0,0.0,0.0,4.8,3.8,1.4,0.2,2.6,14.6,2.8,0.0,4.4,8.0,1.0,0.0,0.6,0.0,0.2,51.6,29.4,5.0,1.0,6.4,0.0,0.0,0.0,8.6,0.2,0.2,146.8
Boa Hora,IT-PR-13,Ribeira do Amparo,Ribeira do Amparo (Boa Hora) - IT-PR-13,-10.965,-38.523,Nordeste,RPGA do Rio Itapicuru,0.0,0.2,3.4,0.0,0.0,2.0,0.4,0.0,4.6,38.2,10.4,0.4,2.2,5.8,3.4,0.2,0.0,0.0,2.6,57.6,23.0,10.0,0.2,0.4,0.0,0.0,0.0,0.0,0.2,0.2,165.4
Jeremoabo,A450,Jeremoabo,Jeremoabo - A450,-10.081,-38.346,Nordeste,RPGA do Rio Vaza-Barris,0.0,0.0,0.0,0.0,0.0,0.2,0.0,10.2,3.4,2.8,5.2,0.0,5.6,8.8,0.0,0.0,0.2,0.0,0.2,9.6,12.6,14.2,3.2,3.6,0.0,0.0,2.0,0.0,0.8,0.0,82.6
Itaberaba,291840701A,Juazeiro,Juazeiro (Itaberaba) - 291840701A,-9.448,-40.485,Norte,RPGA dos Rios Macururé e Curaçá,0.0,0.0,0.0,0.0,0.0,0.0,0.0,0.0,0.4,0.0,0.0,0.0,4.8,0.2,0.0,0.0,0.0,0.0,0.0,0.0,0.0,0.2,0.0,0.0,0.0,0.0,0.8,21.6,0.4,0.0,28.4
João Paulo II,291840704A,Juazeiro,Juazeiro (João Paulo II) - 291840704A,-9.471,-40.498,Norte,RPGA dos Rios Macururé e Curaçá,0.0,0.0,0.0,0.0,0.0,0.0,0.0,0.0,1.8,0.0,0.0,0.0,4.8,0.0,0.0,0.0,0.0,0.0,0.0,0.0,0.0,0.4,0.2,0.0,0.0,0.0,0.0,3.0,0.0,0.0,10.2
Lapão,291915701A,Lapão,Lapão - 291915701A,-11.38,-41.83,Norte,RPGA dos Rios Verde e Jacaré,0.0,0.0,0.0,0.0,0.0,0.0,0.0,0.0,0.0,0.0,0.0,0.0,0.0,0.0,0.0,0.0,0.0,0.0,0.0,0.4,0.2,0.0,0.4,0.2,0.0,0.0,0.0,0.0,4.4,0.0,5.6
Centro,290115501A,América Dourada,América Dourada (Centro) - 290115501A,-11.45,-41.434,Norte,RPGA dos Rios Verde e Jacaré,0.0,0.0,0.0,0.0,0.0,0.0,0.0,0.0,0.0,0.0,0.0,0.0,0.0,0.0,0.0,0.0,0.0,0.0,0.0,0.0,0.0,0.0,0.0,0.0,0.0,0.0,0.0,0.2,0.0,0.0,0.2
Remanso,82979,Remanso,Remanso - 82979,-9.633,-42.1,Norte,RPGA do Lago de Sobradinho,0.0,0.0,0.0,0.0,0.0,0.0,0.0,0.0,0.0,0.1,0.6,0.0,0.0,0.0,0.0,0.0,0.0,0.0,0.0,0.0,0.0,0.0,0.0,0.0,0.0,0.0,0.0,0.0,2.4,0.0,3.1
Remanso,A423,Remanso,Remanso - A423,-9.626,-42.077,Norte,RPGA do Lago de Sobradinho,0.0,0.0,0.0,0.0,0.0,0.0,0.0,0.0,0.2,0.2,0.4,0.0,0.0,0.0,0.0,0.0,0.0,0.0,0.0,0.0,0.0,0.0,0.0,0.0,0.0,0.0,1.0,0.0,1.8,0.0,3.6
Irecê,A424,Irecê,Irecê - A424,-11.329,-41.865,Norte,RPGA dos Rios Verde e Jacaré,0.0,0.0,0.0,0.0,0.0,0.0,0.0,0.0,0.0,0.0,0.0,0.0,0.0,0.0,0.0,0.0,0.0,0.0,0.0,0.4,0.0,0.0,0.0,0.0,0.0,0.0,0.0,0.0,0.0,0.0,0.4
Várzea Nova,SA-CL-02,Várzea Nova,Várzea Nova - SA-CL-02,-11.24,-40.936,Norte,RPGA do Rio Salitre,0.0,0.0,0.0,0.0,0.0,0.4,0.4,0.2,0.0,0.0,0.0,0.0,0.0,0.0,0.0,0.0,0.0,0.0,0.0,0.4,0.0,0.6,0.0,0.0,0.0,0.0,0.0,16.8,0.0,0.0,18.8
CODEVASF Salitre,MC-CL-01,Juazeiro,Juazeiro (CODEVASF Salitre) - MC-CL-01,-9.488,-40.613,Norte,RPGA dos Rios Macururé e Curaçá,0.0,0.0,0.0,0.0,0.0,0.0,0.0,0.0,0.0,0.0,0.0,0.0,0.2,0.0,0.0,0.0,0.0,0.0,0.0,0.0,0.0,0.6,0.0,0.0,0.0,0.0,2.4,0.0,0.2,0.0,3.4
Campo Formoso,IT-CL-02,Campo Formoso,Campo Formoso - IT-CL-02,-10.471,-40.334,Norte,RPGA do Rio Itapicuru,3.8,0.4,0.0,0.0,1.8,5.6,4.2,0.0,0.6,7.6,10.0,8.4,7.8,9.0,3.0,0.2,0.0,0.0,3.6,38.4,28.4,19.8,2.0,0.8,0.0,0.0,58.4,4.0,14.6,0.0,232.4
Sento Sé,SO-CL-01,Sento Sé,Sento Sé - SO-CL-01,-9.782,-41.819,Norte,RPGA do Lago de Sobradinho,0.0,0.0,0.0,0.0,0.0,0.0,0.0,0.0,0.0,0.0,0.0,0.0,0.0,0.0,0.0,0.0,0.0,0.0,0.0,0.0,0.0,0.4,0.0,0.0,0.0,0.0,0.2,33.8,0.0,0.0,34.4
Itaguaçu da Bahia,VJ-CL-03,Itaguaçu da Bahia,Itaguaçu da Bahia - VJ-CL-03,-10.955,-42.346,Norte,RPGA dos Rios Verde e Jacaré,0.0,0.0,0.0,0.0,0.0,0.0,0.0,0.0,0.0,0.0,0.0,0.0,0.0,0.0,0.0,0.0,0.0,0.2,3.2,0.0,0.0,0.0,0.6,0.0,0.0,0.0,0.0,0.0,0.0,0.0,4.0
Juazeiro,48020000,Juazeiro,Juazeiro - 48020000,-9.406,-40.504,Norte,RPGA dos Rios Macururé e Curaçá,0.0,0.0,0.0,0.0,0.0,0.0,0.0,0.0,0.6,0.0,0.0,0.0,0.6,0.0,0.0,0.0,0.0,0.0,0.0,0.0,0.0,0.2,0.0,0.0,0.0,0.0,0.0,3.2,0.2,0.0,4.8
Ibipeba,VJ-CL-02,Ibipeba,Ibipeba - VJ-CL-02,-11.627,-42.064,Norte,RPGA dos Rios Verde e Jacaré,0.0,0.0,0.0,0.0,0.0,0.0,0.0,0.0,0.0,0.0,0.0,0.4,0.0,3.4,0.0,0.0,0.0,0.0,0.0,0.0,0.0,0.0,0.0,0.0,0.0,0.0,0.0,0.0,0.0,0.0,3.8
Santa Rosa,SM-PR-01,Jaguarari,Jaguarari (Santa Rosa) - SM-PR-01,-10.098,-39.87,Norte,RPGA dos Rios Macururé e Curaçá,0.0,0.0,0.0,0.0,0.0,3.8,0.8,0.0,0.0,2.4,1.0,2.6,0.0,5.0,0.2,0.0,0.0,0.0,0.0,14.6,8.4,16.2,1.0,0.0,0.2,0.0,0.0,0.6,4.8,0.0,61.6
João Dourado,291835701C,João Dourado,João Dourado - 291835701C,-11.314,-41.633,Norte,RPGA dos Rios Verde e Jacaré,0.0,0.0,0.0,0.0,0.0,0.0,0.0,0.0,0.0,0.0,0.0,0.0,0.0,0.0,0.0,0.0,0.0,0.0,0.2,0.2,0.0,0.0,0.0,0.0,0.0,0.0,0.0,0.0,0.0,0.0,0.4
Fazenda Vila Verde,,Fazenda Vila Verde,Fazenda Vila Verde,-12.033,-46.054,Oeste,RPGA do Rio Grande,0.0,0.0,0.0,0.0,0.0,0.0,0.0,0.0,0.0,0.0,0.0,0.0,0.0,0.6,0.0,5.2,0.8,0.0,0.0,0.0,0.0,0.0,0.0,0.0,0.0,0.0,7.2,23.6,0.0,0.0,37.4
Fazenda São Roque,,Fazenda São Roque,Fazenda São Roque,-11.959,-45.458,Oeste,RPGA do Rio Grande,0.0,0.0,0.0,0.0,0.0,0.0,0.0,0.0,0.0,0.0,0.0,0.0,0.0,0.0,0.0,0.0,9.6,0.2,0.0,0.0,0.0,0.0,0.0,0.0,0.0,22.0,1.2,0.2,0.0,0.0,33.2
Limoeiro,,Limoeiro,Limoeiro,-12.293,-45.544,Oeste,RPGA do Rio Grande,0.0,0.0,0.0,0.0,0.0,0.0,0.0,0.0,0.0,0.0,0.0,0.0,0.0,7.2,6.8,7.2,1.0,0.0,26.8,0.0,0.0,0.0,0.0,0.0,15.6,5.8,4.4,46.6,0.0,0.0,121.4
Arrojolândia,,Arrojolândia,Arrojolândia,-13.742,-45.466,Oeste,"RPGA do Rio Corrente e Riachos do Ramalho, Serra Dourada e Brejo Velho",0.0,0.0,0.0,0.0,0.0,0.0,0.0,40.6,1.6,0.0,0.0,0.0,0.0,0.0,0.0,0.0,36.8,0.0,0.0,0.0,0.0,0.0,0.0,0.0,0.0,4.2,0.0,0.0,0.2,0.0,83.4
Projeto Alto Formoso,,Projeto Alto Formoso,Projeto Alto Formoso,-14.261,-45.279,Oeste,"RPGA do Rio Corrente e Riachos do Ramalho, Serra Dourada e Brejo Velho",0.0,0.0,0.0,0.0,0.0,0.0,0.0,7.4,0.2,0.0,0.0,0.2,0.0,10.4,0.0,0.0,31.4,0.2,0.0,0.0,0.0,0.0,0.0,0.0,0.0,8.0,0.0,0.0,0.0,0.0,57.8
Ponte do Itaguari,,Ponte do Itaguari,Ponte do Itaguari,-14.234,-44.627,Oeste,RPGA do Rio Carinhanha,0.0,0.0,0.0,0.0,0.0,0.0,0.0,0.4,0.0,0.0,0.0,0.0,0.0,0.0,0.0,0.0,24.8,0.0,0.0,0.0,0.0,0.0,0.0,0.0,2.0,10.2,0.2,0.0,0.2,0.0,37.8
Formosa do Rio Preto,A452,Formosa do Rio Preto,Formosa do Rio Preto - A452,-11.052,-45.201,Oeste,RPGA do Rio Grande,0.0,0.0,0.2,0.0,0.0,0.0,0.0,0.0,0.0,0.0,0.0,0.0,0.0,0.0,0.0,0.0,0.0,0.0,0.0,3.8,0.0,0.0,0.0,0.0,0.0,0.0,7.8,0.4,0.0,0.0,12.2
Nova Vida Montante,46590000,Barreiras,Barreiras (Nova Vida Montante) - 46590000,-11.868,-45.085,Oeste,RPGA do Rio Grande,0.0,0.0,0.0,0.0,0.0,0.0,0.0,0.0,0.0,0.0,0.0,0.0,0.0,0.0,0.0,0.0,0.2,0.0,0.0,0.0,0.0,0.0,0.0,0.0,0.0,4.0,23.2,0.0,0.0,0.0,27.4
Barreiras,83236,Barreiras,Barreiras - 83236,-12.156,-45.008,Oeste,RPGA do Rio Grande,0.0,0.0,0.0,0.0,0.0,0.0,0.0,0.0,0.0,0.0,0.0,0.0,0.0,0.0,0.0,0.0,0.0,0.0,0.0,0.0,0.0,0.0,0.0,0.0,0.0,20.4,3.0,0.0,0.0,0.0,23.4
Derocal,46455000,São Desidério,São Desidério (Derocal) - 46455000,-12.413,-45.121,Oeste,RPGA do Rio Grande,0.0,0.0,0.0,0.0,0.0,0.0,0.0,0.0,0.0,0.0,0.0,0.0,0.0,0.0,0.0,0.0,3.8,0.0,0.0,0.0,0.0,0.0,0.0,0.0,0.0,27.0,0.2,0.0,0.0,0.0,31.0
Arrojado,45770000,Correntina,Correntina (Arrojado) - 45770000,-13.453,-44.569,Oeste,"RPGA do Rio Corrente e Riachos do Ramalho, Serra Dourada e Brejo Velho",0.0,0.0,0.0,0.0,0.2,0.0,0.0,0.0,0.0,0.0,0.0,0.0,0.0,0.0,1.8,0.0,35.8,0.6,0.0,0.0,0.0,0.0,0.0,0.0,5.6,6.8,0.0,0.2,0.0,0.0,51.0
Correntina,45590000,Correntina,Correntina - 45590000,-13.341,-44.639,Oeste,"RPGA do Rio Corrente e Riachos do Ramalho, Serra Dourada e Brejo Velho",0.0,0.0,0.0,0.0,0.0,0.0,0.0,0.6,0.0,0.0,0.0,0.0,0.0,0.0,0.0,0.0,13.6,0.4,0.0,0.0,0.0,0.0,0.0,0.0,4.0,0.2,0.2,0.0,0.0,0.0,19.0
Fazenda Redenção,46543000,Barreiras,Barreiras (Fazenda Redenção) - 46543000,-12.136,-45.103,Oeste,RPGA do Rio Grande,0.0,0.0,0.0,0.0,0.0,0.0,0.0,0.0,0.0,0.0,0.0,0.0,0.0,0.0,0.0,0.0,0.2,0.0,0.0,0.0,0.0,0.0,0.0,0.0,0.0,10.4,16.2,1.2,0.0,0.0,28.0
Fazenda Santa Luzia,CA-CL-01,Cocos,Cocos (Fazenda Santa Luzia) - CA-CL-01,-14.855,-45.936,Oeste,RPGA do Rio Carinhanha,0.0,0.0,0.0,0.0,0.0,0.0,0.0,2.4,1.2,0.2,0.0,0.0,0.0,1.8,0.0,0.8,32.0,0.0,0.0,0.0,0.0,0.0,0.0,0.0,0.0,2.2,0.0,0.0,0.0,0.0,40.6
Fazenda Morinaga,CT-CL-01,Correntina,Correntina (Fazenda Morinaga) - CT-CL-01,-13.752,-45.87,Oeste,"RPGA do Rio Corrente e Riachos do Ramalho, Serra Dourada e Brejo Velho",0.0,0.0,0.0,0.0,0.0,0.0,0.0,10.0,0.0,0.0,0.0,0.0,0.0,8.8,0.0,0.0,42.8,9.4,0.0,0.0,0.0,0.0,0.0,0.0,0.2,16.0,0.0,0.0,0.0,0.0,87.2
Fazenda Madras,GR-CL-04,Riachão das Neves,Riachão das Neves (Fazenda Madras) - GR-CL-04,-11.63,-44.846,Oeste,RPGA do Rio Grande,0.0,0.0,0.0,0.0,0.0,0.0,0.0,0.0,0.0,2.2,0.0,0.0,0.0,0.0,0.0,0.0,9.4,0.0,0.2,0.0,0.0,0.0,0.0,0.0,0.0,1.0,13.0,0.0,0.0,0.0,25.8
Fazenda Barcelona,GR-CL-03,Formosa do Rio Preto,Formosa do Rio Preto (Fazenda Barcelona) - GR-CL-03,-11.591,-46.022,Oeste,RPGA do Rio Grande,0.0,0.0,0.0,0.0,0.0,0.0,0.0,0.0,0.0,0.0,0.0,0.0,0.0,2.4,6.0,6.0,0.2,0.0,4.6,0.0,0.0,0.0,0.0,0.0,0.2,0.0,8.8,12.0,0.2,0.0,40.4
PCH Pres. Goulart-J,45600000,Correntina,Correntina (PCH Pres. Goulart-J) - 45600000,-13.334,-44.621,Oeste,"RPGA do Rio Corrente e Riachos do Ramalho, Serra Dourada e Brejo Velho",0.0,0.0,0.0,0.0,0.0,0.0,0.0,0.2,0.0,0.0,0.0,0.0,0.0,0.0,0.2,0.0,11.0,0.0,0.0,0.0,0.0,0.0,0.0,0.0,0.8,0.0,2.8,0.0,0.0,0.0,15.0
PCH Pres. Goulart-M1,45588000,Correntina,Correntina (PCH Pres. Goulart-M1) - 45588000,-13.341,-44.641,Oeste,"RPGA do Rio Corrente e Riachos do Ramalho, Serra Dourada e Brejo Velho",0.0,0.0,0.0,0.2,0.0,0.0,0.0,1.0,0.0,0.0,0.0,0.0,0.0,0.0,0.0,0.0,19.0,0.0,0.0,0.0,0.0,0.0,0.0,0.0,6.2,0.2,0.5,0.0,0.0,0.0,27.2
PCH Sítio Grande-J,46453500,São Desidério,São Desidério (PCH Sítio Grande-J) - 46453500,-12.429,-45.153,Oeste,RPGA do Rio Grande,0.0,0.0,0.0,0.0,0.0,0.0,0.0,0.0,0.0,0.0,0.0,0.0,0.0,0.0,0.0,0.0,32.8,22.2,0.0,0.0,0.0,0.0,0.0,0.0,0.0,33.8,0.0,0.0,0.0,0.0,88.8
Luís Eduardo Magalhães,A404,Luís Eduardo Magalhães,Luís Eduardo Magalhães - A404,-12.152,-45.83,Oeste,RPGA do Rio Grande,0.0,0.0,0.0,0.0,0.0,0.0,0.0,0.0,0.0,0.0,0.0,0.0,0.0,26.4,0.4,6.0,11.0,0.0,0.0,0.0,0.0,0.0,0.0,0.0,6.4,0.0,0.4,0.0,0.0,0.0,50.6
Fazenda Evandro,,Fazenda Evandro,Fazenda Evandro,-10.601,-45.823,Oeste,RPGA do Rio Grande,0.0,0.0,0.0,16.4,0.0,0.0,0.0,0.0,0.0,0.0,0.0,0.0,0.0,0.0,0.0,0.0,0.0,0.0,0.0,0.0,0.0,0.0,0.0,0.0,0.0,0.0,17.2,1.6,0.2,0.2,35.6
Fazenda Santa Rita de Cássia,,Fazenda Santa Rita de Cássia,Fazenda Santa Rita de Cássia,-11.625,-45.645,Oeste,RPGA do Rio Grande,0.0,0.0,0.0,0.0,0.0,0.0,0.0,0.0,0.0,0.0,0.0,0.0,0.0,0.0,0.0,0.0,14.4,32.4,0.0,0.0,0.0,0.0,0.0,0.0,0.0,29.8,28.4,5.2,0.2,0.0,110.4
J. Zoológico,A401,Salvador,Salvador (J. Zoológico) - A401,-13.006,-38.506,Recôncavo,RPGA do Recôncavo Norte,31.0,2.2,0.0,11.4,3.0,5.8,16.0,0.0,43.6,13.6,36.2,43.4,86.6,10.8,0.0,0.0,0.0,1.8,4.0,7.8,1.4,100.0,12.0,8.4,0.0,0.0,0.0,5.0,1.2,12.0,457.2
Cruz das Almas,A406,Cruz das Almas,Cruz das Almas - A406,-12.675,-39.09,Recôncavo,RPGA do Rio Paraguaçu,0.2,1.0,0.2,28.4,18.6,4.6,1.6,0.2,2.6,1.6,12.2,11.0,16.2,0.2,0.2,0.4,0.2,0.0,1.2,37.0,2.8,40.4,1.0,0.4,0.4,0.2,0.2,0.6,0.2,3.6,187.4
Feira de Santana,A413,Feira de Santana,Feira de Santana - A413,-12.196,-38.967,Recôncavo,RPGA do Recôncavo Norte,0.2,0.8,0.0,0.0,5.4,11.2,3.4,0.2,0.0,12.2,9.4,2.2,3.6,2.2,3.4,0.0,0.0,0.0,0.0,32.2,6.8,13.6,5.0,0.2,1.8,0.0,0.0,0.0,0.2,3.0,117.0
Periperi,292740820A,Salvador,Salvador (Periperi) - 292740820A,-12.867,-38.458,Recôncavo,RPGA do Recôncavo Norte,10.4,0.2,0.0,3.0,34.0,23.6,7.8,0.0,33.8,24.4,48.4,32.4,51.8,2.4,0.6,1.4,0.0,0.0,2.2,39.4,34.8,77.8,3.2,2.4,0.0,0.0,0.0,13.2,2.6,12.4,462.2
Itapuã,292740819A,Salvador,Salvador (Itapuã) - 292740819A,-12.948,-38.37,Recôncavo,RPGA do Recôncavo Norte,12.6,0.0,0.0,12.8,3.2,28.2,25.0,0.2,25.8,9.4,24.0,26.2,86.2,4.2,0.0,0.0,0.0,0.0,3.2,54.8,47.2,111.0,12.8,1.6,0.0,0.0,0.0,21.4,0.2,12.8,522.8
Tancredo Neves,292740823A,Salvador,Salvador (Tancredo Neves) - 292740823A,-12.945,-38.453,Recôncavo,RPGA do Recôncavo Norte,5.4,0.0,0.0,8.8,16.8,14.6,11.2,0.0,31.0,19.4,48.0,34.8,80.4,5.2,0.0,0.0,0.0,0.0,4.4,46.8,33.4,110.6,10.8,6.8,0.2,0.0,0.0,15.4,0.0,23.8,527.8
Polivalente,292860401A,Santo Amaro,Santo Amaro (Polivalente) - 292860401A,-12.553,-38.713,Recôncavo,RPGA do Recôncavo Norte,0.0,0.0,0.0,1.2,7.6,3.4,3.0,0.2,4.6,35.2,61.0,4.8,7.2,3.6,0.0,0.8,0.2,1.2,1.0,64.8,10.6,29.4,1.6,0.6,0.6,0.0,0.0,10.8,0.6,14.2,268.2
Estação Rádio Marinha,A456,Salvador,Salvador (Estação Rádio Marinha) - A456,-12.808,-38.496,Recôncavo,RPGA do Recôncavo Norte,3.0,0.2,7.8,3.4,18.2,17.6,17.4,0.0,15.6,14.0,45.4,14.8,25.2,9.6,0.2,1.4,0.2,0.0,1.8,32.6,12.0,47.8,0.8,4.8,0.4,0.0,0.0,16.2,0.8,6.0,317.2
Cruz das Almas,83222,Cruz das Almas,Cruz das Almas - 83222,-12.667,-39.083,Recôncavo,RPGA do Rio Paraguaçu,0.0,0.8,0.0,31.8,20.1,4.7,1.3,0.0,2.4,1.4,13.8,12.7,18.0,0.0,0.0,0.0,0.0,0.0,0.8,41.5,2.8,43.9,0.8,0.2,0.2,0.0,0.0,0.4,0.2,3.6,201.4
Cachoeira,290490201A,Cachoeira,Cachoeira - 290490201A,-12.608,-38.961,Recôncavo,RPGA do Rio Paraguaçu,0.2,0.4,0.0,11.6,12.6,7.4,1.2,0.2,0.4,9.2,5.4,12.0,14.4,3.0,0.2,0.0,0.0,0.0,4.0,41.4,24.4,37.2,0.2,2.2,0.8,0.0,0.0,0.0,0.2,8.6,197.2
Centro,291345701A,Igrapiúna,Igrapiúna (Centro) - 291345701A,-13.819,-39.142,Recôncavo,RPGA do Recôncavo Sul,0.2,12.0,0.2,0.0,3.8,0.0,0.0,0.0,0.2,0.0,0.6,62.8,13.4,0.0,3.4,0.0,0.0,26.0,16.4,13.2,2.4,39.6,4.0,9.0,0.0,0.0,0.0,0.0,0.0,2.8,210.0
São Félix,292900801A,São Félix,São Félix - 292900801A,-12.607,-38.97,Recôncavo,RPGA do Rio Paraguaçu,0.2,0.2,0.0,18.6,11.0,7.4,1.4,0.2,4.0,9.4,5.2,9.4,14.0,3.6,0.0,0.0,0.0,0.0,4.4,43.0,21.4,38.6,0.0,2.6,0.6,0.0,0.0,0.0,0.0,8.2,203.4
Góes Calmon,293070901A,Simões Filho,Simões Filho (Góes Calmon) - 293070901A,-12.78,-38.353,Recôncavo,RPGA do Recôncavo Norte,8.6,6.2,0.2,19.8,8.4,24.2,25.6,0.0,71.4,44.8,49.6,46.0,37.2,21.0,0.0,0.4,0.0,0.4,3.8,57.4,20.6,70.6,1.6,3.4,0.0,0.0,0.0,43.6,0.6,9.2,574.6
Centro,293070903A,Simões Filho,Simões Filho (Centro) - 293070903A,-12.788,-38.397,Recôncavo,RPGA do Recôncavo Norte,6.8,2.4,0.2,4.2,6.4,22.8,29.6,0.2,34.4,36.8,41.2,33.6,39.0,8.2,5.2,0.0,0.0,0.0,1.4,52.6,27.4,52.8,1.0,4.0,0.0,0.0,0.0,25.4,1.0,15.8,452.4
Amargosa,A434,Amargosa,Amargosa - A434,-13.009,-39.617,Recôncavo,RPGA do Recôncavo Sul,0.0,0.0,0.0,0.0,6.2,4.6,0.0,0.0,0.6,0.0,0.4,12.0,5.8,0.6,4.8,0.0,0.0,1.8,0.0,2.4,1.6,15.6,4.4,3.8,0.0,0.0,0.0,28.0,0.0,0.0,92.6
Ondina,83229,Salvador,Salvador (Ondina) - 83229,-13.005,-38.506,Recôncavo,RPGA do Recôncavo Norte,33.1,2.3,0.0,12.3,3.7,6.0,16.4,0.0,46.6,15.0,38.2,45.3,92.7,12.1,0.0,0.0,0.0,0.0,4.2,0.0,0.0,86.2,12.6,9.3,0.0,0.0,0.0,5.6,0.0,12.2,453.8
Feira de Santana,PG-PR-13,Feira de Santana,Feira de Santana - PG-PR-13,-12.268,-38.966,Recôncavo,RPGA do Rio Paraguaçu,1.4,2.6,0.2,0.0,6.2,5.4,2.0,0.2,0.0,8.6,10.6,1.8,2.2,1.4,0.0,0.0,0.0,0.0,0.2,32.0,7.0,27.8,4.4,0.0,0.8,0.0,0.0,0.0,0.2,3.0,118.0
Centro,292740802A,Salvador,Salvador (Centro) - 292740802A,-12.978,-38.516,Recôncavo,RPGA do Recôncavo Norte,34.4,0.4,0.0,7.7,3.0,13.2,18.9,0.2,49.4,16.9,47.6,48.5,78.6,6.6,0.2,0.0,0.0,3.0,4.4,21.6,2.0,113.9,23.2,7.7,0.0,0.0,0.0,8.8,3.0,17.4,530.4
Federação,292740803A,Salvador,Salvador (Federação) - 292740803A,-13.001,-38.511,Recôncavo,RPGA do Recôncavo Norte,22.2,1.8,0.0,7.3,1.4,7.5,18.8,0.0,46.5,13.8,33.0,38.8,72.2,10.8,0.0,0.0,0.0,0.2,2.4,8.9,0.6,99.2,15.6,7.3,0.0,0.0,0.0,4.1,1.2,7.3,420.7
Cabula,292740810A,Salvador,Salvador (Cabula) - 292740810A,-12.961,-38.461,Recôncavo,RPGA do Recôncavo Norte,6.9,0.0,0.0,5.9,26.3,13.0,7.1,0.0,27.0,13.4,42.3,34.7,68.9,7.3,0.0,0.0,0.0,0.0,3.9,41.8,23.1,101.5,8.9,4.2,2.0,0.0,0.0,12.1,0.4,25.0,475.6
Santo Estevão,PG-CL-08,Santo Estevão,Santo Estevão - PG-CL-08,-12.435,-39.212,Recôncavo,RPGA do Rio Paraguaçu,0.6,0.2,0.0,11.0,15.0,4.0,0.8,0.0,0.0,0.2,4.4,1.8,3.4,0.8,0.0,0.2,0.2,0.0,0.0,26.2,7.0,14.4,0.4,0.2,0.8,0.0,0.0,0.8,0.0,2.2,94.6
Caminho das Árvores,292740815A,Salvador,Salvador (Caminho das Árvores) - 292740815A,-12.977,-38.454,Recôncavo,RPGA do Recôncavo Norte,17.5,0.0,0.0,2.6,26.0,17.3,17.7,0.2,23.8,10.1,45.5,34.7,69.3,8.3,0.0,0.0,0.0,0.0,2.6,33.4,10.3,95.6,35.4,2.0,0.2,0.0,0.0,6.9,0.0,19.3,478.5
Águas Claras,292740808A,Salvador,Salvador (Águas Claras) - 292740808A,-12.894,-38.442,Recôncavo,RPGA do Recôncavo Norte,6.9,0.4,0.0,3.8,25.8,26.1,10.7,0.0,25.3,19.3,37.8,26.0,62.1,2.6,2.4,1.2,0.0,0.0,1.0,27.3,35.7,94.5,7.1,1.8,0.4,0.0,0.0,0.6,6.5,14.8,440.0
Alto do Peru,292740812A,Salvador,Salvador (Alto do Peru) - 292740812A,-12.939,-38.486,Recôncavo,RPGA do Recôncavo Norte,4.6,0.2,0.0,6.9,42.9,15.7,7.3,0.0,44.3,18.6,47.6,43.5,33.8,33.2,0.0,1.4,0.0,0.0,7.5,25.4,9.0,17.4,10.2,6.8,5.2,0.2,0.0,4.5,3.4,20.1,409.5
Cosme de Farias,292740816A,Salvador,Salvador (Cosme de Farias) - 292740816A,-12.979,-38.486,Recôncavo,RPGA do Recôncavo Norte,38.4,0.0,0.0,10.0,9.8,17.1,13.2,0.0,44.3,23.0,45.3,47.8,62.6,6.1,0.0,0.0,0.0,0.0,4.6,23.8,5.1,116.9,16.8,3.9,0.0,0.0,0.0,6.2,1.8,18.3,515.1
São Caetano,292740814A,Salvador,Salvador (São Caetano) - 292740814A,-12.94,-38.475,Recôncavo,RPGA do Recôncavo Norte,4.0,0.2,0.0,8.9,36.9,14.4,7.7,0.0,29.1,26.2,36.6,36.1,61.3,5.3,0.0,0.0,0.0,0.0,5.5,41.1,28.6,109.7,5.3,16.3,0.4,0.0,0.0,12.8,1.0,20.0,507.4
Pirajá,292740801A,Salvador,Salvador (Pirajá) - 292740801A,-12.899,-38.459,Recôncavo,RPGA do Recôncavo Norte,4.5,0.0,0.2,11.9,35.8,26.0,12.0,0.2,24.2,0.0,0.0,0.0,0.0,0.0,0.2,0.0,0.0,0.0,0.2,28.4,62.8,0.0,0.0,7.3,39.8,2.6,2.2,0.2,0.6,16.0,275.1
Rio Sena,292740805A,Salvador,Salvador (Rio Sena) - 292740805A,-12.891,-38.471,Recôncavo,RPGA do Recôncavo Norte,7.8,22.6,5.4,2.0,1.8,30.3,12.2,9.0,4.2,10.2,12.0,10.2,78.9,5.7,1.4,0.2,0.0,0.0,0.8,49.2,48.4,79.7,6.3,3.4,0.0,0.0,0.0,7.9,2.0,13.4,424.9
Valéria,292740817A,Salvador,Salvador (Valéria) - 292740817A,-12.864,-38.438,Recôncavo,RPGA do Recôncavo Norte,13.4,1.6,0.2,14.4,25.0,20.1,9.5,0.0,25.6,24.9,58.1,29.4,54.6,4.5,0.8,0.6,0.0,0.0,0.8,36.2,28.1,67.3,2.8,1.4,0.0,0.0,0.0,16.4,4.1,7.5,447.0
Santa Terezinha,290650105A,Candeias,Candeias (Santa Terezinha) - 290650105A,-12.647,-38.539,Recôncavo,RPGA do Recôncavo Norte,5.1,0.0,6.1,6.7,13.8,4.8,13.8,0.0,25.0,29.6,41.9,19.1,15.0,3.6,0.2,2.4,2.8,0.0,5.3,64.1,17.2,37.4,0.6,0.4,0.6,0.0,0.0,12.8,2.8,5.9,336.8
Centro,290650101A,Candeias,Candeias (Centro) - 290650101A,-12.67,-38.544,Recôncavo,RPGA do Recôncavo Norte,6.3,1.4,0.4,2.4,23.9,8.3,24.6,0.0,26.6,38.0,60.6,19.5,13.8,7.3,0.8,0.6,1.0,1.8,3.5,83.6,15.6,30.6,0.2,3.7,0.2,0.0,0.0,20.8,3.0,6.5,405.1
Malemba,290650102A,Candeias,Candeias (Malemba) - 290650102A,-12.678,-38.544,Recôncavo,RPGA do Recôncavo Norte,7.7,1.6,0.2,3.2,29.4,10.1,28.9,0.0,28.3,38.6,64.5,20.3,13.4,11.4,1.8,1.0,0.0,3.9,3.2,72.0,16.4,30.9,0.2,7.7,0.0,0.0,0.0,23.5,3.5,8.5,430.1
Sarandi,290650104A,Candeias,Candeias (Sarandi) - 290650104A,-12.671,-38.531,Recôncavo,RPGA do Recôncavo Norte,9.2,0.2,1.0,3.0,26.2,11.0,19.9,0.0,28.8,34.6,49.4,18.5,13.6,7.7,1.0,1.2,3.2,0.6,2.2,80.9,16.4,30.5,0.2,3.8,0.8,0.0,0.0,21.1,4.5,5.5,394.9
Areia Branca,291920706A,Lauro de Freitas,Lauro de Freitas (Areia Branca) - 291920706A,-12.841,-38.337,Recôncavo,RPGA do Recôncavo Norte,4.5,1.6,0.0,25.8,12.2,30.5,18.9,0.0,87.6,19.3,47.8,33.9,41.7,5.9,0.0,0.0,0.0,0.4,6.1,44.4,28.5,71.2,1.4,5.3,0.0,0.0,0.2,17.5,0.2,10.8,516.0
Vila Praiana,291920702A,Lauro de Freitas,Lauro de Freitas (Vila Praiana) - 291920702A,-12.901,-38.308,Recôncavo,RPGA do Recôncavo Norte,8.1,1.0,0.2,15.8,5.5,26.4,8.7,0.2,49.9,12.0,43.5,33.9,69.8,7.3,0.2,0.0,0.0,0.0,5.0,31.7,20.4,88.7,9.9,0.2,1.8,0.2,1.0,13.2,0.0,1.8,456.3
Portão,291920701A,Lauro de Freitas,Lauro de Freitas (Portão) - 291920701A,-12.87,-38.305,Recôncavo,RPGA do Recôncavo Norte,1.8,0.6,0.0,16.1,10.6,20.3,8.3,0.2,32.4,19.1,34.8,37.4,51.6,7.9,0.0,0.2,0.0,0.0,16.3,37.4,24.8,88.2,1.8,1.6,3.4,0.0,5.9,14.4,0.0,13.0,448.0
Rua 02 de Julho,291920705A,Lauro de Freitas,Lauro de Freitas (Rua 02 de Julho) - 291920705A,-12.839,-38.35,Recôncavo,RPGA do Recôncavo Norte,5.3,11.8,0.0,14.8,13.8,29.2,20.1,0.0,70.7,15.0,41.8,30.5,42.7,8.1,0.0,0.4,0.0,0.0,5.3,36.2,27.4,71.8,1.6,4.9,0.0,0.0,0.0,12.6,0.0,11.8,475.6
Muritiba,PG-PR-12,Muritiba,Muritiba - PG-PR-12,-12.618,-39.006,Recôncavo,RPGA do Rio Paraguaçu,0.6,0.2,0.2,14.2,22.8,8.6,1.2,0.0,2.2,5.6,6.2,4.6,12.0,3.4,0.2,0.2,0.0,0.0,2.6,30.6,19.0,34.2,0.0,1.8,0.8,0.0,0.0,0.4,0.0,0.8,172.4
Dois de Julho,291120401A,Gandú,Gandú (Dois de Julho) - 291120401A,-13.741,-39.483,Recôncavo,RPGA do Recôncavo Sul,0.0,0.0,0.0,0.0,1.2,1.0,0.0,0.0,4.2,0.0,0.0,16.4,6.2,0.2,6.3,0.0,0.0,5.2,3.4,2.2,4.0,24.2,0.4,2.2,0.0,0.2,0.0,11.4,0.0,1.4,90.1
Centro,292060101A,Maragogipe,Maragogipe (Centro) - 292060101A,-12.78,-38.917,Recôncavo,RPGA do Rio Paraguaçu,0.2,1.6,0.0,4.9,18.4,4.7,2.4,0.2,0.2,7.9,27.6,23.4,49.9,2.0,0.0,0.0,0.0,0.0,19.1,39.8,5.4,68.9,1.2,0.4,0.2,0.0,0.0,6.1,0.6,3.4,288.6
Rua São Roque,293290301A,Valença,Valença (Rua São Roque) - 293290301A,-13.363,-39.078,Recôncavo,RPGA do Recôncavo Sul,0.2,0.0,0.0,2.4,28.2,2.0,4.2,0.2,0.8,0.8,7.9,105.9,11.7,0.8,0.4,0.0,0.0,1.8,9.7,21.3,28.4,48.3,6.1,0.2,1.2,0.0,0.0,0.0,0.0,1.8,284.1
Abaeté,RN-CL-05,Salvador,Salvador (Abaeté) - RN-CL-05,-12.947,-38.359,Recôncavo,RPGA do Recôncavo Norte,14.2,0.2,0.0,15.0,2.0,26.8,16.8,0.0,31.2,9.8,18.8,27.6,77.2,4.2,0.0,0.0,0.0,0.0,3.8,49.4,41.2,105.0,8.2,2.6,0.0,0.0,0.0,20.8,0.2,12.4,487.4
Lauro de Freitas,RN-CL-09,Lauro de Freitas,Lauro de Freitas - RN-CL-09,-12.887,-38.297,Recôncavo,RPGA do Recôncavo Norte,2.8,2.6,0.0,20.0,2.2,20.8,6.2,0.0,30.8,17.4,31.2,37.4,58.8,8.4,0.0,0.0,0.0,0.0,9.8,34.6,21.8,85.2,4.8,0.2,4.2,0.0,4.6,7.6,0.0,12.6,424.0
São Francisco do Conde,RN-CL-07,São Francisco do Conde,São Francisco do Conde - RN-CL-07,-12.611,-38.682,Recôncavo,RPGA do Recôncavo Norte,0.8,0.4,0.0,3.4,13.6,6.4,14.6,0.0,9.0,35.8,71.8,7.6,13.2,4.0,0.2,1.8,2.8,0.2,1.2,55.0,25.0,33.4,5.0,2.4,0.2,0.0,0.0,21.2,0.2,37.2,366.4
CIA,293070902A,Simões Filho,Simões Filho (CIA) - 293070902A,-12.825,-38.409,Recôncavo,RPGA do Recôncavo Norte,13.2,1.4,0.2,4.6,15.6,20.2,13.2,0.2,22.2,28.8,59.8,19.2,45.4,7.0,0.2,0.2,0.2,0.0,4.2,61.8,35.0,71.0,1.2,10.2,1.4,0.0,0.0,10.2,3.6,5.2,455.4
PC Fazenda Jurema,51346050,Rafael Jambeiro,Rafael Jambeiro (PC Fazenda Jurema) - 51346050,-12.488,-39.698,Recôncavo,RPGA do Rio Paraguaçu,0.0,0.0,0.0,2.8,3.2,0.0,0.0,0.0,0.0,0.0,0.4,1.2,3.2,0.0,0.0,0.0,0.0,0.0,0.4,1.6,0.0,1.6,3.6,0.0,0.0,0.0,0.0,0.4,0.0,0.2,18.6
PC Argoim,51351000,Rafael Jambeiro,Rafael Jambeiro (PC Argoim) - 51351000,-12.587,-39.522,Recôncavo,RPGA do Rio Paraguaçu,0.0,0.4,0.0,2.4,4.0,0.0,0.0,0.0,2.0,0.4,0.0,1.6,1.4,0.2,0.4,0.0,0.0,0.0,0.0,1.6,0.4,8.4,0.8,0.4,0.4,0.0,0.0,0.0,0.0,0.0,24.8
PC Rio Paratigi,51370000,Santo Estevão,Santo Estevão (PC Rio Paratigi) - 51370000,-12.515,-39.383,Recôncavo,RPGA do Rio Paraguaçu,0.4,0.0,0.0,0.0,0.4,0.4,2.2,21.4,2.4,0.4,4.4,0.6,1.4,0.4,0.4,0.8,0.4,0.0,0.4,1.8,0.2,0.0,0.0,0.0,0.0,0.2,0.2,0.0,0.0,0.0,38.8
Abaeté,RN-PR-01,Salvador,Salvador (Abaeté) - RN-PR-01,-12.945,-38.361,Recôncavo,RPGA do Recôncavo Norte,22.4,0.0,0.0,14.3,1.8,31.3,33.6,0.0,23.3,15.6,32.2,27.6,87.6,1.0,0.0,0.0,0.0,0.0,3.9,54.7,16.8,101.2,14.4,2.9,2.9,0.0,0.0,24.1,0.2,12.9,524.7
Cândido Sales,53620000,Cândido Sales,Cândido Sales - 53620000,-15.513,-41.237,Sudoeste,RPGA do Rio Pardo,0.0,0.0,0.0,0.0,0.0,0.0,0.0,0.0,4.8,0.0,0.0,0.0,0.0,0.0,0.0,0.0,28.6,6.4,0.0,0.0,0.0,0.2,0.2,0.0,0.0,6.8,0.2,0.0,0.0,0.2,47.4
Itiruçu,A407,Itiruçu,Itiruçu - A407,-13.526,-40.121,Sudoeste,RPGA do Recôncavo Sul,0.6,0.2,0.2,0.0,0.0,1.2,0.0,0.0,0.4,0.8,0.0,6.4,5.6,0.2,0.0,0.2,0.0,3.8,9.0,5.4,4.4,5.0,0.2,1.8,0.2,0.0,0.0,0.0,0.2,1.6,47.4
Vitória da Conquista,A414,Vitória da Conquista,Vitória da Conquista - A414,-14.886,-40.801,Sudoeste,RPGA do Rio Pardo,0.0,0.0,0.2,0.0,0.0,0.0,2.6,0.2,1.2,0.4,0.0,0.6,3.4,1.4,0.2,0.8,0.8,15.2,1.0,1.6,3.0,3.4,0.6,1.0,0.0,0.2,0.2,0.2,0.2,0.0,38.4
Lagoa,291760701A,Jaguaquara,Jaguaquara (Lagoa) - 291760701A,-13.523,-39.969,Sudoeste,RPGA do Recôncavo Sul,0.0,0.0,0.0,0.0,0.6,0.0,0.0,0.0,0.0,0.2,0.0,3.2,3.6,0.0,0.0,0.2,0.0,2.0,2.0,1.2,4.8,2.0,0.2,4.6,0.0,0.0,0.0,0.0,0.0,1.0,25.6
Entroncamento,291760702A,Jaguaquara,Jaguaquara (Entroncamento) - 291760702A,-13.51,-40.055,Sudoeste,RPGA do Recôncavo Sul,0.2,0.2,0.0,0.0,0.0,0.4,0.0,7.6,0.0,0.0,0.0,4.6,3.8,0.0,0.0,0.0,0.0,1.4,1.8,2.8,3.6,1.6,0.0,0.4,0.2,0.2,0.0,0.0,0.0,0.8,29.6
Brumado,A433,Brumado,Brumado - A433,-14.182,-41.672,Sudoeste,RPGA do Rio de Contas,0.0,0.0,0.2,0.0,0.0,0.0,0.0,1.2,8.2,0.0,0.0,0.2,12.8,0.2,0.2,0.0,0.0,6.0,0.4,0.2,0.0,0.6,0.0,0.2,0.2,0.0,0.8,0.0,0.0,0.2,31.6
Itapetinga,A446,Itapetinga,Itapetinga - A446,-15.245,-40.23,Sudoeste,RPGA do Rio Pardo,0.0,0.2,0.0,0.0,0.0,0.0,0.0,0.0,0.2,2.4,0.0,0.8,3.8,2.4,0.0,0.0,0.2,0.4,1.0,2.2,7.8,2.8,11.2,10.0,0.0,0.0,0.6,0.0,0.2,0.0,46.2
Anagé,CO-CL-01,Anagé,Anagé - CO-CL-01,-14.618,-41.15,Sudoeste,RPGA do Rio de Contas,0.0,0.0,0.0,0.0,0.0,0.0,0.0,0.0,0.5,1.8,0.0,0.0,1.2,1.2,0.0,0.0,0.0,0.0,0.2,0.0,0.0,0.0,0.0,0.0,0.0,0.0,0.0,0.0,0.0,0.0,5.0
Centro,293330701A,Vitória da Conquista,Vitória da Conquista (Centro) - 293330701A,-14.852,-40.839,Sudoeste,RPGA do Rio Pardo,0.0,0.0,0.0,0.0,0.0,0.0,0.0,0.0,0.4,0.2,0.0,0.4,1.2,2.6,0.0,6.5,2.8,9.1,0.6,0.6,2.4,1.6,1.4,0.0,0.0,0.0,8.9,0.0,5.7,2.6,46.8
Centro,291710201A,Itororó,Itororó (Centro) - 291710201A,-15.119,-40.065,Sudoeste,RPGA do Leste,4.7,2.4,7.9,1.2,2.2,1.0,1.4,0.0,0.0,0.4,0.0,0.6,1.0,1.6,0.0,0.8,0.0,0.2,1.0,3.8,0.0,0.0,0.2,0.0,0.2,0.6,7.5,0.2,0.0,0.0,38.8
Clerolândia,291640101A,Itapetinga,Itapetinga (Clerolândia) - 291640101A,-15.243,-40.221,Sudoeste,RPGA do Rio Pardo,0.0,0.0,0.0,0.0,0.0,0.0,0.0,0.0,0.0,0.8,0.0,0.6,5.3,1.6,0.0,0.0,0.0,0.2,0.2,2.4,5.2,2.4,10.1,8.7,0.2,0.0,0.4,0.2,0.2,0.0,38.5
Recreio,293330702A,Vitória da Conquista,Vitória da Conquista (Recreio) - 293330702A,-14.861,-40.841,Sudoeste,RPGA do Rio Pardo,0.0,0.0,0.0,0.0,0.0,0.0,0.0,0.0,0.8,0.0,0.0,0.2,1.4,3.4,0.2,7.3,0.6,10.6,0.4,0.4,1.6,2.4,0.6,0.0,0.0,0.0,5.5,0.0,0.2,0.0,35.6
Patagônia,293330704A,Vitória da Conquista,Vitória da Conquista (Patagônia) - 293330704A,-14.87,-40.863,Sudoeste,RPGA do Rio Pardo,0.0,0.4,0.0,0.0,0.0,0.0,0.0,0.0,0.6,0.2,0.0,0.0,1.6,2.4,0.0,0.0,0.4,17.9,0.6,0.4,2.0,1.8,0.4,0.4,0.0,0.0,1.0,0.0,0.0,0.0,30.0
Lomantão,293330703A,Vitória da Conquista,Vitória da Conquista (Lomantão) - 293330703A,-14.87,-40.827,Sudoeste,RPGA do Rio Pardo,0.0,0.0,0.0,0.0,0.0,0.0,0.2,0.0,0.6,0.2,0.0,0.4,2.0,1.4,0.0,4.1,1.2,8.7,0.2,0.6,1.8,2.0,0.8,0.8,0.0,0.0,2.2,0.0,0.2,0.0,27.4
Maracás,292050201C,Maracás,Maracás - 292050201C,-13.444,-40.451,Sudoeste,RPGA do Rio de Contas,0.0,0.0,0.0,0.0,0.0,1.6,0.0,0.0,0.0,0.0,0.0,0.4,0.2,0.2,0.0,0.2,0.0,0.0,0.2,0.2,0.0,0.2,0.2,0.2,0.2,0.0,0.2,0.0,0.0,0.0,4.0
Jaguaquara,RS-CL-01,Jaguaquara,Jaguaquara - RS-CL-01,-13.573,-39.941,Sudoeste,RPGA do Recôncavo Sul,0.8,0.0,0.0,0.0,0.5,0.0,0.0,0.0,0.2,0.5,0.0,4.8,6.0,0.5,0.2,0.0,0.0,4.5,4.0,4.8,9.5,3.2,0.2,25.0,0.0,0.0,13.8,2.0,0.0,1.2,81.8
Itati,LE-CL-03,Itororó,Itororó (Itati) - LE-CL-03,-15.053,-40.023,Sudoeste,RPGA do Leste,0.0,0.0,0.0,0.0,0.0,0.0,0.0,1.4,0.0,2.0,0.0,1.0,10.0,1.0,0.0,0.0,0.0,1.0,3.6,1.0,5.4,8.2,7.8,11.4,3.0,0.0,10.2,0.0,0.2,1.8,69.0
Nova Canaã,292270601C,Nova Canaã,Nova Canaã - 292270601C,-14.663,-40.275,Sudoeste,RPGA do Rio de Contas,0.0,0.2,0.2,1.2,0.2,0.4,0.0,0.4,2.2,0.2,0.6,8.2,10.2,1.6,0.4,0.0,0.4,4.8,11.4,3.4,9.2,4.4,2.8,16.8,0.2,0.2,1.2,7.0,0.2,0.0,88.0
Caculé,290500801C,Caculé,Caculé - 290500801C,-14.498,-42.26,Sudoeste,RPGA do Rio de Contas,0.0,0.0,0.0,0.0,0.0,0.0,0.0,0.0,0.0,0.0,0.0,0.0,2.8,0.0,0.0,0.0,0.0,1.0,0.0,0.0,0.0,0.0,0.0,0.0,0.0,0.0,0.0,0.0,0.0,0.0,3.8
Rio do Antônio,292680601C,Rio do Antônio,Rio do Antônio - 292680601C,-14.348,-42.185,Sudoeste,RPGA do Rio de Contas,0.0,0.0,0.0,0.0,0.0,0.0,0.0,0.0,0.0,0.0,0.0,0.0,0.0,0.0,0.0,0.0,0.0,0.0,0.0,0.0,0.0,0.0,0.0,0.0,0.0,0.0,0.0,0.0,0.0,0.0,0.0
Caraíbas,290689901C,Caraíbas,Caraíbas - 290689901C,-14.725,-41.277,Sudoeste,RPGA do Rio de Contas,0.0,0.0,0.0,0.0,0.0,0.0,0.0,0.0,1.8,0.2,0.0,0.0,3.4,0.0,0.0,0.0,0.0,0.2,0.0,0.4,0.2,0.0,0.0,3.2,0.0,0.0,0.2,0.0,0.0,0.0,9.6
Fz Nanci,53880000,Camacã,Camacã (Fz Nanci) - 53880000,-15.581,-39.521,Sul,RPGA do Rio Pardo,0.2,0.0,0.0,0.0,0.4,0.0,0.0,0.0,0.6,0.0,0.2,0.0,10.2,0.2,0.0,0.2,0.0,0.0,3.2,4.6,1.6,13.8,5.2,5.2,1.0,0.0,0.2,0.0,1.2,0.0,48.0
PCH Cach. da Lixa M,55354000,Jucuruçu,Jucuruçu (PCH Cach. da Lixa M) - 55354000,-17.067,-40.069,Sul,"RPGA dos Rios Peruípe, Itanhém e Jucuruçu",0.0,0.0,2.4,7.0,0.4,0.2,0.0,7.6,13.6,3.2,0.2,0.2,0.0,0.0,11.0,29.8,13.4,1.0,7.4,8.6,2.0,14.2,6.8,4.2,0.0,3.0,5.8,0.2,0.2,0.0,142.4
PCH Colino II M,55355600,Vereda,Vereda (PCH Colino II M) - 55355600,-17.071,-40.155,Sul,"RPGA dos Rios Peruípe, Itanhém e Jucuruçu",0.0,0.0,1.2,3.0,0.2,0.0,0.0,5.5,26.8,1.2,0.0,1.5,0.0,0.0,3.5,19.8,25.2,2.0,2.5,5.2,7.5,26.0,6.2,4.5,0.0,0.5,6.2,0.2,0.0,0.0,149.0
Itamaraju,A455,Itamaraju,Itamaraju - A455,-17.171,-39.588,Sul,"RPGA dos Rios Peruípe, Itanhém e Jucuruçu",0.0,0.0,0.4,4.2,0.4,0.0,0.0,0.4,13.0,0.0,3.0,0.0,0.0,0.0,0.0,33.4,1.0,0.0,0.0,3.2,2.4,4.2,13.2,0.2,0.2,1.6,0.0,0.0,0.0,0.4,81.2
Itajuípe,,Itajuípe,Itajuípe,-14.674,-39.377,Sul,RPGA do Leste,2.0,0.0,0.0,0.0,1.0,0.0,0.0,0.0,0.0,0.0,0.0,13.6,11.4,0.0,6.2,0.0,0.0,2.4,10.2,9.6,8.8,2.0,28.0,4.0,0.0,0.0,0.0,0.0,0.0,0.2,99.4
Barra do Rocha,290310201A,Barra do Rocha,Barra do Rocha - 290310201A,-14.209,-39.599,Sul,RPGA do Rio de Contas,0.2,0.0,0.0,0.0,1.8,0.0,0.0,0.2,0.0,0.0,0.0,29.6,5.4,0.8,0.2,0.0,0.0,0.2,5.2,8.0,9.4,2.8,12.2,14.6,0.0,0.0,0.0,6.2,0.2,0.0,97.0
Centro,290580001A,Camamu,Camamu (Centro) - 290580001A,-13.944,-39.103,Sul,RPGA do Recôncavo Sul,0.4,3.8,0.0,0.0,2.4,0.4,0.0,1.0,0.2,0.0,1.8,61.4,14.2,0.0,4.6,0.0,0.0,2.6,26.8,9.0,16.2,20.4,4.4,0.8,0.0,0.0,0.0,0.0,0.0,0.4,170.8
Novo Horizonte,291180801A,Guaratinga,Guaratinga (Novo Horizonte) - 291180801A,-16.583,-39.781,Sul,"RPGA dos Rios dos Frades, Buranhém e Santo Antônio",0.0,0.0,0.0,0.4,0.0,0.0,0.0,2.6,10.4,0.2,0.0,0.0,0.0,0.0,0.0,3.4,34.2,0.6,0.0,3.4,0.4,7.4,3.6,0.0,0.0,0.6,0.0,0.0,0.0,0.6,67.8
Passagem,291490101A,Itacaré,Itacaré (Passagem) - 291490101A,-14.281,-39.003,Sul,RPGA do Rio de Contas,1.8,0.2,0.0,6.2,86.4,2.0,0.0,3.0,0.2,0.2,2.0,133.0,32.8,0.0,0.0,0.0,0.4,8.8,107.4,17.6,14.8,20.8,5.8,3.6,0.0,0.0,0.0,0.0,0.0,0.6,447.6
Centro,291560101A,Itamaraju,Itamaraju (Centro) - 291560101A,-17.028,-39.535,Sul,"RPGA dos Rios Peruípe, Itanhém e Jucuruçu",0.0,0.0,0.0,1.2,4.2,0.0,0.0,0.4,14.8,0.6,4.2,0.2,0.0,0.0,0.0,52.4,6.0,0.6,0.0,5.2,0.8,3.6,9.0,0.0,0.4,2.4,0.0,0.0,0.0,0.0,106.0
Pau Brasil,292390201A,Pau Brasil,Pau Brasil - 292390201A,-15.461,-39.652,Sul,RPGA do Rio Pardo,0.0,0.2,0.0,0.0,1.6,0.0,0.0,0.2,1.0,1.0,0.4,1.0,11.6,0.0,0.0,0.0,0.2,12.2,7.8,9.2,3.8,4.0,6.4,14.0,0.4,0.0,13.8,0.2,0.4,0.0,89.4
Ribeira,292550101A,Prado,Prado (Ribeira) - 292550101A,-17.338,-39.232,Sul,"RPGA dos Rios Peruípe, Itanhém e Jucuruçu",0.0,0.8,0.0,1.6,2.8,0.0,0.0,0.2,15.6,1.6,1.4,0.0,0.0,0.0,0.0,0.0,6.6,0.0,0.2,10.4,0.0,7.4,67.8,0.0,0.0,6.2,21.6,0.0,0.0,1.0,145.2
Centro,292805901A,Santa Luzia,Santa Luzia (Centro) - 292805901A,-15.43,-39.333,Sul,RPGA do Leste,0.0,0.0,0.0,0.0,1.0,0.0,0.0,4.2,0.0,0.0,0.4,0.2,20.8,0.0,0.0,1.8,1.8,11.6,10.4,2.0,5.8,4.4,12.2,16.2,0.2,0.0,0.0,0.0,0.0,0.6,93.6
Maraú,A438,Maraú,Maraú - A438,-13.907,-38.972,Sul,RPGA do Recôncavo Sul,1.8,0.0,0.8,2.6,13.6,2.2,3.4,0.0,0.0,0.4,10.4,80.6,45.2,0.0,1.4,0.0,0.4,8.0,28.4,10.8,3.2,60.2,6.8,0.6,0.6,0.2,0.0,21.2,0.0,10.8,313.6
Porto Seguro,A427,Porto Seguro,Porto Seguro - A427,-16.389,-39.182,Sul,"RPGA dos Rios dos Frades, Buranhém e Santo Antônio",0.2,0.2,0.0,17.2,0.0,0.2,0.2,8.0,6.0,0.2,0.4,0.8,4.4,0.4,0.0,0.2,32.6,4.6,0.0,1.8,15.6,13.6,8.2,1.8,0.2,1.0,0.2,0.0,0.4,1.6,120.0
Abrolhos,A422,Caravelas,Caravelas (Abrolhos) - A422,-17.791,-39.228,Sul,"RPGA dos Rios Peruípe, Itanhém e Jucuruçu",0.0,0.0,0.0,0.4,0.0,0.0,0.0,3.0,5.8,1.2,0.6,0.0,0.0,0.0,0.0,1.2,5.0,0.0,0.0,2.4,0.0,0.0,8.4,0.2,0.0,0.4,0.0,0.0,0.0,0.0,28.6
Mascote,53950000,Mascote,Mascote - 53950000,-15.566,-39.303,Sul,RPGA do Rio Pardo,0.0,0.0,0.0,0.0,0.6,0.0,0.2,0.6,0.0,0.2,0.4,2.6,13.2,0.0,0.0,0.0,9.6,4.4,7.6,0.2,4.6,10.2,2.8,4.4,0.2,0.0,0.0,0.2,0.0,1.0,63.0
PCH Colino I J,55357000,Jucuruçu,Jucuruçu (PCH Colino I J) - 55357000,-17.082,-40.077,Sul,"RPGA dos Rios Peruípe, Itanhém e Jucuruçu",0.0,0.0,11.8,10.0,10.0,0.0,0.0,9.8,16.8,4.5,0.2,0.0,0.0,0.0,2.2,47.8,14.8,1.5,0.2,3.0,6.2,14.8,8.5,5.2,0.2,2.0,5.5,0.2,0.0,0.0,175.2
Eunápolis,FB-CL-01,Eunápolis,Eunápolis - FB-CL-01,-16.291,-39.58,Sul,"RPGA dos Rios dos Frades, Buranhém e Santo Antônio",0.0,0.0,0.0,0.0,0.5,9.0,0.0,28.2,8.0,0.2,0.0,0.2,0.0,0.0,0.0,2.2,20.2,3.2,5.0,2.5,3.0,4.2,14.8,0.0,0.0,0.8,0.0,0.0,0.0,0.0,102.2
Itabuna,Fazenda Barra,Itabuna,Itabuna - Fazenda Barra,-14.9,-39.369,Sul,RPGA do Leste,0.0,0.0,0.0,0.0,0.8,0.0,0.0,0.0,0.0,0.0,0.0,2.4,7.8,0.4,0.0,0.2,2.8,0.0,6.8,3.0,3.6,1.4,13.2,7.4,0.2,0.2,0.0,0.0,0.0,0.0,50.2
Centro,290340901A,Belmonte,Belmonte (Centro) - 290340901A,-15.859,-38.878,Sul,RPGA do Rio Jequitinhonha,2.6,0.0,0.0,0.0,0.0,0.0,0.0,7.7,0.6,0.4,3.7,14.4,15.5,0.0,0.0,0.0,4.3,13.0,21.5,0.0,0.6,10.6,5.1,3.0,0.2,0.2,0.0,0.0,0.0,4.9,108.4
São João do Panelinha,290560202A,Camacan,Camacan (São João do Panelinha) - 290560202A,-15.375,-39.49,Sul,RPGA do Rio Pardo,0.0,0.4,0.0,0.0,4.9,0.2,0.2,0.4,0.0,0.0,0.0,2.8,14.6,0.0,0.6,0.2,1.4,7.0,14.6,3.2,11.7,4.8,12.0,14.7,0.6,0.0,0.0,0.0,0.0,0.2,94.3
Centro,290560203A,Camacan,Camacan (Centro) - 290560203A,-15.416,-39.494,Sul,RPGA do Rio Pardo,0.0,0.6,0.2,0.0,0.0,0.0,0.0,0.4,0.2,0.6,0.2,2.6,13.2,0.2,0.0,0.6,6.9,3.6,9.8,3.2,4.0,9.3,18.0,5.6,15.8,0.2,0.0,0.0,0.0,0.0,94.9
Conquista,291360601A,Ilhéus,Ilhéus (Conquista) - 291360601A,-14.797,-39.046,Sul,RPGA do Leste,0.6,5.7,0.2,0.0,3.6,0.0,0.0,0.0,0.0,0.0,3.6,47.4,11.8,0.0,0.0,0.0,0.0,19.3,47.2,11.1,9.9,10.6,23.4,11.8,0.0,0.0,0.0,0.0,0.0,0.0,206.3
Malhado,291360602A,Ilhéus,Ilhéus (Malhado) - 291360602A,-14.789,-39.049,Sul,RPGA do Leste,1.2,3.2,0.0,0.0,3.6,0.2,0.0,0.0,0.0,0.0,3.8,49.2,10.2,0.4,0.0,0.0,0.0,17.0,50.4,9.6,8.1,6.7,28.8,6.9,0.0,0.0,0.0,0.0,0.0,0.0,199.1
São Caetano,291480202A,Itabuna,Itabuna (São Caetano) - 291480202A,-14.806,-39.278,Sul,RPGA do Leste,0.4,0.6,0.2,0.0,2.6,2.2,0.2,0.0,0.0,0.0,0.6,6.1,7.1,0.2,8.1,0.2,3.9,13.4,11.6,13.6,2.6,2.6,7.7,2.6,0.0,0.0,0.0,0.0,0.0,0.0,86.5
Nova Ferradas,291480203A,Itabuna,Itabuna (Nova Ferradas) - 291480203A,-14.857,-39.347,Sul,RPGA do Leste,0.2,0.0,0.0,0.0,0.2,9.6,0.0,0.0,0.0,0.0,0.0,1.8,3.2,0.4,0.0,0.0,0.4,7.1,10.4,5.1,4.1,5.3,6.8,2.4,0.8,0.0,0.0,0.0,0.0,0.0,57.9
Planalto I,292110401A,Medeiros Neto,Medeiros Neto (Planalto I) - 292110401A,-17.365,-40.223,Sul,"RPGA dos Rios Peruípe, Itanhém e Jucuruçu",0.0,0.0,0.0,19.8,0.0,0.0,0.0,5.8,9.7,0.2,0.0,0.0,0.0,0.0,0.0,2.8,7.8,1.4,0.4,1.4,1.8,3.6,0.4,2.8,0.0,0.2,0.2,0.0,0.2,0.0,58.6
Centro,292300102A,Nova Viçosa,Nova Viçosa (Centro) - 292300102A,-17.893,-39.372,Sul,"RPGA dos Rios Peruípe, Itanhém e Jucuruçu",0.0,0.0,0.0,9.9,0.0,0.0,0.0,26.6,13.4,0.2,0.0,0.0,0.0,0.0,0.0,1.2,3.6,0.0,0.0,2.4,0.0,1.8,5.7,0.0,0.0,0.0,0.0,0.0,0.0,0.6,65.3
Posto da Mata,292300103A,Nova Viçosa,Nova Viçosa (Posto da Mata) - 292300103A,-17.896,-39.37,Sul,"RPGA dos Rios Peruípe, Itanhém e Jucuruçu",0.0,0.0,0.0,9.5,0.0,0.0,0.0,29.3,14.6,0.0,0.0,0.0,0.0,0.0,0.0,1.2,4.5,0.0,0.0,2.6,0.0,2.6,5.9,0.0,0.0,0.0,0.0,0.0,0.0,0.2,70.3
Areião,292530301A,Porto Seguro,Porto Seguro (Areião) - 292530301A,-16.441,-39.076,Sul,"RPGA dos Rios dos Frades, Buranhém e Santo Antônio",0.0,0.0,0.0,20.7,0.4,0.0,0.0,6.1,3.6,0.2,1.0,1.2,1.2,0.2,0.0,0.0,25.2,12.8,0.0,4.5,4.3,29.1,7.9,2.8,8.5,0.0,0.0,0.0,0.0,2.6,132.2
Paraguai,292530302A,Porto Seguro,Porto Seguro (Paraguai) - 292530302A,-16.41,-39.08,Sul,"RPGA dos Rios dos Frades, Buranhém e Santo Antônio",1.4,1.6,1.0,1.4,1.2,1.0,1.0,0.6,1.0,1.0,0.6,0.8,0.8,1.0,0.6,0.8,1.0,1.0,1.2,1.0,1.0,1.0,0.8,1.2,1.0,1.0,0.6,0.8,0.6,0.8,28.8
BR367km4,292770501A,Santa Cruz Cabrália,Santa Cruz Cabrália (BR367km4) - 292770501A,-16.321,-39.023,Sul,"RPGA dos Rios dos Frades, Buranhém e Santo Antônio",0.0,0.0,0.0,47.6,0.0,0.0,0.0,8.5,3.8,0.0,1.8,7.7,3.3,0.2,0.0,0.0,6.5,33.5,8.5,8.1,7.1,9.5,20.1,6.9,5.3,0.4,0.0,0.0,0.0,3.0,181.6
Estádio Municipal,291530401A,Itagimirim,Itagimirim (Estádio Municipal) - 291530401A,-16.089,-39.616,Sul,RPGA do Rio Jequitinhonha,0.0,0.0,0.2,0.0,0.0,0.0,0.0,0.0,5.9,0.0,0.0,0.0,0.4,0.8,0.0,0.0,2.4,3.8,0.0,0.0,4.0,0.8,2.6,0.8,7.5,0.0,17.1,0.2,0.0,0.0,46.5
Jusante,54945000,Itapebi,Itapebi (Jusante) - 54945000,-15.949,-39.523,Sul,RPGA do Rio Jequitinhonha,0.0,0.0,0.0,0.0,0.0,0.0,4.2,0.0,6.6,0.0,0.0,0.2,0.6,1.8,0.0,0.0,0.0,4.4,4.0,5.6,8.4,2.4,7.8,0.6,0.0,0.6,17.6,0.0,0.0,0.2,65.0
Morpará,46360000,Morpará,Morpará - 46360000,-11.558,-43.282,São Francisco,RPGA dos Rios Paramirim e Santo Onofre,0.0,0.0,0.0,0.0,0.0,0.0,0.0,0.0,0.0,0.0,0.0,0.0,0.0,0.0,0.0,0.0,0.0,0.0,0.0,0.0,0.0,0.0,0.0,0.0,0.0,0.0,0.0,0.0,0.0,0.0,0.0
Bom Jesus da Lapa,A418,Bom Jesus da Lapa,Bom Jesus da Lapa - A418,-13.251,-43.405,São Francisco,RPGA do Rio Carnaíba de Dentro,0.0,0.0,0.0,0.0,0.0,0.0,0.0,0.0,0.0,0.0,0.0,0.0,0.0,0.0,0.0,0.0,59.4,0.0,0.0,0.0,0.0,0.0,0.0,0.0,0.0,0.0,5.0,0.0,0.0,0.0,64.4
Pilão Arcado,A449,Pilão Arcado,Pilão Arcado - A449,-10.004,-42.475,São Francisco,RPGA do Lago de Sobradinho,0.0,0.0,0.0,0.0,0.0,0.0,0.0,0.0,0.0,0.0,0.0,0.0,0.0,0.0,0.0,0.0,0.0,0.0,0.0,0.0,0.0,0.0,0.0,0.0,0.0,0.0,9.4,0.0,0.0,0.0,9.4
Santa Rita de Cássia,83076,Santa Rita de Cássia,Santa Rita de Cássia - 83076,-11.017,-44.517,São Francisco,RPGA do Rio Grande,0.0,0.0,0.0,0.0,0.0,0.0,0.0,0.0,0.0,5.4,0.0,0.0,0.0,0.0,0.0,0.0,0.0,0.0,0.0,0.0,0.0,0.0,0.0,0.0,0.0,0.0,1.0,0.0,0.0,0.0,6.4
Guanambí,A426,Guanambí,Guanambí - A426,-14.208,-42.75,São Francisco,RPGA do Rio Carnaíba de Dentro,0.0,0.0,0.0,0.0,0.0,0.0,0.0,0.0,1.2,0.0,0.0,0.0,0.0,0.0,0.0,0.0,0.0,0.2,0.0,0.0,0.0,0.0,0.0,0.0,0.0,0.0,0.0,0.0,0.0,0.0,1.4
Barra,A429,Barra,Barra - A429,-11.085,-43.139,São Francisco,RPGA do Rio Grande,0.0,0.0,0.0,0.0,0.0,0.0,0.0,0.0,0.0,0.2,0.0,0.0,4.8,0.0,0.0,0.0,0.0,0.0,5.6,0.8,0.0,0.0,0.0,0.0,0.0,0.0,0.0,0.0,0.2,0.0,11.6
Ibotirama,A439,Ibotirama,Ibotirama - A439,-12.193,-43.213,São Francisco,RPGA dos Rios Paramirim e Santo Onofre,0.0,0.0,0.0,0.0,0.0,0.0,0.0,0.0,0.0,0.0,0.0,0.0,0.0,0.0,0.0,0.0,0.0,0.0,0.0,0.0,0.0,0.0,0.0,0.0,0.0,0.0,0.0,0.0,0.0,0.0,0.0
Macaúbas,PM-CL-02,Macaúbas,Macaúbas - PM-CL-02,-13.08,-42.696,São Francisco,RPGA dos Rios Paramirim e Santo Onofre,0.0,0.0,0.0,0.0,0.0,0.0,0.0,0.0,6.2,0.0,0.0,0.0,3.0,0.0,0.0,0.0,0.0,1.6,0.0,0.0,0.0,0.0,0.0,0.0,0.0,0.0,0.0,0.0,0.0,0.0,10.8
Faz. Macambira,46675000,Cotegipe,Cotegipe (Faz. Macambira) - 46675000,-11.611,-44.157,São Francisco,RPGA do Rio Grande,0.0,0.0,0.0,0.0,0.0,0.0,0.0,0.0,0.0,0.0,0.0,0.0,0.0,0.0,0.0,0.0,0.0,0.0,0.0,0.0,0.0,0.0,0.0,0.0,0.0,0.0,2.8,0.0,0.0,0.0,2.8
Bom Jesus da Lapa,45480000,Bom Jesus da Lapa,Bom Jesus da Lapa - 45480000,-13.257,-43.435,São Francisco,"RPGA do Rio Corrente e Riachos do Ramalho, Serra Dourada e Brejo Velho",0.0,0.0,0.0,0.0,0.0,0.0,0.0,0.0,1.6,0.0,0.0,0.0,0.0,0.0,0.0,0.0,44.2,0.2,0.0,0.0,0.0,0.0,0.0,0.0,0.0,0.0,0.6,0.0,0.0,0.0,46.6
Boqueirão,46902000,Mansidão,Mansidão (Boqueirão) - 46902000,-11.345,-43.826,São Francisco,RPGA do Rio Grande,0.0,0.0,0.0,0.0,2.2,0.0,0.0,0.0,0.0,0.0,0.0,0.0,0.0,0.0,0.0,0.0,0.0,0.0,0.0,0.0,0.0,0.0,0.0,0.0,0.0,0.0,0.4,0.0,0.0,0.0,2.6
Volta da Serra,CD-CL-02,Paratinga,Paratinga (Volta da Serra) - CD-CL-02,-12.576,-43.128,São Francisco,RPGA do Rio Carnaíba de Dentro,0.0,0.0,0.0,0.0,0.0,0.0,0.0,0.0,0.0,0.0,0.0,0.0,0.0,0.0,0.0,0.0,3.2,1.4,0.0,0.0,0.0,0.0,0.0,0.0,0.0,0.4,0.0,0.4,0.0,0.0,5.4
Xique-Xique,PM-CL-05,Xique-Xique,Xique-Xique - PM-CL-05,-10.825,-42.689,São Francisco,RPGA dos Rios Paramirim e Santo Onofre,0.0,0.0,0.0,0.0,0.0,0.0,0.0,0.0,0.0,0.0,0.0,0.0,0.0,0.0,0.0,0.0,0.0,0.0,0.0,0.0,0.0,0.0,0.0,0.0,0.0,0.0,0.6,0.0,0.0,0.0,0.6
Boquira,290410001C,Boquira,Boquira - 290410001C,-12.81,-42.718,São Francisco,RPGA dos Rios Paramirim e Santo Onofre,0.0,0.0,0.0,0.0,0.0,0.0,0.0,0.0,0.6,0.0,0.0,0.0,0.0,1.0,0.0,0.0,0.0,0.0,2.8,0.0,0.0,0.0,0.0,0.0,7.6,0.0,0.0,0.0,0.0,0.0,12.0
Licínio de Almeida,291940501C,Licínio de Almeida,Licínio de Almeida - 291940501C,-14.689,-42.503,São Francisco,RPGA do Rio de Contas,0.0,0.0,0.0,0.0,0.0,0.0,0.0,0.0,17.0,0.0,0.0,0.0,3.6,0.0,0.0,0.0,2.6,0.2,0.0,0.0,0.0,0.0,0.0,0.0,0.0,1.4,2.4,0.0,0.0,0.0,27.2
