nome_estacao,codigo,municipio,estacao,latitude,longitude,regiao,rpga,01_11_20,02_11_20,03_11_20,04_11_20,05_11_20,06_11_20,07_11_20,08_11_20,09_11_20,10_11_20,11_11_20,12_11_20,13_11_20,14_11_20,15_11_20,16_11_20,17_11_20,18_11_20,19_11_20,20_11_20,21_11_20,22_11_20,23_11_20,24_11_20,25_11_20,26_11_20,27_11_20,28_11_20,29_11_20,30_11_20,total
Lençóis,83242,Lençóis,Lençóis - 83242,-12.5575,-41.388889,Chapada Diamantina,RPGA do Rio Paraguaçu,23.3,12.6,44.4,35.0,19.8,46.8,4.9,0.0,0.0,0.0,0.0,0.1,0.0,0.0,0.0,0.0,0.2,0.0,24.0,33.1,6.0,30.4,0.5,0.0,1.8,7.0,1.5,6.1,1.2,9.4,308.1
Piatã,A430,Piatã,Piatã - A430,-13.155681,-41.774125,Chapada Diamantina,RPGA do Rio de Contas,46.8,48.4,53.6,8.4,10.6,12.8,3.4,0.2,0.0,0.0,0.0,0.0,0.0,0.0,0.0,1.4,1.2,10.0,0.0,25.2,1.0,53.4,0.2,1.4,2.0,8.8,3.0,0.4,0.2,0.0,292.4
Livramento de Nossa Senhora,291950401U,Livramento de Nossa Senhora,Livramento de Nossa Senhora - 291950401U,-13.682872,-41.841236,Chapada Diamantina,RPGA do Rio de Contas,10.0,47.4,26.8,14.2,42.0,89.0,38.6,0.0,0.0,0.0,0.0,0.0,0.0,0.0,0.0,0.0,0.0,15.4,2.6,23.2,1.4,10.2,7.4,0.0,0.0,0.0,1.8,0.0,0.0,0.0,330.0
Lençóis,A425,Lençóis,Lençóis - A425,-12.557854,-41.388808,Chapada Diamantina,RPGA do Rio Paraguaçu,22.0,13.4,52.8,32.8,19.0,45.4,4.6,0.0,0.0,0.0,0.0,0.0,0.0,0.0,0.0,0.0,0.0,0.0,24.0,34.2,5.8,28.4,0.4,0.0,2.0,6.8,1.6,6.2,1.4,9.0,309.8
Lagoa Bonita,PG-PR-15,Iacú,Iacú (Lagoa Bonita) - PG-PR-15,-12.931506,-40.226468,Chapada Diamantina,RPGA do Rio Paraguaçu,2.2,0.4,13.6,0.8,4.2,0.8,0.0,0.2,0.2,0.0,0.6,0.0,0.0,0.0,0.0,0.0,0.0,0.0,0.0,25.4,1.2,7.6,0.0,0.0,1.4,0.4,2.4,12.0,0.0,0.0,73.4
João Amaro,PG-PR-16,Iaçu,Iaçu (João Amaro) - PG-PR-16,-12.800391,-40.363139,Chapada Diamantina,RPGA do Rio Paraguaçu,6.0,0.8,38.0,5.0,0.2,0.2,0.0,0.0,2.2,0.0,4.0,0.0,0.0,0.0,0.0,0.0,0.0,0.0,0.0,16.4,0.6,21.4,0.0,0.0,0.2,2.0,0.0,0.8,0.6,1.8,100.2
Guiné,PG-PR-24,Mucugê,Mucugê (Guiné) - PG-PR-24,-12.771772,-41.540679,Chapada Diamantina,RPGA do Rio Paraguaçu,0.2,5.0,53.8,10.4,3.0,2.0,1.8,0.2,0.0,0.0,0.0,0.0,0.0,0.0,0.0,0.0,0.6,7.2,23.8,6.6,36.0,67.6,0.0,0.0,3.4,1.6,6.2,0.0,0.0,3.8,233.2
Machado Portela,PG-PR-26,Marcionílio Souza,Marcionílio Souza (Machado Portela) - PG-PR-26,-13.153732,-40.768155,Chapada Diamantina,RPGA do Rio Paraguaçu,43.2,8.8,90.1,2.2,15.6,8.2,0.0,0.0,0.2,0.0,0.0,0.0,0.0,0.0,0.0,0.0,0.0,0.0,0.0,10.4,20.8,15.0,0.0,0.0,0.6,5.0,2.8,5.2,0.0,0.0,228.1
Rio do Pires,PM-CL-04,Rio do Pires,Rio do Pires - PM-CL-04,-13.11695,-42.28411,Chapada Diamantina,RPGA dos Rios Paramirim e Santo Onofre,32.4,69.2,55.6,16.2,10.6,7.2,0.2,0.0,0.0,0.0,0.0,0.0,0.0,0.0,0.0,0.0,0.0,0.0,0.8,26.0,8.4,5.0,0.0,0.0,0.0,0.0,0.0,0.0,0.0,0.0,231.6
Iaçu,PG-CL-05,Iaçu,Iaçu - PG-CL-05,-12.9114,-40.03177,Chapada Diamantina,RPGA do Rio Paraguaçu,6.0,4.2,9.4,2.2,0.8,11.6,0.0,0.8,0.0,0.0,0.2,0.0,0.0,0.0,0.0,0.0,0.0,0.0,0.0,32.2,2.6,3.2,0.0,0.0,0.6,1.6,1.6,1.2,0.2,0.0,78.4
Ibiaporã,PG-CL-01,Mundo Novo,Mundo Novo (Ibiaporã) - PG-CL-01,-12.05379,-40.83722,Chapada Diamantina,RPGA do Rio Paraguaçu,1.6,0.2,2.0,0.0,0.4,0.2,0.0,0.0,0.0,0.0,0.0,0.0,0.0,0.0,0.0,0.0,0.0,0.0,0.0,35.0,5.8,0.0,0.0,0.0,0.2,0.0,0.0,0.0,0.0,0.0,45.4
Marcionílio Souza,PG-CL-03,Marcionílio Souza,Marcionílio Souza - PG-CL-03,-13.00021,-40.537783,Chapada Diamantina,RPGA do Rio Paraguaçu,29.8,8.0,66.2,1.8,14.8,2.4,0.0,0.0,0.4,0.0,0.0,0.0,0.0,0.0,0.0,0.0,0.0,0.0,0.0,6.6,1.8,13.2,0.0,0.0,1.0,3.0,1.6,15.2,1.8,0.0,167.6
Baixa Grande,PG-PR-08,Baixa Grande,Baixa Grande - PG-PR-08,-11.908701,-40.183683,Chapada Diamantina,RPGA do Rio Paraguaçu,0.0,22.2,13.6,0.0,3.2,0.0,0.0,0.0,0.0,0.0,0.2,0.0,0.0,0.2,0.0,0.0,0.0,0.0,8.8,47.2,3.8,9.2,0.0,0.0,0.4,2.2,14.6,1.0,1.0,5.0,132.61
Ventura,PG-PR-10,Morro do Chapéu,Morro do Chapéu (Ventura) - PG-PR-10,-11.650911,-40.951765,Chapada Diamantina,RPGA do Rio Paraguaçu,38.0,16.0,19.2,1.0,2.4,0.0,0.2,0.0,0.0,0.0,0.0,0.0,0.0,0.0,0.0,0.0,0.0,13.0,0.0,29.4,13.2,7.0,3.6,0.0,0.4,0.2,1.6,0.4,1.0,2.4,149.0
Bonito,PG-PR-11,Bonito,Bonito - PG-PR-11,-11.98993,-41.25429,Chapada Diamantina,RPGA do Rio Paraguaçu,1.4,29.2,10.4,13.0,32.4,2.2,0.4,0.0,0.0,0.0,0.0,0.0,0.0,0.0,0.0,0.0,0.0,5.4,0.2,9.2,10.4,42.2,7.2,0.0,2.8,2.4,3.0,1.4,7.6,9.2,190.01
Piatã,CO-CL-04,Piatã,Piatã - CO-CL-04,-13.164166,-41.770833,Chapada Diamantina,RPGA do Rio de Contas,72.0,59.0,47.5,10.75,9.5,6.5,2.25,0.0,0.0,0.0,0.0,0.0,0.0,0.0,0.0,1.5,1.25,27.25,0.0,28.25,1.25,47.0,0.0,2.5,2.25,6.25,6.5,0.25,0.5,0.0,332.25
Centro,291900901A,Lajedinho,Lajedinho (Centro) - 291900901A,-12.35585,-40.90228,Chapada Diamantina,RPGA do Rio Paraguaçu,41.2,9.8,17.4,0.8,9.4,0.6,0.2,1.0,0.0,0.0,0.2,0.0,0.0,0.0,0.0,0.0,0.0,0.2,0.0,73.6,12.0,54.2,0.6,0.0,0.0,1.8,2.6,2.0,4.0,4.0,235.61
PC Ponte Rio Capivari,51326200,Itaberaba,Itaberaba (PC Ponte Rio Capivari) - 51326200,-12.51429,-39.93422,Chapada Diamantina,RPGA do Rio Paraguaçu,2.0,4.4,18.8,0.4,0.0,4.0,0.0,0.4,0.0,0.0,0.0,0.0,0.0,0.0,0.0,0.0,0.0,0.0,0.0,58.0,3.2,19.6,0.0,0.0,2.4,0.0,0.4,0.2,1.6,1.4,116.81
Fazenda Terra Grapiúna,PG-FR-04,Wagner,Wagner (Fazenda Terra Grapiúna) - PG-FR-04,-12.181482,-41.150663,Chapada Diamantina,RPGA do Rio Paraguaçu,78.8,10.4,30.0,10.8,24.2,1.0,0.0,0.0,0.0,0.0,0.0,0.2,0.0,0.0,0.0,0.0,0.0,0.2,0.6,66.6,15.8,5.2,0.6,0.0,0.0,2.2,0.0,14.2,3.4,3.0,267.2
Itaberaba,291470301C,Itaberaba,Itaberaba - 291470301C,-12.457663,-40.201519,Chapada Diamantina,RPGA do Rio Paraguaçu,20.8,14.4,4.0,7.8,2.8,3.4,0.0,0.0,0.0,0.0,0.4,0.0,0.0,0.0,0.0,0.0,0.0,0.0,0.0,20.6,0.2,36.0,0.0,0.0,0.4,1.0,3.2,0.4,1.6,1.8,118.8
Utinga,293280401C,Utinga,Utinga - 293280401C,-12.0756,-41.102466,Chapada Diamantina,RPGA do Rio Paraguaçu,39.6,9.0,0.6,1.8,0.4,0.6,0.0,0.0,0.0,0.0,0.0,0.0,0.0,0.0,0.0,0.0,0.0,0.0,0.0,71.8,0.4,0.4,0.2,0.0,0.0,0.0,0.0,0.2,1.0,4.2,130.21
Barro Alto,290323501C,Barro Alto,Barro Alto - 290323501C,-11.811728,-41.901164,Chapada Diamantina,RPGA dos Rios Verde e Jacaré,2.4,7.2,70.0,16.4,0.0,0.0,0.0,0.0,0.0,0.0,0.0,0.0,0.0,0.0,0.0,0.0,0.0,0.0,0.6,22.6,12.0,10.0,0.0,0.0,0.0,0.0,0.0,0.0,0.0,0.2,141.4
Chorrochó,290770701C,Chorrochó,Chorrochó - 290770701C,-8.98354,-39.11837,Nordeste,RPGA dos Rios Macururé e Curaçá,0.0,27.2,49.0,0.0,0.0,0.0,0.0,0.0,0.0,2.0,0.0,0.0,0.0,0.0,0.0,0.0,0.0,0.0,0.0,0.0,1.8,0.0,0.0,0.0,0.0,0.0,0.0,0.0,0.0,0.0,80.0
Ladeira Vermelha,291750801A,Jacobina,Jacobina (Ladeira Vermelha) - 291750801A,-11.161707,-40.554213,Nordeste,RPGA do Rio Itapicuru,15.8,3.4,49.8,0.6,1.0,0.2,0.0,0.4,0.0,0.0,1.0,0.0,0.0,0.0,0.0,0.0,0.0,0.0,0.0,46.6,0.6,31.0,0.0,0.0,0.2,0.8,4.2,0.0,2.0,0.8,158.4
Feliz Tomaz,291750802A,Jacobina,Jacobina (Feliz Tomaz) - 291750802A,-11.174316,-40.517837,Nordeste,RPGA do Rio Itapicuru,9.8,31.0,26.4,1.0,3.6,1.2,0.6,0.6,0.2,0.0,1.4,0.2,0.0,0.0,0.0,0.0,0.0,0.0,0.0,70.4,1.6,38.0,0.8,2.2,0.0,2.8,9.6,0.4,2.0,4.4,208.2
Conde,A431,Conde,Conde - A431,-12.03622,-37.68322,Nordeste,RPGA do Rio Itapicuru,0.0,0.0,1.6,2.2,6.8,2.2,0.0,1.6,0.0,0.0,1.8,4.8,0.0,0.0,0.0,0.0,0.0,0.0,0.0,0.2,0.2,0.4,1.4,0.8,8.0,3.4,3.2,1.0,6.2,19.4,65.2
Uauá,A435,Uauá,Uauá - A435,-9.833617,-39.495631,Nordeste,RPGA do Rio Vaza-Barris,0.0,26.2,6.6,0.0,16.0,0.0,0.0,0.0,0.0,0.0,0.0,0.0,0.0,0.0,0.0,0.0,0.0,0.0,0.0,3.4,0.4,0.2,0.2,0.0,0.2,0.0,0.0,0.0,0.0,0.0,53.2
Euclides da Cunha,A442,Euclides da Cunha,Euclides da Cunha - A442,-10.537233,-38.996605,Nordeste,RPGA do Rio Itapicuru,0.0,10.4,17.2,11.6,0.4,0.0,0.0,0.2,0.0,0.0,0.0,0.0,0.0,0.0,0.0,0.0,0.0,0.0,0.0,85.2,18.6,11.4,0.0,1.0,1.8,2.4,3.8,0.0,1.2,0.2,165.4
Senhor do Bonfim,A428,Senhor do Bonfim,Senhor do Bonfim - A428,-10.443072,-40.148244,Nordeste,RPGA do Rio Itapicuru,0.0,38.2,66.2,0.0,9.4,0.0,0.0,0.0,0.0,0.0,0.0,0.0,0.0,0.0,0.0,0.0,0.0,0.0,0.0,25.8,0.0,5.6,0.0,0.0,0.0,0.0,0.0,0.0,1.2,0.2,146.6
Pedras Altas,50430000,Capim Grosso,Capim Grosso (Pedras Altas) - 50430000,-11.18288,-40.04725,Nordeste,RPGA do Rio Itapicuru,0.0,16.0,27.8,0.0,1.2,0.6,0.0,1.0,0.0,0.0,0.0,0.0,0.0,0.0,0.0,0.0,0.0,0.0,0.0,8.8,0.0,8.6,0.0,0.0,0.0,0.6,4.2,0.2,2.0,1.6,72.6
Ponto Novo,50380000,Ponto Novo,Ponto Novo - 50380000,-10.845,-40.1128,Nordeste,RPGA do Rio Itapicuru,0.0,13.2,41.4,0.8,2.4,0.2,0.0,0.0,0.0,0.0,0.0,0.0,0.0,0.0,0.0,0.0,0.0,0.0,0.0,29.8,0.2,10.0,0.0,0.6,0.0,0.2,0.0,0.4,0.0,0.0,99.2
Capim Grosso,IT-CL-03,Capim Grosso,Capim Grosso - IT-CL-03,-11.36833,-40.03417,Nordeste,RPGA do Rio Itapicuru,0.4,42.2,17.4,0.4,1.4,0.0,0.0,0.0,0.0,0.0,0.2,0.0,0.0,0.0,0.0,0.0,0.0,0.0,0.0,21.6,0.2,14.8,0.0,0.0,1.4,1.6,0.0,1.2,1.8,1.4,106.0
Aporá,IT-CL-01,Aporá,Aporá - IT-CL-01,-11.67082,-38.17485,Nordeste,RPGA do Rio Itapicuru,2.1,18.0,9.2,5.7,4.4,0.1,1.5,0.1,0.6,0.8,3.1,0.0,0.0,0.0,0.5,0.0,5.3,0.0,3.3,36.0,4.7,0.1,0.7,6.0,8.7,6.3,2.8,5.7,8.0,1.3,135.0
Pé de Serra,PG-CL-07,Pé de Serra,Pé de Serra - PG-CL-07,-11.83676,-39.65905,Nordeste,RPGA do Rio Paraguaçu,0.2,42.2,11.8,0.0,0.8,0.0,0.0,0.0,0.0,0.0,0.0,0.0,0.0,0.0,0.0,0.0,0.0,0.0,0.0,12.0,0.2,21.4,0.0,0.0,0.0,0.2,4.6,0.4,0.8,2.2,96.8
Caldas do Jorro,IT-CL-05,Tucano,Tucano (Caldas do Jorro) - IT-CL-05,-11.03477,-38.80386,Nordeste,RPGA do Rio Itapicuru,0.5,10.7,4.5,3.2,2.2,0.0,0.2,0.1,0.3,0.3,0.3,0.0,0.7,0.0,0.0,0.0,6.8,0.0,0.5,18.4,14.8,0.4,0.0,0.5,3.9,1.4,1.7,4.7,9.7,0.1,85.91
Saúde,IT-CL-04,Saúde,Saúde - IT-CL-04,-10.95669,-40.38329,Nordeste,RPGA do Rio Itapicuru,24.2,76.0,23.6,2.2,4.0,0.0,0.0,0.0,0.0,0.0,0.0,0.2,0.0,0.0,0.0,0.0,0.0,0.0,0.0,10.2,4.4,44.8,0.0,0.0,0.0,0.6,0.4,1.4,0.8,0.2,193.0
Lajinha,IT-CL-06,Várzea do Poço,Várzea do Poço (Lajinha) - IT-CL-06,-11.4964,-40.34474,Nordeste,RPGA do Rio Itapicuru,1.8,57.4,18.2,1.6,1.2,0.2,0.0,0.0,0.0,0.0,0.0,0.0,0.4,12.8,0.0,0.0,0.2,0.0,0.0,19.8,5.0,14.8,0.0,0.0,0.0,0.0,0.0,0.0,0.0,3.8,137.21
Itapeipu,IT-PR-34,Jacobina,Jacobina (Itapeipu) - IT-PR-34,-11.315629,-40.356742,Nordeste,RPGA do Rio Itapicuru,3.2,19.6,25.4,3.0,2.6,0.2,0.0,0.0,0.0,0.0,1.2,0.0,0.0,0.0,0.0,0.0,0.2,0.0,0.4,21.0,10.8,20.2,0.0,0.0,0.0,2.4,0.0,2.8,0.8,2.8,116.61
Tombador Araújo,IT-PR-36,Jacobina,Jacobina (Tombador Araújo) - IT-PR-36,-11.168677,-40.670642,Nordeste,RPGA do Rio Itapicuru,18.6,8.0,57.6,2.2,0.0,0.0,0.0,0.0,0.0,0.0,1.2,0.0,0.0,0.0,0.0,0.0,0.0,0.0,0.2,15.0,0.2,2.0,0.2,0.0,0.0,1.2,2.4,0.0,0.8,0.0,109.61
Carrapichel,IT-PR-37,Senhor do Bonfim,Senhor do Bonfim (Carrapichel) - IT-PR-37,-10.388101,-40.220067,Nordeste,RPGA do Rio Itapicuru,0.0,27.6,36.4,0.4,13.2,0.0,0.0,75.4,0.0,0.0,0.0,0.0,0.0,0.0,0.0,0.0,0.0,0.0,0.0,12.8,0.0,5.2,0.0,0.2,0.0,0.0,0.0,0.2,3.0,1.6,176.0
Santaluz,IT-PR-17,Santaluz,Santaluz - IT-PR-17,-11.24831,-39.37563,Nordeste,RPGA do Rio Itapicuru,0.0,8.4,2.0,0.0,5.0,0.0,0.0,0.0,0.0,0.0,0.0,0.0,0.0,0.0,0.0,0.0,0.0,0.0,0.0,58.2,0.4,21.0,0.0,0.0,0.0,0.0,0.0,0.0,9.8,0.6,105.4
Fazenda Boa Vista,IT-PR-18,Uauá,Uauá (Fazenda Boa Vista) - IT-PR-18,-10.05893,-39.706158,Nordeste,RPGA do Rio Itapicuru,0.0,52.6,44.6,2.0,33.4,0.0,0.0,0.0,0.0,0.0,0.0,0.0,0.0,0.0,0.0,0.0,0.0,0.0,0.0,3.2,50.0,8.4,0.0,0.0,0.2,0.0,0.8,0.4,0.0,0.0,195.6
Quijingue,IT-PR-25,Quijingue,Quijingue - IT-PR-25,-10.783951,-39.20809,Nordeste,RPGA do Rio Itapicuru,0.2,5.0,13.6,2.0,5.6,0.6,0.0,0.2,0.2,0.0,0.0,0.0,0.0,0.4,0.0,0.0,0.2,0.0,0.0,27.0,3.2,18.2,0.0,0.6,0.0,0.2,0.2,0.4,1.0,0.4,79.21
Inhambupe,RN-CL-10,Inhambupe,Inhambupe - RN-CL-10,-11.69267,-38.31361,Nordeste,RPGA do Recôncavo Norte,0.0,0.0,43.4,1.2,30.0,0.0,0.0,2.6,0.2,0.0,0.0,0.2,0.0,0.0,0.2,0.0,0.0,0.0,0.0,4.8,0.0,0.0,0.0,0.2,0.6,0.4,23.8,0.2,7.4,10.4,125.61
Curral Falso,IT-PR-01,Ribeira do Pombal,Ribeira do Pombal (Curral Falso) - IT-PR-01,-10.697843,-38.5714,Nordeste,RPGA do Rio Itapicuru,0.0,9.0,21.6,0.4,12.2,0.0,0.2,0.0,0.0,0.0,0.0,0.0,0.0,0.0,0.0,0.0,0.0,0.0,0.0,15.6,0.2,4.2,0.0,0.8,0.0,0.0,1.8,0.4,0.4,2.0,68.81
Ribeira do Pombal,IT-PR-04,Ribeira do Pombal,Ribeira do Pombal - IT-PR-04,-10.823399,-38.545844,Nordeste,RPGA do Rio Itapicuru,0.0,4.4,24.4,1.4,6.0,0.0,0.0,0.0,0.0,0.0,0.0,0.0,0.0,0.0,0.0,0.0,0.0,0.0,0.0,24.2,0.0,1.0,0.0,2.2,2.6,0.0,0.2,0.2,6.2,1.2,74.0
Crisópolis,IT-PR-08,Crisópolis,Crisópolis - IT-PR-08,-11.510923,-38.120832,Nordeste,RPGA do Rio Itapicuru,0.0,0.0,4.4,2.0,92.6,0.2,0.2,0.2,0.0,0.2,0.2,0.0,0.0,0.0,0.0,0.0,0.0,0.0,0.0,0.0,0.0,0.0,0.0,0.0,1.0,0.4,9.6,2.8,4.6,10.8,129.21
Estação Experimental,IT-PR-10,Nova Soure,Nova Soure (Estação Experimental) - IT-PR-10,-11.3083,-38.5361,Nordeste,RPGA do Rio Itapicuru,0.0,1.2,3.0,0.4,22.0,12.8,0.2,0.0,0.0,0.2,0.0,0.0,0.0,0.0,0.0,0.0,0.0,0.0,0.0,10.2,0.0,0.0,0.0,0.0,3.6,0.0,0.6,0.2,2.4,2.8,59.61
Boa Hora,IT-PR-13,Ribeira do Amparo,Ribeira do Amparo (Boa Hora) - IT-PR-13,-10.965,-38.5234,Nordeste,RPGA do Rio Itapicuru,0.0,2.6,6.4,1.6,3.6,0.0,0.4,0.0,0.0,0.0,0.0,0.0,0.0,0.0,0.0,0.0,0.0,0.0,0.0,33.4,0.0,0.0,0.0,0.0,0.2,0.0,0.0,0.2,8.2,1.2,57.81
Jeremoabo,A450,Jeremoabo,Jeremoabo - A450,-10.0807,-38.3459,Nordeste,RPGA do Rio Vaza-Barris,1.4,4.4,90.0,0.2,0.2,0.0,0.0,0.0,0.6,0.8,0.6,0.0,0.0,0.0,0.0,0.0,0.0,0.0,0.0,11.4,0.2,2.4,0.0,0.0,0.0,0.0,0.0,0.0,0.8,0.6,113.6
Fazenda Alecrim ,IT-FR-21,Filadélfia,Filadélfia (Fazenda Alecrim ) - IT-FR-21,-10.7522,-40.22444,Nordeste,RPGA do Rio Itapicuru,14.0,69.2,38.8,1.6,10.0,0.0,0.0,0.2,0.0,0.0,0.0,0.0,0.0,0.0,0.0,0.0,0.0,0.0,0.0,7.0,0.0,2.2,0.0,0.0,0.0,0.0,0.0,0.4,0.2,0.0,143.6
Queimadas,IT-FR-26,Queimadas,Queimadas - IT-FR-26,-10.9733,-39.6328,Nordeste,RPGA do Rio Itapicuru,2.2,11.4,25.2,0.0,0.2,0.0,0.0,0.0,0.0,0.0,0.0,0.0,0.0,0.0,0.0,0.0,0.0,0.0,0.0,23.8,0.8,3.6,0.0,0.0,0.0,0.0,0.0,0.0,5.6,0.0,72.8
Quixabeira,292593101C,Quixabeira,Quixabeira - 292593101C,-11.37282,-40.12878,Nordeste,RPGA do Rio Itapicuru,3.6,65.2,32.2,0.0,5.6,0.0,0.0,0.0,0.0,0.0,0.0,0.0,0.0,0.0,0.0,0.0,0.0,0.0,0.0,33.6,0.6,0.0,0.0,0.0,0.4,0.2,0.0,0.2,0.0,0.4,142.0
Itaberaba,291840701A,Juazeiro,Juazeiro (Itaberaba) - 291840701A,-9.44837,-40.48517,Norte,RPGA dos Rios Macururé e Curaçá,0.4,38.2,65.2,6.6,34.6,0.0,0.0,0.0,0.0,0.0,0.0,0.0,0.0,0.0,0.0,0.0,0.0,0.0,3.4,8.0,0.2,0.0,0.0,0.0,0.0,0.0,0.0,0.0,0.0,0.0,156.6
Maria Gorete,291840703A,Juazeiro,Juazeiro (Maria Gorete) - 291840703A,-9.42014,-40.49909,Norte,RPGA dos Rios Macururé e Curaçá,1.0,39.6,58.2,5.6,33.6,0.0,0.0,0.0,0.0,0.0,0.0,0.0,0.0,0.0,0.0,0.0,0.0,0.0,5.6,7.4,0.4,0.2,0.0,0.0,0.0,0.0,0.0,0.0,0.0,0.0,151.6
João Paulo II,291840704A,Juazeiro,Juazeiro (João Paulo II) - 291840704A,-9.47067,-40.49805,Norte,RPGA dos Rios Macururé e Curaçá,1.8,43.6,44.4,4.4,26.2,0.0,0.0,0.0,0.0,0.0,0.0,0.0,0.0,0.0,0.0,0.0,0.0,0.0,5.2,8.0,0.4,0.2,0.0,0.0,0.0,0.0,0.0,0.0,0.0,0.0,134.21
Lapão,291915701A,Lapão,Lapão - 291915701A,-11.38,-41.83,Norte,RPGA dos Rios Verde e Jacaré,0.0,5.4,147.8,54.0,3.2,0.0,0.0,0.0,0.0,0.0,0.0,0.0,0.0,0.0,0.0,0.0,0.0,0.0,0.6,10.8,1.8,2.8,0.0,0.0,0.0,0.0,0.0,0.0,0.0,0.0,226.41
Centro,290115501A,América Dourada,América Dourada (Centro) - 290115501A,-11.45011,-41.434004,Norte,RPGA dos Rios Verde e Jacaré,2.2,15.2,60.6,9.0,28.0,5.4,0.0,0.0,0.0,0.0,0.0,0.0,0.0,0.0,0.0,0.0,0.0,0.0,3.2,6.4,0.0,33.0,0.2,0.0,0.0,0.0,0.0,0.0,0.4,0.0,163.6
Irecê,A424,Irecê,Irecê - A424,-11.328998,-41.864504,Norte,RPGA dos Rios Verde e Jacaré,0.0,10.4,138.4,82.0,2.6,0.0,0.0,0.0,0.0,0.0,0.0,0.0,0.0,0.0,0.0,0.0,0.0,0.0,0.8,38.0,2.6,2.6,0.0,0.0,0.0,0.0,0.0,0.0,0.0,1.6,279.01
Várzea Nova,SA-CL-02,Várzea Nova,Várzea Nova - SA-CL-02,-11.23996,-40.935618,Norte,RPGA do Rio Salitre,14.6,15.6,40.4,3.2,5.4,1.6,0.0,0.0,0.0,0.0,0.2,0.0,0.0,0.0,0.0,0.0,0.0,0.0,58.2,56.0,1.6,2.2,0.0,0.0,0.4,0.0,17.2,10.2,0.0,0.0,226.8
CODEVASF Salitre,MC-CL-01,Juazeiro,Juazeiro (CODEVASF Salitre) - MC-CL-01,-9.48778,-40.61333,Norte,RPGA dos Rios Macururé e Curaçá,0.4,3.3,1.2,16.4,0.2,0.0,0.1,2.1,0.1,0.1,0.4,2.4,0.0,0.0,0.0,0.0,0.0,5.7,2.3,22.0,11.7,0.5,0.0,0.1,0.0,0.8,12.6,1.0,0.0,0.0,83.4
Campo Formoso,IT-CL-02,Campo Formoso,Campo Formoso - IT-CL-02,-10.47062,-40.33412,Norte,RPGA do Rio Itapicuru,0.2,71.6,74.8,0.8,18.8,0.0,0.0,0.2,0.0,0.0,0.0,0.0,0.0,0.0,0.0,0.0,0.0,0.0,0.0,12.6,0.0,5.4,0.0,1.4,0.0,0.2,0.2,0.4,5.2,2.4,194.2
Sento Sé,SO-CL-01,Sento Sé,Sento Sé - SO-CL-01,-9.78228,-41.81872,Norte,RPGA do Lago de Sobradinho,0.0,0.2,12.2,46.0,3.8,0.0,0.0,0.0,0.0,0.0,0.0,0.0,0.0,0.0,0.0,0.0,0.0,0.0,0.0,56.4,0.6,1.8,0.0,0.0,0.0,0.0,0.0,0.0,0.0,0.0,121.0
Itaguaçu da Bahia,VJ-CL-03,Itaguaçu da Bahia,Itaguaçu da Bahia - VJ-CL-03,-10.9549,-42.3465,Norte,RPGA dos Rios Verde e Jacaré,2.1,14.0,14.9,18.7,1.9,21.4,0.4,2.6,0.3,1.1,1.3,12.8,0.0,0.0,0.0,0.0,8.0,0.0,0.0,7.2,19.0,24.6,0.0,0.0,0.0,0.0,0.0,0.0,0.0,0.0,150.3
Juazeiro,48020000,Juazeiro,Juazeiro - 48020000,-9.4064,-40.5036,Norte,RPGA dos Rios Macururé e Curaçá,0.2,46.2,52.4,0.0,47.2,0.0,0.0,0.0,0.0,0.0,0.0,0.0,0.0,0.0,0.0,0.0,0.0,0.0,4.8,8.2,1.2,0.2,0.0,0.0,0.0,0.0,0.0,0.0,0.0,0.0,160.4
Ibipeba,VJ-CL-02,Ibipeba,Ibipeba - VJ-CL-02,-11.62667,-42.06444,Norte,RPGA dos Rios Verde e Jacaré,4.5,12.7,19.3,17.4,1.3,12.7,0.6,4.5,0.7,1.6,2.0,0.0,0.0,0.2,0.0,0.0,6.1,5.7,29.9,28.9,26.0,4.8,0.0,0.4,0.0,0.0,0.0,0.2,0.0,0.0,179.5
Aeródromo,SA-PR-03,Campo Formoso,Campo Formoso (Aeródromo) - SA-PR-03,-10.49,-40.4871,Norte,RPGA do Rio Itapicuru,31.2,60.8,0.6,0.0,11.2,0.0,0.0,2.8,0.0,0.0,0.0,0.0,0.0,0.0,0.0,0.0,0.0,0.0,0.0,8.6,0.0,14.8,0.0,0.4,0.2,0.0,0.2,0.0,4.6,0.0,135.4
Santa Rosa,SM-PR-01,Jaguarari,Jaguarari (Santa Rosa) - SM-PR-01,-10.098374,-39.869774,Norte,RPGA dos Rios Macururé e Curaçá,0.0,36.4,22.8,1.2,11.8,0.0,0.0,1.6,0.0,0.0,0.0,0.0,0.0,0.0,0.0,0.0,0.0,0.0,4.8,25.6,8.8,37.6,0.0,0.0,0.6,0.2,0.2,1.0,0.0,0.0,152.6
Jaguarari,IT-PR-28,Jaguarari,Jaguarari - IT-PR-28,-10.269489,-40.200344,Norte,RPGA do Rio Itapicuru,0.2,50.4,25.2,0.8,13.8,0.0,0.0,0.2,0.0,0.0,0.0,0.0,0.0,0.0,0.0,0.0,0.0,0.0,18.6,6.8,0.0,2.2,0.0,0.0,0.0,0.4,1.0,0.0,0.0,0.2,119.8
Nova Vida Montante,46590000,Barreiras,Barreiras (Nova Vida Montante) - 46590000,-11.867963,-45.084552,Oeste,RPGA do Rio Grande,5.2,0.0,7.6,1.6,102.8,12.2,46.4,0.0,0.0,0.0,0.0,0.0,0.0,0.0,0.0,13.9,32.8,0.0,0.4,0.0,16.2,13.4,0.2,0.0,0.0,0.0,0.0,0.0,0.0,0.0,252.7
Barreiras,83236,Barreiras,Barreiras - 83236,-12.155556,-45.007778,Oeste,RPGA do Rio Grande,27.4,0.0,5.9,1.0,66.4,1.8,19.0,0.0,0.0,0.0,0.0,0.0,0.0,0.0,0.0,0.0,61.9,0.0,2.0,0.0,21.8,4.0,0.0,7.2,0.0,0.0,0.0,0.0,0.0,0.0,218.4
Derocal,46455000,São Desidério,São Desidério (Derocal) - 46455000,-12.412696,-45.121499,Oeste,RPGA do Rio Grande,17.6,0.4,7.0,3.2,15.8,0.2,12.0,0.0,0.0,0.0,0.0,0.0,0.0,0.0,0.0,1.2,44.4,3.2,0.0,10.0,17.2,22.6,7.0,0.0,0.0,0.0,0.0,0.0,0.0,0.0,161.8
Arrojado,45770000,Correntina,Correntina (Arrojado) - 45770000,-13.4528,-44.5689,Oeste,"RPGA do Rio Corrente e Riachos do Ramalho, Serra Dourada e Brejo Velho",2.6,3.4,55.6,36.4,27.4,2.2,0.2,0.4,0.0,0.0,0.0,0.0,0.0,0.0,0.0,12.8,51.0,0.0,22.6,1.6,6.0,21.8,58.2,1.6,0.0,0.0,0.0,0.0,0.0,0.0,303.81
Correntina,45590000,Correntina,Correntina - 45590000,-13.3406,-44.6386,Oeste,"RPGA do Rio Corrente e Riachos do Ramalho, Serra Dourada e Brejo Velho",5.2,0.4,45.4,30.4,60.0,5.2,0.4,0.0,0.0,0.0,0.0,0.0,0.0,0.0,0.0,5.2,12.0,0.4,15.2,0.8,4.6,13.0,31.0,0.2,0.0,0.0,0.0,0.0,0.0,0.0,229.4
Fazenda Redenção,46543000,Barreiras,Barreiras (Fazenda Redenção) - 46543000,-12.1358,-45.1033,Oeste,RPGA do Rio Grande,64.2,3.0,6.2,1.2,25.0,0.8,4.2,0.2,0.0,0.0,0.0,0.0,0.0,0.0,0.0,4.2,30.4,4.0,0.0,0.0,18.6,27.2,0.0,4.0,0.0,0.0,0.0,0.0,0.0,0.0,193.2
Fazenda Santa Luzia,CA-CL-01,Cocos,Cocos (Fazenda Santa Luzia) - CA-CL-01,-14.85528,-45.93583,Oeste,RPGA do Rio Carinhanha,0.4,6.4,19.2,0.2,23.4,0.0,0.0,0.2,0.0,0.0,0.0,0.0,0.0,1.6,0.6,0.0,19.2,23.8,2.6,0.0,0.0,4.4,9.2,1.6,0.2,0.0,0.0,0.0,0.0,0.0,113.0
Fazenda Morinaga,CT-CL-01,Correntina,Correntina (Fazenda Morinaga) - CT-CL-01,-13.75194,-45.87028,Oeste,"RPGA do Rio Corrente e Riachos do Ramalho, Serra Dourada e Brejo Velho",8.2,16.4,17.2,14.4,10.4,15.4,21.8,10.0,0.0,0.0,0.0,0.0,0.0,0.0,0.0,1.6,0.8,11.0,4.4,9.8,24.8,37.6,11.4,8.8,0.6,0.0,0.0,0.0,0.0,0.0,224.61
Fazenda Madras,GR-CL-04,Riachão das Neves,Riachão das Neves (Fazenda Madras) - GR-CL-04,-11.63028,-44.84556,Oeste,RPGA do Rio Grande,0.8,0.0,9.4,16.0,80.6,6.0,2.2,0.0,0.0,0.0,0.0,0.0,0.0,0.0,0.0,0.0,17.4,3.8,7.8,0.2,10.4,7.8,3.6,2.2,1.4,0.6,0.0,0.0,0.0,0.0,170.21
Fazenda Barcelona,GR-CL-03,Formosa do Rio Preto,Formosa do Rio Preto (Fazenda Barcelona) - GR-CL-03,-11.59139,-46.02194,Oeste,RPGA do Rio Grande,1.0,1.8,0.4,5.6,33.4,17.0,3.2,0.0,0.0,0.0,0.0,0.0,0.0,0.0,0.0,0.0,17.4,6.2,16.6,0.0,1.2,10.4,2.6,0.0,0.0,0.0,0.0,0.0,0.0,0.0,116.8
PCH Pres. Goulart-M1,45588000,Correntina,Correntina (PCH Pres. Goulart-M1) - 45588000,-13.3408,-44.6414,Oeste,"RPGA do Rio Corrente e Riachos do Ramalho, Serra Dourada e Brejo Velho",2.6,0.0,38.8,16.2,32.8,4.6,0.0,0.0,0.0,0.0,0.0,0.0,0.0,0.0,0.0,3.4,7.4,0.0,8.6,0.2,2.8,5.2,11.8,0.0,0.0,0.0,0.0,0.0,0.0,0.0,134.4
PCH Sítio Grande-J,46453500,São Desidério,São Desidério (PCH Sítio Grande-J) - 46453500,-12.4286,-45.1528,Oeste,RPGA do Rio Grande,9.0,0.0,3.4,5.6,21.6,4.4,16.6,0.0,0.0,0.0,0.0,0.0,0.0,0.0,0.0,3.0,43.0,3.8,0.2,8.8,20.2,9.2,6.8,0.0,0.0,0.0,0.0,0.0,0.0,0.0,155.6
COACERAL,GR-CL-02,Formosa do Rio Preto,Formosa do Rio Preto (COACERAL) - GR-CL-02,-10.561944,-45.693333,Oeste,RPGA do Rio Grande,60.25,0.75,2.5,11.25,7.25,2.0,28.0,0.0,0.0,0.0,0.0,0.0,0.0,0.0,0.0,0.0,9.75,9.75,0.25,0.0,0.0,55.25,2.25,0.0,0.0,0.0,0.0,0.0,0.0,0.0,189.25
J. Zoológico,A401,Salvador,Salvador (J. Zoológico) - A401,-13.005515,-38.50576,Recôncavo,RPGA do Recôncavo Norte,0.0,29.0,8.4,5.6,37.4,4.4,3.0,0.0,0.0,0.0,0.0,0.0,0.6,0.0,0.0,0.0,0.0,0.0,0.0,33.0,1.6,0.6,0.0,0.0,2.6,3.2,2.2,3.2,2.2,4.4,141.4
Periperi,292740820A,Salvador,Salvador (Periperi) - 292740820A,-12.867344,-38.458111,Recôncavo,RPGA do Recôncavo Norte,0.0,1.6,13.4,13.6,20.2,4.2,0.2,2.4,0.0,0.0,0.0,2.8,0.0,0.0,0.0,0.0,0.0,0.0,0.0,49.4,1.2,29.6,0.0,3.8,4.4,0.2,3.2,4.4,9.6,9.4,173.6
Mussurunga,292740821A,Salvador,Salvador (Mussurunga) - 292740821A,-12.907733,-38.440111,Recôncavo,RPGA do Recôncavo Norte,0.0,6.4,27.4,13.2,3.2,9.4,0.0,0.2,0.6,0.0,0.0,0.6,0.0,0.0,0.0,0.0,0.0,0.0,0.0,66.0,1.0,0.0,0.0,1.8,1.8,5.0,1.8,14.6,6.4,6.8,166.21
Itapuã,292740819A,Salvador,Salvador (Itapuã) - 292740819A,-12.947736,-38.370136,Recôncavo,RPGA do Recôncavo Norte,0.0,7.8,20.2,9.4,13.0,1.6,0.0,1.0,0.0,0.0,0.0,0.0,0.0,0.0,0.0,0.0,0.0,0.0,0.0,56.2,1.2,0.0,0.0,1.2,1.2,6.4,1.8,8.6,7.2,0.6,137.4
Tancredo Neves,292740823A,Salvador,Salvador (Tancredo Neves) - 292740823A,-12.945347,-38.453472,Recôncavo,RPGA do Recôncavo Norte,0.2,7.4,15.6,9.6,9.2,0.0,0.2,0.0,0.4,0.0,0.0,0.0,0.0,0.0,0.0,0.0,0.0,0.0,0.0,28.4,1.8,25.0,0.0,0.0,1.0,7.0,0.4,2.6,6.8,4.0,119.6
Estação Rádio Marinha,A456,Salvador,Salvador (Estação Rádio Marinha) - A456,-12.808222,-38.495944,Recôncavo,RPGA do Recôncavo Norte,0.0,3.0,4.0,2.8,5.0,3.6,0.0,0.0,0.0,0.0,0.0,0.4,0.0,0.0,0.0,0.0,0.0,0.0,0.0,49.8,0.6,2.2,0.0,0.0,0.2,5.6,1.2,5.4,7.2,7.8,98.8
Cruz das Almas,83222,Cruz das Almas,Cruz das Almas - 83222,-12.666667,-39.083333,Recôncavo,RPGA do Rio Paraguaçu,0.0,5.2,4.6,0.0,18.9,3.8,0.0,0.0,0.0,0.0,0.0,0.0,0.0,0.0,0.0,0.0,0.0,0.0,0.0,16.6,0.8,0.2,0.0,0.8,1.7,6.2,9.4,4.0,7.3,1.1,80.6
Cachoeira,290490201A,Cachoeira,Cachoeira - 290490201A,-12.607725,-38.960655,Recôncavo,RPGA do Rio Paraguaçu,0.4,14.6,1.2,0.2,2.8,10.6,0.0,0.0,0.0,0.0,0.0,0.0,0.0,0.0,0.0,0.0,0.0,0.0,0.0,24.4,1.2,0.0,0.0,0.0,2.2,1.0,5.8,3.4,5.4,5.4,78.61
Centro,291345701A,Igrapiúna,Igrapiúna (Centro) - 291345701A,-13.819025,-39.141885,Recôncavo,RPGA do Recôncavo Sul,0.2,16.0,3.0,0.0,0.4,1.8,0.6,1.0,0.0,0.0,1.4,0.0,0.0,0.0,0.0,0.0,0.0,0.0,0.2,11.0,48.0,56.2,0.2,0.4,12.8,10.2,9.0,2.6,0.4,0.8,176.21
São Félix,292900801A,São Félix,São Félix - 292900801A,-12.606591,-38.969939,Recôncavo,RPGA do Rio Paraguaçu,0.2,15.6,0.8,0.2,2.2,12.0,0.2,0.0,0.0,0.0,0.0,0.0,0.0,0.0,0.0,0.0,0.0,0.0,0.0,21.6,0.2,0.0,0.0,0.0,2.6,1.2,4.6,3.0,4.0,4.0,72.4
Góes Calmon,293070901A,Simões Filho,Simões Filho (Góes Calmon) - 293070901A,-12.780101,-38.353331,Recôncavo,RPGA do Recôncavo Norte,0.0,0.4,16.2,5.4,0.4,10.6,0.0,0.2,0.0,0.0,0.2,1.2,0.0,0.0,0.0,0.0,0.0,0.0,0.0,83.8,0.2,0.2,0.0,0.2,3.4,12.4,3.0,7.2,5.6,2.8,153.4
Centro,293070903A,Simões Filho,Simões Filho (Centro) - 293070903A,-12.788344,-38.396864,Recôncavo,RPGA do Recôncavo Norte,0.0,1.0,16.6,6.8,0.4,23.2,0.0,0.0,0.0,0.0,0.0,0.0,0.0,0.0,0.0,0.0,0.0,0.0,0.0,89.4,0.4,14.0,0.0,0.0,2.2,4.4,2.4,6.4,11.6,1.6,180.4
Amargosa,A434,Amargosa,Amargosa - A434,-13.009468,-39.616881,Recôncavo,RPGA do Recôncavo Sul,4.8,23.2,14.2,0.0,0.8,13.8,0.0,2.8,0.4,0.0,3.4,0.0,0.0,0.0,0.0,0.0,0.0,0.0,0.0,27.4,44.6,6.4,0.0,2.4,4.8,9.0,8.2,8.6,5.0,5.2,185.0
Ondina,83229,Salvador,Salvador (Ondina) - 83229,-13.005278,-38.505833,Recôncavo,RPGA do Recôncavo Norte,0.0,32.0,10.2,6.6,41.2,5.1,0.0,0.0,0.0,0.0,0.0,0.0,0.0,0.0,0.0,0.0,0.0,0.0,0.0,35.0,1.7,0.9,0.0,0.0,3.0,3.4,2.8,3.8,2.3,4.9,152.91
Feira de Santana,PG-PR-13,Feira de Santana,Feira de Santana - PG-PR-13,-12.268161,-38.96642,Recôncavo,RPGA do Rio Paraguaçu,0.0,0.0,0.2,0.0,5.6,0.0,0.0,0.0,0.0,0.0,0.0,0.0,0.0,0.0,0.0,0.0,0.0,0.0,0.0,48.8,1.0,0.0,0.0,0.0,0.4,1.8,0.0,0.6,1.4,4.4,64.2
Centro,292740802A,Salvador,Salvador (Centro) - 292740802A,-12.97821,-38.515945,Recôncavo,RPGA do Recôncavo Norte,0.0,18.3,6.35,4.0,17.11,1.18,0.0,0.0,0.0,0.0,0.0,0.0,0.0,0.0,0.0,0.0,0.0,0.0,0.0,11.26,0.8,0.99,0.0,0.0,1.24,0.4,0.99,1.97,1.19,0.0,65.78
São tomé de Paripe,292740806A,Salvador,Salvador (São tomé de Paripe) - 292740806A,-12.795508,-38.489389,Recôncavo,RPGA do Recôncavo Norte,0.0,3.16,4.79,8.0,1.2,1.8,2.6,0.4,0.0,0.0,0.0,0.0,0.0,0.0,0.0,0.0,0.0,1.19,0.0,4.6,24.57,0.4,0.2,0.0,1.0,1.77,2.18,4.53,13.0,3.35,78.75
Federação,292740803A,Salvador,Salvador (Federação) - 292740803A,-13.000791,-38.511056,Recôncavo,RPGA do Recôncavo Norte,0.0,34.23,11.46,7.76,35.85,8.08,0.0,0.2,0.0,0.0,0.0,0.0,0.0,0.0,0.0,0.0,0.0,0.0,0.0,23.61,1.79,0.99,0.0,0.0,3.55,3.35,2.56,1.58,0.99,3.93,139.94
Cabula,292740810A,Salvador,Salvador (Cabula) - 292740810A,-12.961347,-38.460778,Recôncavo,RPGA do Recôncavo Norte,0.0,16.15,15.46,11.33,20.88,0.2,0.0,0.0,0.0,0.0,0.0,0.0,0.0,0.0,0.0,0.0,0.0,0.0,0.0,27.89,1.97,26.63,0.0,0.0,0.2,2.17,2.17,2.18,3.16,1.18,131.58
Santo Estevão,PG-CL-08,Santo Estevão,Santo Estevão - PG-CL-08,-12.43521,-39.21209,Recôncavo,RPGA do Rio Paraguaçu,2.0,1.6,7.4,0.2,1.0,22.6,0.0,0.0,0.0,0.0,0.0,0.0,0.0,0.0,0.0,0.0,0.0,0.0,0.0,61.2,0.0,58.4,0.0,0.0,3.8,0.6,4.2,0.6,1.8,2.8,168.21
Caminho das Árvores,292740815A,Salvador,Salvador (Caminho das Árvores) - 292740815A,-12.97718,-38.453834,Recôncavo,RPGA do Recôncavo Norte,0.0,30.7,16.44,10.11,17.93,0.4,0.0,0.0,0.0,0.0,0.0,0.0,0.0,0.0,0.0,0.0,0.0,0.0,0.0,1.77,0.0,18.49,0.0,0.0,0.0,2.96,0.79,0.0,0.0,0.0,99.59
Águas Claras,292740808A,Salvador,Salvador (Águas Claras) - 292740808A,-12.8944,-38.441889,Recôncavo,RPGA do Recôncavo Norte,0.0,6.13,12.71,9.15,10.08,0.59,0.0,1.18,0.0,0.0,0.0,1.97,0.0,0.0,0.0,0.0,0.0,0.0,0.0,36.36,1.18,43.99,0.0,3.35,2.37,3.16,5.71,8.46,8.24,4.93,159.57
Alto do Peru,292740812A,Salvador,Salvador (Alto do Peru) - 292740812A,-12.939122,-38.486334,Recôncavo,RPGA do Recôncavo Norte,0.0,15.54,16.42,11.18,29.56,0.2,0.2,0.2,0.39,0.0,0.0,0.2,0.0,0.0,0.0,0.0,0.0,0.0,0.0,26.95,1.96,5.32,0.0,0.0,0.99,5.7,0.59,1.78,6.89,5.72,129.8
CAB,292740811A,Salvador,Salvador (CAB) - 292740811A,-12.943354,-38.421264,Recôncavo,RPGA do Recôncavo Norte,0.0,6.51,18.37,9.95,36.72,0.99,0.0,0.59,0.0,0.0,0.0,0.0,0.0,0.0,0.0,0.0,0.0,0.0,0.0,38.36,1.78,0.4,0.0,0.0,0.0,7.88,0.59,2.76,2.98,2.16,130.05
Cosme de Farias,292740816A,Salvador,Salvador (Cosme de Farias) - 292740816A,-12.979402,-38.4855,Recôncavo,RPGA do Recôncavo Norte,0.0,33.45,15.0,8.97,29.11,5.11,0.0,0.0,0.0,0.0,0.0,0.0,0.0,0.0,0.0,0.0,0.0,0.0,0.0,35.79,1.4,1.38,0.0,0.0,0.0,3.36,2.76,3.94,2.17,0.0,142.44
São Caetano,292740814A,Salvador,Salvador (São Caetano) - 292740814A,-12.939678,-38.474667,Recôncavo,RPGA do Recôncavo Norte,0.0,9.25,15.05,8.79,19.5,0.0,0.0,0.59,0.6,0.0,0.0,0.0,0.0,0.0,0.0,0.0,0.0,0.0,0.0,36.58,1.77,10.06,0.0,0.0,2.16,6.92,1.19,1.19,5.71,4.34,123.7
Pirajá,292740801A,Salvador,Salvador (Pirajá) - 292740801A,-12.8994,-38.458833,Recôncavo,RPGA do Recôncavo Norte,0.0,6.12,15.08,12.91,11.04,0.0,0.0,1.58,0.0,0.0,0.0,1.98,0.0,0.0,0.0,0.0,0.0,0.0,0.0,39.13,1.18,30.96,0.2,3.94,0.0,0.2,1.0,13.71,8.86,7.49,155.39
Rio Sena,292740805A,Salvador,Salvador (Rio Sena) - 292740805A,-12.891344,-38.470778,Recôncavo,RPGA do Recôncavo Norte,0.0,6.3,14.85,15.32,15.6,0.2,0.0,0.79,0.0,0.0,0.0,4.95,0.0,0.0,0.0,0.0,0.0,0.0,0.0,36.61,3.35,24.1,0.0,3.55,0.0,2.95,2.57,8.64,4.35,8.45,152.58
Valéria,292740817A,Salvador,Salvador (Valéria) - 292740817A,-12.8644,-38.438276,Recôncavo,RPGA do Recôncavo Norte,0.0,1.39,11.7,8.97,21.74,3.16,0.0,0.79,0.0,0.0,0.0,0.4,0.0,0.0,0.0,0.0,0.0,0.0,0.0,46.63,0.98,31.73,0.0,0.59,0.0,0.2,4.14,7.87,12.0,13.21,165.5
Monte Serrat,292740804A,Salvador,Salvador (Monte Serrat) - 292740804A,-12.930789,-38.517167,Recôncavo,RPGA do Recôncavo Norte,0.0,26.37,6.38,2.6,56.71,0.4,0.0,0.2,0.99,0.0,0.0,1.19,0.0,0.0,0.0,0.0,0.0,0.0,0.0,43.43,10.2,3.2,0.0,0.0,0.2,2.76,2.36,2.76,4.94,5.9,170.59
Santa Terezinha,290650105A,Candeias,Candeias (Santa Terezinha) - 290650105A,-12.647172,-38.539112,Recôncavo,RPGA do Recôncavo Norte,0.0,14.17,11.09,2.6,1.2,0.6,0.0,0.0,0.0,0.0,0.0,0.0,0.0,0.0,0.0,0.0,0.0,0.78,0.0,29.09,0.0,8.07,0.0,0.0,5.32,1.98,9.86,0.4,1.97,1.59,88.72
Centro,290650101A,Candeias,Candeias (Centro) - 290650101A,-12.670229,-38.544112,Recôncavo,RPGA do Recôncavo Norte,0.0,28.51,25.23,3.0,1.6,0.4,0.0,0.0,0.0,0.2,0.0,0.0,0.0,0.0,0.0,0.0,0.0,0.0,0.0,39.5,0.0,8.64,0.0,0.0,4.13,4.95,10.49,0.4,3.16,4.16,134.37
Malemba,290650102A,Candeias,Candeias (Malemba) - 290650102A,-12.678285,-38.544112,Recôncavo,RPGA do Recôncavo Norte,0.0,29.12,32.96,4.2,2.19,1.18,0.0,0.0,0.2,0.2,0.0,0.0,0.0,0.0,0.0,0.0,0.0,0.0,0.0,48.6,0.0,9.85,0.0,0.0,3.35,2.96,10.25,0.6,5.12,3.55,154.33
Sarandi,290650104A,Candeias,Candeias (Sarandi) - 290650104A,-12.671341,-38.531056,Recôncavo,RPGA do Recôncavo Norte,0.0,20.66,27.24,4.8,1.4,0.0,0.0,0.0,0.0,0.39,0.0,0.2,0.0,0.0,0.0,0.0,0.0,0.0,0.0,32.45,0.0,10.07,0.0,0.0,7.88,4.14,11.82,0.8,2.96,3.74,128.55
Areia Branca,291920706A,Lauro de Freitas,Lauro de Freitas (Areia Branca) - 291920706A,-12.841,-38.337,Recôncavo,RPGA do Recôncavo Norte,0.0,4.95,13.85,9.37,2.19,12.56,0.0,0.4,0.0,0.0,0.0,1.37,0.0,0.0,0.0,0.0,0.0,0.0,0.0,73.29,0.59,0.0,0.0,0.0,2.18,1.38,4.53,4.35,12.26,1.59,144.86
Itinga 02,291920704A,Lauro de Freitas,Lauro de Freitas (Itinga 02) - 291920704A,-12.89,-38.353,Recôncavo,RPGA do Recôncavo Norte,0.0,2.39,28.4,14.09,1.98,13.39,0.0,1.18,0.0,0.0,0.0,0.59,0.0,0.0,0.0,0.0,0.0,0.0,0.0,57.06,0.79,0.0,0.0,0.0,0.79,1.2,4.36,7.89,6.32,12.81,153.24
Vila Praiana,291920702A,Lauro de Freitas,Lauro de Freitas (Vila Praiana) - 291920702A,-12.901,-38.308,Recôncavo,RPGA do Recôncavo Norte,0.0,4.0,26.49,17.08,2.77,2.75,0.0,0.0,0.0,0.0,0.59,0.2,0.0,0.0,0.0,0.0,0.0,0.0,0.0,54.69,1.38,0.0,0.0,0.0,0.0,2.95,3.95,3.35,0.99,8.86,130.05
Portão,291920701A,Lauro de Freitas,Lauro de Freitas (Portão) - 291920701A,-12.87,-38.305,Recôncavo,RPGA do Recôncavo Norte,0.0,4.15,23.84,14.44,2.38,6.72,0.0,0.4,0.0,0.0,0.59,0.2,0.0,0.0,0.0,0.0,0.0,0.0,0.0,67.5,0.79,0.0,0.2,0.0,0.0,1.98,2.55,2.76,9.07,3.76,141.33
Rua 02 de Julho,291920705A,Lauro de Freitas,Lauro de Freitas (Rua 02 de Julho) - 291920705A,-12.839,-38.35,Recôncavo,RPGA do Recôncavo Norte,0.0,12.61,13.25,5.99,1.4,13.4,0.2,0.59,0.0,0.0,0.0,0.99,0.0,0.0,0.0,0.0,0.0,0.0,0.0,84.37,1.18,0.2,0.0,0.0,0.2,2.17,2.18,3.18,12.23,2.38,156.52
Dois de Julho,291120401A,Gandú,Gandú (Dois de Julho) - 291120401A,-13.741357,-39.48303,Recôncavo,RPGA do Recôncavo Sul,0.0,11.84,6.38,0.6,1.38,7.51,0.4,1.4,0.0,0.0,0.0,0.0,0.0,0.0,0.0,0.0,0.0,1.02,0.0,14.54,21.59,43.9,0.0,0.0,2.0,4.74,4.93,0.59,0.2,0.0,123.02
Centro,292250801A,Nazaré,Nazaré (Centro) - 292250801A,-13.032,-39.015,Recôncavo,RPGA do Recôncavo Sul,0.0,1.78,3.4,0.0,27.95,7.13,0.0,0.0,0.0,0.0,0.0,0.0,0.0,0.0,0.0,0.0,0.0,0.0,0.0,38.87,0.2,0.79,0.0,0.79,5.3,17.33,4.97,12.67,8.09,5.51,134.78
Rua São Roque,293290301A,Valença,Valença (Rua São Roque) - 293290301A,-13.363,-39.078,Recôncavo,RPGA do Recôncavo Sul,0.2,18.89,5.36,0.0,8.69,3.15,0.2,0.39,0.0,0.0,2.95,0.79,0.0,0.0,0.0,0.0,0.0,0.0,0.0,4.74,21.27,4.33,0.0,7.11,1.59,7.88,0.8,4.93,1.37,6.75,101.4
Abaeté,RN-CL-05,Salvador,Salvador (Abaeté) - RN-CL-05,-12.9469,-38.35933,Recôncavo,RPGA do Recôncavo Norte,0.0,8.6,27.6,4.8,8.2,0.6,0.0,1.8,0.0,0.0,0.0,0.0,0.0,0.0,0.0,0.0,0.0,0.0,0.0,60.8,1.0,0.0,0.0,1.2,2.0,2.6,2.4,6.2,2.6,0.4,130.8
Lauro de Freitas,RN-CL-09,Lauro de Freitas,Lauro de Freitas - RN-CL-09,-12.88712,-38.29659,Recôncavo,RPGA do Recôncavo Norte,0.0,2.8,26.4,16.6,3.2,2.4,0.0,1.8,0.0,0.0,0.0,0.0,0.0,0.0,0.0,0.0,0.0,0.0,0.0,44.0,1.0,0.0,0.2,0.0,0.2,0.8,2.2,3.2,7.4,9.4,121.61
São Francisco do Conde,RN-CL-07,São Francisco do Conde,São Francisco do Conde - RN-CL-07,-12.61136,-38.68222,Recôncavo,RPGA do Recôncavo Norte,0.0,6.4,5.4,0.0,22.6,0.0,0.0,0.0,0.0,0.0,0.0,0.0,0.0,0.0,0.0,0.0,0.0,0.0,0.0,20.6,0.0,0.0,0.0,0.0,2.2,1.0,16.2,1.2,1.6,4.2,81.4
CIA,293070902A,Simões Filho,Simões Filho (CIA) - 293070902A,-12.825461,-38.409051,Recôncavo,RPGA do Recôncavo Norte,0.0,1.4,9.4,7.8,0.8,16.4,0.0,0.2,0.0,0.0,0.4,0.4,0.0,0.0,0.0,0.0,0.0,0.0,0.0,67.2,0.6,34.0,0.0,0.0,0.8,3.0,2.2,2.8,10.0,1.8,159.21
PC Fazenda Jurema,51346050,Rafael Jambeiro,Rafael Jambeiro (PC Fazenda Jurema) - 51346050,-12.4881,-39.6981,Recôncavo,RPGA do Rio Paraguaçu,0.8,2.0,2.4,0.0,0.0,0.4,0.0,0.0,0.0,0.0,0.0,0.0,0.0,0.0,0.0,0.0,0.0,0.0,0.0,39.2,12.8,1.2,0.0,0.0,0.4,1.4,0.4,0.0,2.6,5.2,68.81
PC Argoim,51351000,Rafael Jambeiro,Rafael Jambeiro (PC Argoim) - 51351000,-12.5867,-39.5217,Recôncavo,RPGA do Rio Paraguaçu,0.0,9.2,6.0,0.0,0.0,0.4,0.0,0.4,0.0,0.0,0.0,0.0,0.0,0.0,0.0,0.0,0.0,0.0,0.0,50.4,7.2,5.2,0.4,0.0,1.0,1.8,2.4,0.0,1.0,2.4,87.81
PC Rio Paratigi,51370000,Santo Estevão,Santo Estevão (PC Rio Paratigi) - 51370000,-12.51503,-39.38272,Recôncavo,RPGA do Rio Paraguaçu,0.0,10.8,4.8,0.0,0.4,1.2,0.0,0.0,0.0,0.0,0.0,0.0,0.0,0.0,0.0,0.0,0.0,0.0,0.0,23.2,0.0,27.2,0.0,0.4,2.4,0.0,3.2,1.4,4.4,4.2,83.61
Abaeté,RN-PR-01,Salvador,Salvador (Abaeté) - RN-PR-01,-12.945407,-38.361404,Recôncavo,RPGA do Recôncavo Norte,0.0,25.8,11.2,14.6,7.8,0.6,0.0,0.8,0.0,0.0,0.0,0.0,0.0,0.0,0.0,0.0,0.0,0.0,0.0,73.0,0.0,0.0,0.0,1.2,1.1,4.7,1.5,7.8,4.1,0.3,154.5
Cândido Sales,53620000,Cândido Sales,Cândido Sales - 53620000,-15.512891,-41.236629,Sudoeste,RPGA do Rio Pardo,16.4,26.4,19.8,7.6,38.4,51.0,0.6,0.0,0.0,0.0,0.0,0.0,0.0,0.0,0.0,1.4,10.6,23.6,6.6,13.2,55.8,6.8,6.4,10.2,6.4,5.4,4.4,0.2,3.2,0.4,314.8
Itiruçu,A407,Itiruçu,Itiruçu - A407,-13.52629,-40.12055,Sudoeste,RPGA do Recôncavo Sul,4.4,9.4,24.8,2.0,5.0,23.2,0.0,0.0,0.0,0.0,0.0,0.0,0.0,0.0,0.0,0.0,0.0,2.2,0.2,30.2,10.6,10.0,0.2,0.2,3.4,3.0,3.4,2.8,2.4,0.0,137.41
Vitória da Conquista,A414,Vitória da Conquista,Vitória da Conquista - A414,-14.886428,-40.80133,Sudoeste,RPGA do Rio Pardo,33.2,11.2,27.4,4.0,12.0,10.8,5.8,0.0,0.2,0.2,0.0,0.0,0.0,0.0,0.0,0.0,0.0,1.0,10.8,5.0,9.8,12.0,4.6,0.8,2.4,6.2,2.4,1.0,2.4,0.8,164.01
Ituaçu,83292,Ituaçu,Ituaçu - 83292,-13.812778,-41.3,Sudoeste,RPGA do Rio de Contas,0.0,17.0,25.0,5.3,0.0,28.1,52.2,0.0,0.0,0.0,0.0,0.0,0.0,0.0,0.0,0.0,0.0,8.3,4.2,16.9,11.6,19.0,20.2,0.0,0.0,0.0,3.2,0.0,0.0,0.0,211.0
Lagoa,291760701A,Jaguaquara,Jaguaquara (Lagoa) - 291760701A,-13.523228,-39.968685,Sudoeste,RPGA do Recôncavo Sul,18.4,7.6,16.4,0.4,4.8,11.6,1.2,0.0,0.2,0.0,0.0,0.0,0.0,0.0,0.0,0.0,0.0,0.6,0.0,12.8,60.2,13.8,0.4,0.2,4.4,1.4,5.4,0.4,3.2,0.2,163.6
Entroncamento,291760702A,Jaguaquara,Jaguaquara (Entroncamento) - 291760702A,-13.509869,-40.05461,Sudoeste,RPGA do Recôncavo Sul,14.2,6.4,16.4,0.0,4.6,13.6,0.0,0.0,0.0,0.0,0.0,0.0,0.0,0.0,0.0,0.0,0.0,1.2,0.0,26.0,29.0,30.4,0.2,0.6,2.0,0.2,12.6,1.0,1.2,0.0,159.6
Brumado,A433,Brumado,Brumado - A433,-14.181886,-41.672281,Sudoeste,RPGA do Rio de Contas,26.0,16.8,53.2,3.2,28.4,9.0,2.8,0.0,0.0,0.0,0.0,0.0,0.0,0.0,0.0,0.0,0.2,0.4,18.2,15.8,0.6,21.4,2.0,0.0,1.0,0.4,0.4,0.4,0.2,0.4,200.8
Itapetinga,A446,Itapetinga,Itapetinga - A446,-15.24462,-40.22955,Sudoeste,RPGA do Rio Pardo,32.2,12.4,25.2,5.0,16.0,9.4,7.8,0.0,0.0,0.0,0.0,0.0,0.0,0.0,0.0,0.0,0.0,7.8,10.4,6.0,27.2,5.4,9.6,0.0,9.2,3.8,7.6,0.2,7.0,6.8,209.0
Centro,293330701A,Vitória da Conquista,Vitória da Conquista (Centro) - 293330701A,-14.852,-40.839,Sudoeste,RPGA do Rio Pardo,35.95,1.59,0.2,23.57,13.41,13.02,9.2,2.0,5.01,1.41,0.0,0.0,5.58,0.0,9.31,1.85,0.0,0.8,7.28,6.92,8.25,14.89,0.2,22.35,5.73,2.99,0.4,0.4,3.75,6.83,202.9
Clerolândia,291640101A,Itapetinga,Itapetinga (Clerolândia) - 291640101A,-15.243,-40.221,Sudoeste,RPGA do Rio Pardo,34.33,15.22,22.86,6.93,9.7,9.87,6.12,0.0,0.0,0.0,0.0,0.0,0.0,0.0,0.0,0.0,0.0,11.14,17.31,5.53,28.19,3.4,6.54,0.2,8.5,2.59,8.45,0.2,6.51,5.51,209.1
Recreio,293330702A,Vitória da Conquista,Vitória da Conquista (Recreio) - 293330702A,-14.861,-40.841,Sudoeste,RPGA do Rio Pardo,37.02,15.94,24.74,3.58,7.91,14.97,4.15,0.0,0.0,0.0,0.0,0.0,0.0,0.0,0.0,0.0,0.0,0.8,8.11,5.97,6.75,9.53,0.2,0.0,4.96,3.22,1.21,0.2,2.96,0.4,152.62
Patagônia,293330704A,Vitória da Conquista,Vitória da Conquista (Patagônia) - 293330704A,-14.87,-40.863,Sudoeste,RPGA do Rio Pardo,30.16,14.38,25.84,2.78,10.88,20.11,3.55,0.0,0.2,0.0,0.0,0.0,0.0,0.0,0.0,0.0,0.0,0.99,15.55,5.56,2.38,6.33,2.37,0.2,3.56,2.8,3.36,0.59,0.6,0.0,152.19
Lomantão,293330703A,Vitória da Conquista,Vitória da Conquista (Lomantão) - 293330703A,-14.87,-40.827,Sudoeste,RPGA do Rio Pardo,42.83,11.42,20.73,2.99,5.95,12.28,4.53,0.0,0.0,0.0,0.0,0.0,0.0,0.0,0.0,0.0,0.0,1.2,7.66,4.36,3.36,10.25,0.59,0.2,5.12,2.59,0.99,0.4,0.99,0.4,138.85
Jaguaquara,RS-CL-01,Jaguaquara,Jaguaquara - RS-CL-01,-13.573055,-39.940833,Sudoeste,RPGA do Recôncavo Sul,15.5,11.0,14.5,1.25,4.25,6.5,0.25,0.0,0.0,0.0,0.0,0.0,0.0,0.0,0.0,0.0,0.0,0.5,3.25,19.25,45.75,28.0,0.0,0.0,9.25,8.0,3.0,1.25,3.75,1.25,176.5
Vitória da Conquista,PA-CL-01,Vitória da Conquista,Vitória da Conquista - PA-CL-01,-14.886111,-40.800833,Sudoeste,RPGA do Rio Pardo,30.0,12.75,28.75,4.5,12.0,12.25,5.75,0.0,0.0,0.0,0.0,0.0,0.0,0.0,0.0,0.0,0.0,0.75,11.25,4.5,10.25,12.75,4.0,0.5,2.0,5.75,2.0,0.5,1.75,0.75,162.75
Itati,LE-CL-03,Itororó,Itororó (Itati) - LE-CL-03,-15.05273,-40.02292,Sudoeste,RPGA do Leste,6.2,34.0,0.0,0.0,0.0,0.4,1.8,179.2,31.8,0.0,0.0,0.0,0.0,0.0,0.0,0.0,0.0,11.8,0.4,3.8,25.4,27.2,15.2,0.2,1.0,5.8,4.0,0.8,7.0,2.2,358.2
Itiruçu,291690601C,Itiruçu,Itiruçu - 291690601C,-13.396611,-40.138083,Sudoeste,RPGA do Recôncavo Sul,31.6,6.4,19.6,0.4,1.8,9.2,0.8,0.0,0.0,0.0,0.0,0.0,0.0,0.0,0.0,0.0,0.0,0.0,0.2,32.4,7.4,2.0,0.0,0.8,0.8,1.4,9.4,0.4,0.6,0.0,125.21
Nova Canaã,292270601C,Nova Canaã,Nova Canaã - 292270601C,-14.662641,-40.274647,Sudoeste,RPGA do Rio de Contas,13.2,39.2,27.4,1.0,0.4,3.2,0.0,0.2,2.0,0.0,0.8,0.0,0.2,0.0,0.0,0.0,0.0,6.0,4.6,5.2,25.4,33.4,6.4,0.2,4.8,6.4,3.8,2.8,3.2,0.6,190.41
Itambé,291580901C,Itambé,Itambé - 291580901C,-15.22378,-40.629767,Sudoeste,RPGA do Rio Pardo,40.0,20.6,43.8,2.2,6.0,0.8,0.2,0.0,0.0,0.0,0.0,0.0,0.0,0.0,0.0,0.0,0.0,4.6,13.0,19.2,20.8,6.8,1.4,0.2,10.0,5.4,7.6,4.6,2.6,1.4,211.2
Fz Nanci,53880000,Camacã,Camacã (Fz Nanci) - 53880000,-15.581395,-39.521095,Sul,RPGA do Rio Pardo,4.2,29.0,16.2,4.6,16.2,1.6,4.4,1.4,0.0,0.2,0.4,0.0,0.0,0.0,0.0,0.0,0.6,4.2,48.2,7.4,10.6,10.8,7.2,0.0,12.6,5.0,4.8,3.8,4.0,1.2,198.61
PCH Cach. da Lixa M,55354000,Jucuruçu,Jucuruçu (PCH Cach. da Lixa M) - 55354000,-17.06703,-40.068619,Sul,"RPGA dos Rios Peruípe, Itanhém e Jucuruçu",39.8,14.6,11.0,12.8,7.4,7.4,23.0,0.8,0.0,4.8,0.0,0.0,0.0,0.0,0.0,5.0,0.0,1.2,17.4,2.4,48.0,22.2,18.6,8.8,11.0,5.6,6.6,2.6,6.0,2.8,279.81
PCH Colino II M,55355600,Vereda,Vereda (PCH Colino II M) - 55355600,-17.07126,-40.15474,Sul,"RPGA dos Rios Peruípe, Itanhém e Jucuruçu",66.5,18.0,11.5,12.75,6.0,15.75,14.0,0.0,0.0,0.0,5.75,0.0,0.0,0.0,0.0,2.5,3.75,0.75,26.0,24.5,25.75,16.75,8.0,4.0,8.25,10.0,10.0,4.5,6.5,1.5,303.0
Ilhéus,A410,Ilhéus,Ilhéus - A410,-14.658803,-39.181438,Sul,RPGA do Leste,0.8,44.6,25.0,15.8,3.4,4.6,0.2,1.2,0.0,0.2,0.0,0.2,0.0,0.0,0.0,0.0,0.0,1.2,1.6,4.4,65.0,36.2,1.6,0.2,8.0,21.2,2.4,5.6,5.6,0.4,249.4
Itajuípe,,Itajuípe,Itajuípe,-14.6744,-39.3769,Sul,RPGA do Leste,0.2,68.2,9.6,1.2,4.6,7.2,6.2,6.6,0.0,0.0,0.6,0.0,0.2,0.0,0.0,0.0,0.0,1.8,18.8,7.4,6.6,56.6,3.4,0.8,10.6,19.4,2.4,2.0,2.6,0.8,237.8
Barra do Rocha,290310201A,Barra do Rocha,Barra do Rocha - 290310201A,-14.208644,-39.598562,Sul,RPGA do Rio de Contas,1.8,28.0,17.0,1.4,6.4,48.0,2.4,0.0,0.8,0.0,1.2,0.0,0.0,0.0,0.0,0.0,0.0,2.6,26.8,13.6,17.4,22.4,0.2,1.8,6.4,7.8,12.6,2.2,1.6,0.6,223.0
Centro,290580001A,Camamu,Camamu (Centro) - 290580001A,-13.943506,-39.10251,Sul,RPGA do Recôncavo Sul,0.6,11.8,2.4,0.2,0.0,1.0,0.2,2.6,0.2,0.0,0.0,0.0,0.0,0.0,0.0,0.0,0.0,0.0,0.2,2.8,34.0,42.4,0.0,2.8,9.6,9.6,7.0,2.6,0.2,0.0,130.2
Novo Horizonte,291180801A,Guaratinga,Guaratinga (Novo Horizonte) - 291180801A,-16.582916,-39.780555,Sul,"RPGA dos Rios dos Frades, Buranhém e Santo Antônio",12.6,29.2,15.2,10.8,16.4,1.6,40.8,0.0,0.0,0.0,0.0,0.2,0.0,0.0,0.0,0.0,0.0,5.0,3.2,64.0,38.4,1.8,7.0,3.8,8.2,0.8,13.8,3.6,1.2,1.4,279.0
Passagem,291490101A,Itacaré,Itacaré (Passagem) - 291490101A,-14.280609,-39.002952,Sul,RPGA do Rio de Contas,0.0,20.0,8.2,0.2,0.0,11.8,3.8,0.0,0.0,0.0,0.0,0.0,0.2,0.0,0.0,0.0,0.0,0.0,3.0,3.8,176.8,32.8,0.2,12.4,6.6,13.4,5.8,0.6,0.4,0.2,300.2
Centro,291560101A,Itamaraju,Itamaraju (Centro) - 291560101A,-17.027541,-39.534994,Sul,"RPGA dos Rios Peruípe, Itanhém e Jucuruçu",18.0,36.2,18.0,13.6,22.8,4.0,3.6,0.2,0.0,0.0,0.0,0.0,0.0,0.0,0.0,0.2,2.8,0.2,2.4,18.2,34.6,15.0,15.8,11.4,7.0,2.8,2.0,1.4,3.8,1.0,235.01
Pau Brasil,292390201A,Pau Brasil,Pau Brasil - 292390201A,-15.46122,-39.65225,Sul,RPGA do Rio Pardo,6.4,31.2,24.8,12.2,9.0,2.8,1.6,0.4,0.0,0.0,0.0,0.0,0.0,0.0,0.0,0.0,0.0,10.8,13.6,0.8,30.2,22.6,13.0,0.6,0.4,19.6,3.0,3.8,2.6,5.4,214.8
Ribeira,292550101A,Prado,Prado (Ribeira) - 292550101A,-17.338255,-39.232281,Sul,"RPGA dos Rios Peruípe, Itanhém e Jucuruçu",44.4,22.6,9.2,7.2,11.2,14.6,69.2,0.0,0.0,0.0,0.0,0.0,0.0,0.0,0.0,0.0,3.8,0.0,0.4,7.4,45.6,13.6,27.8,0.0,1.2,0.0,1.6,6.8,6.6,3.8,297.01
Centro,292805901A,Santa Luzia,Santa Luzia (Centro) - 292805901A,-15.42976,-39.332759,Sul,RPGA do Leste,3.0,37.8,10.8,4.6,10.2,1.0,2.0,0.2,0.2,0.0,0.8,0.0,0.0,0.0,0.0,0.0,0.0,0.0,14.2,1.8,3.0,23.2,2.8,1.8,11.4,15.0,3.6,2.6,0.2,2.6,152.8
Maraú,A438,Maraú,Maraú - A438,-13.90694,-38.97222,Sul,RPGA do Recôncavo Sul,0.2,20.4,6.0,0.0,0.2,0.0,0.0,0.0,0.2,0.0,0.2,0.6,0.0,0.0,0.0,0.0,0.0,0.4,0.0,13.8,32.0,12.2,1.4,0.6,2.8,8.8,13.0,5.6,1.8,0.0,120.2
PCH Colino I J,55357000,Jucuruçu,Jucuruçu (PCH Colino I J) - 55357000,-17.0822,-40.0772,Sul,"RPGA dos Rios Peruípe, Itanhém e Jucuruçu",54.75,16.25,12.75,17.75,8.75,16.25,12.25,0.0,5.5,0.0,0.0,0.0,0.0,0.0,0.0,8.0,0.5,2.75,11.25,4.25,38.0,19.75,18.25,9.25,7.5,3.5,6.75,2.25,6.5,5.75,288.5
Eunápolis,FB-CL-01,Eunápolis,Eunápolis - FB-CL-01,-16.290555,-39.579722,Sul,"RPGA dos Rios dos Frades, Buranhém e Santo Antônio",6.25,10.25,23.75,10.25,23.5,5.75,9.75,0.0,0.0,0.0,0.0,0.0,0.0,0.0,0.0,0.0,0.25,16.75,2.0,15.75,35.0,6.25,5.75,30.0,1.75,13.25,0.0,1.75,6.0,2.5,226.5
Centro,290560201A,Camacan,Camacan (Centro) - 290560201A,-15.422225,-39.494984,Sul,RPGA do Rio Pardo,7.1,47.1,27.08,10.11,25.64,5.77,1.2,0.0,0.0,0.0,0.0,0.0,0.0,0.0,0.0,0.0,0.0,1.6,52.99,0.2,4.97,23.88,11.52,3.95,11.46,14.16,2.59,8.65,1.99,2.16,264.12
São João do Panelinha,290560202A,Camacan,Camacan (São João do Panelinha) - 290560202A,-15.375278,-39.489984,Sul,RPGA do Rio Pardo,4.75,49.45,26.07,8.54,24.06,4.19,1.99,0.2,0.0,0.0,0.0,0.0,0.0,0.0,0.0,0.0,0.0,0.6,26.64,0.0,5.59,32.98,14.2,1.38,13.39,9.68,2.2,0.59,5.13,0.39,232.02
Centro,290560203A,Camacan,Camacan (Centro) - 290560203A,-15.416389,-39.493873,Sul,RPGA do Rio Pardo,5.56,43.58,24.15,9.3,24.05,5.37,1.19,0.0,0.0,0.0,0.0,0.0,0.0,0.0,0.0,0.0,0.0,1.2,46.44,0.2,4.4,26.88,5.51,4.33,6.7,17.74,1.18,9.06,1.97,0.79,239.6
Conquista,291360601A,Ilhéus,Ilhéus (Conquista) - 291360601A,-14.797213,-39.04608,Sul,RPGA do Leste,0.82,53.5,5.58,0.0,2.56,9.73,0.2,0.0,0.0,0.0,0.0,0.0,0.0,0.39,0.0,0.0,0.0,2.41,3.18,0.0,33.46,52.37,1.78,1.57,8.91,12.22,3.35,6.13,9.85,0.0,208.01
Malhado,291360602A,Ilhéus,Ilhéus (Malhado) - 291360602A,-14.789158,-39.048858,Sul,RPGA do Leste,0.59,48.58,6.0,0.0,2.36,9.68,0.2,0.0,0.0,0.0,0.0,0.0,0.0,1.57,0.0,0.0,0.0,2.02,2.17,0.0,31.5,45.48,2.76,0.59,10.05,13.5,2.18,5.71,7.17,0.2,192.31
São Caetano,291480202A,Itabuna,Itabuna (São Caetano) - 291480202A,-14.80638,-39.27803,Sul,RPGA do Leste,3.55,84.65,10.1,0.82,4.79,13.8,3.15,0.0,0.0,0.0,0.0,0.0,0.0,0.98,0.2,0.0,0.0,1.98,19.73,2.76,57.63,24.9,2.17,1.19,6.31,16.01,1.39,13.4,1.19,0.79,271.49
Nova Ferradas,291480203A,Itabuna,Itabuna (Nova Ferradas) - 291480203A,-14.857213,-39.346922,Sul,RPGA do Leste,0.2,75.72,13.25,0.4,3.18,9.66,0.2,0.0,0.0,0.0,0.0,0.0,0.0,0.0,0.0,0.0,0.0,3.6,6.52,2.19,80.58,34.22,6.9,1.19,4.73,3.36,3.35,1.98,6.32,0.4,257.95
Planalto I,292110401A,Medeiros Neto,Medeiros Neto (Planalto I) - 292110401A,-17.365,-40.223,Sul,"RPGA dos Rios Peruípe, Itanhém e Jucuruçu",44.3,17.31,0.8,4.02,9.36,0.2,0.0,1.38,0.0,0.0,0.0,0.0,0.0,0.0,0.98,3.98,0.2,0.0,31.24,0.0,22.6,6.56,8.73,2.64,9.51,1.61,1.19,0.2,2.39,4.34,173.54
Centro,292300102A,Nova Viçosa,Nova Viçosa (Centro) - 292300102A,-17.893,-39.372,Sul,"RPGA dos Rios Peruípe, Itanhém e Jucuruçu",83.74,33.7,2.17,1.99,10.7,0.82,10.84,3.76,0.0,0.0,0.0,0.0,0.0,0.0,0.0,1.19,0.0,7.49,0.0,5.13,11.48,21.88,40.41,8.3,3.15,0.0,5.14,0.79,6.51,0.99,260.18
Posto da Mata,292300103A,Nova Viçosa,Nova Viçosa (Posto da Mata) - 292300103A,-17.896,-39.37,Sul,"RPGA dos Rios Peruípe, Itanhém e Jucuruçu",73.86,31.49,1.57,1.59,8.33,0.59,5.72,1.97,0.0,0.0,0.0,0.0,0.0,0.0,0.0,0.79,0.59,4.53,0.2,3.76,9.67,20.48,33.28,6.93,1.77,0.0,2.18,0.39,6.51,1.18,217.38
Areião,292530301A,Porto Seguro,Porto Seguro (Areião) - 292530301A,-16.441,-39.076,Sul,"RPGA dos Rios dos Frades, Buranhém e Santo Antônio",1.6,12.73,9.74,17.06,37.6,8.47,56.48,0.0,0.0,0.0,0.0,0.0,0.0,0.0,0.0,0.0,0.0,0.0,2.76,19.13,63.18,85.38,6.11,0.0,2.95,0.0,0.0,0.0,2.37,0.0,325.56
Paraguai,292530302A,Porto Seguro,Porto Seguro (Paraguai) - 292530302A,-16.41,-39.08,Sul,"RPGA dos Rios dos Frades, Buranhém e Santo Antônio",2.19,13.49,9.9,17.74,35.21,9.08,99.46,0.0,0.0,0.0,0.0,0.0,0.0,0.0,0.0,0.0,0.0,0.6,7.86,22.96,35.92,90.29,2.57,2.77,1.57,0.79,0.0,0.79,3.14,0.98,357.32
Trancoso,292530303A,Porto Seguro,Porto Seguro (Trancoso) - 292530303A,-16.595,-39.109,Sul,"RPGA dos Rios dos Frades, Buranhém e Santo Antônio",3.2,26.31,7.15,16.64,33.31,7.79,3.77,0.0,0.0,0.0,0.0,0.0,0.0,0.0,0.0,0.0,0.0,0.0,0.2,19.36,35.77,39.41,14.42,0.6,6.7,0.59,1.01,0.0,7.48,1.77,225.48
BR367km4,292770501A,Santa Cruz Cabrália,Santa Cruz Cabrália (BR367km4) - 292770501A,-16.321,-39.023,Sul,"RPGA dos Rios dos Frades, Buranhém e Santo Antônio",1.4,12.86,10.71,11.28,26.35,8.07,17.19,0.0,0.0,0.0,0.0,0.0,0.0,0.0,0.0,0.0,0.0,0.0,12.21,27.91,26.27,68.55,1.38,0.2,0.0,2.17,0.79,0.59,3.16,2.56,233.65
Centro,291480201A,Itabuna,Itabuna (Centro) - 291480201A,-14.79,-39.274,Sul,RPGA do Leste,1.77,98.0,12.62,0.4,3.57,10.22,1.38,0.0,0.0,0.0,0.0,0.0,0.0,0.0,0.0,0.0,0.0,1.4,16.94,0.4,56.11,32.11,2.36,1.18,3.55,7.9,1.57,4.93,2.96,2.56,261.93
Jusante,54945000,Itapebi,Itapebi (Jusante) - 54945000,-15.949206,-39.5225,Sul,RPGA do Rio Jequitinhonha,7.2,29.2,17.8,15.2,15.6,6.8,50.6,0.0,0.0,0.0,0.0,0.0,0.0,0.0,0.0,0.0,0.0,9.8,53.4,7.6,13.4,5.0,9.4,1.2,3.2,7.2,7.2,6.8,2.6,3.4,272.6
Morpará,46360000,Morpará,Morpará - 46360000,-11.5583,-43.2825,São Francisco,RPGA dos Rios Paramirim e Santo Onofre,1.4,4.6,70.0,7.2,10.0,18.4,37.4,0.2,0.0,0.0,0.0,0.0,0.0,0.0,0.0,0.0,15.2,0.6,3.0,13.6,0.6,11.2,0.2,0.0,0.0,0.0,0.0,0.0,0.0,0.0,193.6
Pilão Arcado,A449,Pilão Arcado,Pilão Arcado - A449,-10.003519,-42.474785,São Francisco,RPGA do Lago de Sobradinho,0.0,14.6,12.6,34.8,7.6,0.0,0.0,0.0,0.0,0.0,0.0,0.0,0.0,0.0,0.0,0.0,0.0,0.0,3.4,68.2,59.6,24.6,0.2,0.0,0.0,0.0,0.0,0.0,0.0,0.0,225.6
Bom Jesus da Lapa,83288,Bom Jesus da Lapa,Bom Jesus da Lapa - 83288,-13.251389,-43.405278,São Francisco,RPGA do Rio Carnaíba de Dentro,0.0,17.8,27.1,20.0,36.6,5.5,0.4,0.0,0.0,0.0,0.0,0.0,0.0,0.0,0.0,0.0,5.4,1.6,31.6,8.3,3.6,6.8,27.7,0.0,0.0,0.0,0.0,0.0,0.0,0.0,192.4
Santa Rita de Cássia,83076,Santa Rita de Cássia,Santa Rita de Cássia - 83076,-11.016667,-44.516667,São Francisco,RPGA do Rio Grande,2.5,0.0,28.0,16.0,51.0,8.0,29.7,0.0,0.0,0.0,0.0,0.0,0.0,0.0,0.0,0.0,0.0,1.3,16.5,21.6,4.4,50.8,4.0,0.0,0.0,0.0,0.0,0.0,0.0,0.0,233.8
Guanambí,A426,Guanambí,Guanambí - A426,-14.208123,-42.749647,São Francisco,RPGA do Rio Carnaíba de Dentro,0.6,11.8,12.8,7.2,15.6,17.8,0.0,0.0,0.0,0.0,0.0,0.0,0.0,0.0,0.0,40.2,0.0,0.0,9.2,15.4,27.6,8.2,0.0,0.0,0.0,0.0,0.0,0.0,0.0,0.0,166.4
Macaúbas,PM-CL-02,Macaúbas,Macaúbas - PM-CL-02,-13.07953,-42.6957,São Francisco,RPGA dos Rios Paramirim e Santo Onofre,45.0,57.0,50.8,45.4,8.8,8.4,22.6,0.0,0.0,0.0,0.0,0.0,0.0,0.0,0.0,0.0,0.0,0.4,7.4,6.0,3.8,1.8,5.8,0.0,0.0,0.0,0.0,0.0,0.0,0.0,263.21
Faz. Macambira,46675000,Cotegipe,Cotegipe (Faz. Macambira) - 46675000,-11.6106,-44.1567,São Francisco,RPGA do Rio Grande,41.4,3.2,38.6,25.8,54.8,3.8,13.4,0.0,0.0,0.0,0.0,0.0,0.0,0.0,0.0,0.0,15.6,0.8,9.0,19.4,0.2,25.6,3.0,0.0,0.0,0.0,0.0,0.0,0.0,0.0,254.61
Fz.P. Limpo,46870000,Mansidão,Mansidão (Fz.P. Limpo) - 46870000,-11.236845,-43.950633,São Francisco,RPGA do Rio Grande,0.0,4.4,28.8,5.4,15.0,2.4,28.0,0.0,0.0,0.0,0.0,0.0,0.0,0.0,0.0,0.0,1.4,0.2,5.6,12.4,0.0,50.2,0.0,0.2,0.0,0.0,0.0,0.0,0.0,0.0,154.0
Santa Maria da Vitória,45910001,Santa Maria da Vitória,Santa Maria da Vitória - 45910001,-13.4006,-44.1989,São Francisco,"RPGA do Rio Corrente e Riachos do Ramalho, Serra Dourada e Brejo Velho",4.4,0.4,35.2,8.8,42.0,14.2,4.2,0.0,0.0,0.0,0.0,0.0,0.0,0.0,0.0,6.4,10.4,0.0,10.4,21.8,5.2,11.4,7.8,0.0,0.0,0.0,0.0,0.0,0.0,0.0,182.61
Caetité,CD-CL-01,Caetité,Caetité - CD-CL-01,-13.96659,-42.60482,São Francisco,RPGA do Rio Carnaíba de Dentro,7.75,12.5,10.0,6.1,9.1,18.2,18.5,0.3,0.1,0.1,3.3,1.2,0.8,13.4,4.3,6.8,14.1,11.0,29.6,16.2,24.7,5.0,0.6,1.3,0.8,1.9,3.3,2.0,0.8,0.8,224.55
Bom Jesus da Lapa,45480000,Bom Jesus da Lapa,Bom Jesus da Lapa - 45480000,-13.2572,-43.435,São Francisco,"RPGA do Rio Corrente e Riachos do Ramalho, Serra Dourada e Brejo Velho",0.6,6.4,8.8,13.4,36.2,0.0,0.4,0.0,0.0,0.2,0.0,0.0,0.0,0.0,0.0,0.0,5.2,3.0,14.2,20.6,1.4,3.8,18.6,0.0,0.2,0.0,0.0,0.0,0.0,0.0,133.01
Barra,46998000,Barra,Barra - 46998000,-11.0928,-43.1403,São Francisco,RPGA do Rio Grande,0.4,20.8,44.6,1.0,6.2,0.2,0.0,0.0,0.0,0.0,0.0,0.0,0.0,0.0,0.0,0.0,0.0,0.4,43.6,38.6,3.0,10.8,0.0,0.0,0.0,0.0,0.0,0.0,0.0,2.2,171.8
Boqueirão,46902000,Mansidão,Mansidão (Boqueirão) - 46902000,-11.345255,-43.826056,São Francisco,RPGA do Rio Grande,6.8,50.6,27.0,6.0,33.4,1.2,5.4,0.0,0.0,0.0,0.0,0.0,0.0,0.0,0.0,0.0,5.4,0.0,40.2,26.4,0.2,58.4,15.2,0.0,0.0,0.0,0.0,0.0,0.0,0.0,276.2
Volta da Serra,CD-CL-02,Paratinga,Paratinga (Volta da Serra) - CD-CL-02,-12.57591,-43.12782,São Francisco,RPGA do Rio Carnaíba de Dentro,9.2,56.8,66.6,20.0,16.2,10.8,5.0,0.0,0.0,0.0,0.0,0.0,0.0,0.0,0.0,0.0,3.0,0.0,14.4,0.2,0.2,12.0,0.0,0.0,0.0,0.0,0.0,0.0,0.0,0.0,214.4
Xique-Xique,PM-CL-05,Xique-Xique,Xique-Xique - PM-CL-05,-10.82519,-42.68914,São Francisco,RPGA dos Rios Paramirim e Santo Onofre,0.0,18.6,8.6,37.6,16.0,0.2,0.0,0.0,0.0,0.0,0.0,0.0,0.0,0.0,0.0,0.0,0.0,0.0,0.8,21.0,2.8,30.8,0.0,0.0,0.0,0.0,0.0,0.0,0.0,0.0,136.4
Boquira,290410001C,Boquira,Boquira - 290410001C,-12.809794,-42.71825,São Francisco,RPGA dos Rios Paramirim e Santo Onofre,11.8,29.6,85.0,57.0,13.8,7.4,6.6,0.0,0.0,0.0,0.0,0.0,0.0,0.0,0.0,0.0,0.0,0.6,9.6,8.6,1.0,1.2,0.0,0.0,0.0,0.0,0.0,5.0,0.0,0.0,237.2
Ibipitanga,291250901C,Ibipitanga,Ibipitanga - 291250901C,-12.88385,-42.4508,São Francisco,RPGA dos Rios Paramirim e Santo Onofre,42.6,33.4,97.8,39.2,7.4,8.2,6.2,0.2,0.0,0.0,0.0,0.0,0.0,0.0,0.0,0.0,0.0,1.0,1.8,40.0,14.0,11.8,0.2,0.2,0.0,0.0,0.0,3.6,0.0,0.0,307.6
Licínio de Almeida,291940501C,Licínio de Almeida,Licínio de Almeida - 291940501C,-14.688861,-42.503,São Francisco,RPGA do Rio de Contas,16.8,8.0,2.2,1.0,1.0,3.0,1.0,1.6,0.6,0.8,0.6,0.4,0.2,0.2,0.0,0.0,0.0,0.0,0.0,0.0,0.0,0.0,0.0,0.0,0.0,0.0,0.0,0.0,0.0,0.0,37.41
