nome_estacao,codigo,municipio,estacao,latitude,longitude,regiao,rpga,01_11_20,02_11_20,03_11_20,04_11_20,05_11_20,06_11_20,07_11_20,08_11_20,09_11_20,10_11_20,11_11_20,12_11_20,13_11_20,14_11_20,15_11_20,16_11_20,17_11_20,18_11_20,19_11_20,20_11_20,21_11_20,22_11_20,23_11_20,24_11_20,25_11_20,26_11_20,27_11_20,28_11_20,29_11_20,30_11_20,total
Lençóis,83242,Lençóis,Lençóis - 83242,-12.557,-41.389,Chapada Diamantina,RPGA do Rio Paraguaçu,23.3,12.6,44.4,35.0,19.8,46.8,4.9,0.0,0.0,0.0,0.0,0.1,0.0,0.0,0.0,0.0,0.0,0.0,24.0,33.1,6.0,30.4,0.5,0.0,1.8,7.0,1.5,6.1,1.2,9.4,307.9
Piatã,A430,Piatã,Piatã - A430,-13.156,-41.774,Chapada Diamantina,RPGA do Rio de Contas,46.8,48.4,53.6,8.4,10.6,12.8,3.4,0.2,0.0,0.0,0.0,0.0,0.0,0.0,0.0,1.4,1.2,10.0,0.0,25.2,1.0,53.4,0.2,1.4,2.0,8.8,3.0,0.4,0.2,0.0,292.4
Livramento de Nossa Senhora,291950401U,Livramento de Nossa Senhora,Livramento de Nossa Senhora - 291950401U,-13.683,-41.841,Chapada Diamantina,RPGA do Rio de Contas,10.0,47.4,26.8,14.2,42.0,89.0,38.6,0.0,0.0,0.0,0.0,0.0,0.0,0.0,0.0,0.0,0.0,15.4,2.6,23.2,1.4,10.2,7.4,0.0,0.0,0.0,1.8,0.0,0.0,0.0,330.0
Lençóis,A425,Lençóis,Lençóis - A425,-12.558,-41.389,Chapada Diamantina,RPGA do Rio Paraguaçu,22.0,13.4,52.8,32.8,19.0,45.4,4.6,0.0,0.0,0.0,0.0,0.0,0.0,0.0,0.0,0.0,0.0,0.0,24.0,34.2,5.8,28.4,0.4,0.0,2.0,6.8,1.6,6.2,1.4,9.0,309.8
Lagoa Bonita,PG-PR-15,Iacú,Iacú (Lagoa Bonita) - PG-PR-15,-12.932,-40.226,Chapada Diamantina,RPGA do Rio Paraguaçu,2.2,0.4,13.6,0.8,4.2,0.8,0.0,0.2,0.2,0.0,0.6,0.0,0.0,0.0,0.0,0.0,0.0,0.0,0.0,25.4,1.2,7.6,0.0,0.0,1.4,0.4,2.4,12.0,0.0,0.0,73.4
João Amaro,PG-PR-16,Iaçu,Iaçu (João Amaro) - PG-PR-16,-12.8,-40.363,Chapada Diamantina,RPGA do Rio Paraguaçu,6.0,0.8,38.0,5.0,0.2,0.2,0.0,0.0,2.2,0.0,4.0,0.0,0.0,0.0,0.0,0.0,0.0,0.0,0.0,16.4,0.6,21.4,0.0,0.0,0.2,2.0,0.0,0.8,0.6,1.8,100.2
Guiné,PG-PR-24,Mucugê,Mucugê (Guiné) - PG-PR-24,-12.772,-41.541,Chapada Diamantina,RPGA do Rio Paraguaçu,0.2,5.0,53.8,10.4,3.0,2.0,1.8,0.2,0.0,0.0,0.0,0.0,0.0,0.0,0.0,0.0,0.6,7.2,23.8,6.6,36.0,67.6,0.0,0.0,3.4,1.6,6.2,0.0,0.0,3.8,233.2
Machado Portela,PG-PR-26,Marcionílio Souza,Marcionílio Souza (Machado Portela) - PG-PR-26,-13.154,-40.768,Chapada Diamantina,RPGA do Rio Paraguaçu,43.2,8.8,90.1,2.2,15.6,8.2,0.0,0.0,0.2,0.0,0.0,0.0,0.0,0.0,0.0,0.0,0.0,0.0,0.0,10.4,20.8,15.0,0.0,0.0,0.6,5.0,2.8,5.2,0.0,0.0,228.1
Rio do Pires,PM-CL-04,Rio do Pires,Rio do Pires - PM-CL-04,-13.117,-42.284,Chapada Diamantina,RPGA dos Rios Paramirim e Santo Onofre,32.4,69.2,55.6,16.2,10.6,7.2,0.2,0.0,0.0,0.0,0.0,0.0,0.0,0.0,0.0,0.0,0.0,0.0,0.8,26.0,8.4,5.0,0.0,0.0,0.0,0.0,0.0,0.0,0.0,0.0,231.6
Iaçu,PG-CL-05,Iaçu,Iaçu - PG-CL-05,-12.911,-40.032,Chapada Diamantina,RPGA do Rio Paraguaçu,6.0,4.2,9.4,2.2,0.8,11.6,0.0,0.8,0.0,0.0,0.2,0.0,0.0,0.0,0.0,0.0,0.0,0.0,0.0,32.2,2.6,3.2,0.0,0.0,0.6,1.6,1.6,1.2,0.2,0.0,78.4
Ibiaporã,PG-CL-01,Mundo Novo,Mundo Novo (Ibiaporã) - PG-CL-01,-12.054,-40.837,Chapada Diamantina,RPGA do Rio Paraguaçu,1.6,0.2,2.0,0.0,0.4,0.2,0.0,0.0,0.0,0.0,0.0,0.0,0.0,0.0,0.0,0.0,0.0,0.0,0.0,35.0,5.8,0.0,0.0,0.0,0.2,0.0,0.0,0.0,0.0,0.0,45.4
Marcionílio Souza,PG-CL-03,Marcionílio Souza,Marcionílio Souza - PG-CL-03,-13.0,-40.538,Chapada Diamantina,RPGA do Rio Paraguaçu,29.8,8.0,66.2,1.8,14.8,2.4,0.0,0.0,0.4,0.0,0.0,0.0,0.0,0.0,0.0,0.0,0.0,0.0,0.0,6.6,1.8,13.2,0.0,0.0,1.0,3.0,1.6,15.2,1.8,0.0,167.6
Baixa Grande,PG-PR-08,Baixa Grande,Baixa Grande - PG-PR-08,-11.909,-40.184,Chapada Diamantina,RPGA do Rio Paraguaçu,0.0,22.2,13.6,0.0,3.2,0.0,0.0,0.0,0.0,0.0,0.2,0.0,0.0,0.2,0.0,0.0,0.0,0.0,8.8,47.2,3.8,9.2,0.0,0.0,0.4,2.2,14.6,1.0,1.0,5.0,132.6
Ventura,PG-PR-10,Morro do Chapéu,Morro do Chapéu (Ventura) - PG-PR-10,-11.651,-40.952,Chapada Diamantina,RPGA do Rio Paraguaçu,38.0,16.0,19.2,1.0,2.4,0.0,0.2,0.0,0.0,0.0,0.0,0.0,0.0,0.0,0.0,0.0,0.0,13.0,0.0,29.4,13.2,7.0,3.6,0.0,0.4,0.2,1.6,0.4,1.0,2.4,149.0
Bonito,PG-PR-11,Bonito,Bonito - PG-PR-11,-11.99,-41.254,Chapada Diamantina,RPGA do Rio Paraguaçu,1.4,29.2,10.4,13.0,32.4,2.2,0.4,0.0,0.0,0.0,0.0,0.0,0.0,0.0,0.0,0.0,0.0,5.4,0.2,9.2,10.4,42.2,7.2,0.0,2.8,2.4,3.0,1.4,7.6,9.2,190.0
Piatã,CO-CL-04,Piatã,Piatã - CO-CL-04,-13.164,-41.771,Chapada Diamantina,RPGA do Rio de Contas,72.0,59.0,47.5,10.8,9.5,6.5,2.2,0.0,0.0,0.0,0.0,0.0,0.0,0.0,0.0,1.5,1.2,27.2,0.0,28.2,1.2,47.0,0.0,2.5,2.2,6.2,6.5,0.2,0.5,0.0,332.2
Centro,291900901A,Lajedinho,Lajedinho (Centro) - 291900901A,-12.356,-40.902,Chapada Diamantina,RPGA do Rio Paraguaçu,41.2,9.8,17.4,0.8,9.4,0.6,0.2,1.0,0.0,0.0,0.2,0.0,0.0,0.0,0.0,0.0,0.0,0.2,0.0,73.6,12.0,54.2,0.6,0.0,0.0,1.8,2.6,2.0,4.0,4.0,235.6
PC Ponte Rio Capivari,51326200,Itaberaba,Itaberaba (PC Ponte Rio Capivari) - 51326200,-12.514,-39.934,Chapada Diamantina,RPGA do Rio Paraguaçu,2.0,4.4,18.8,0.4,0.0,4.0,0.0,0.4,0.0,0.0,0.0,0.0,0.0,0.0,0.0,0.0,0.0,0.0,0.0,58.0,3.2,19.6,0.0,0.0,2.4,0.0,0.4,0.2,1.6,1.4,116.8
Fazenda Terra Grapiúna,PG-FR-04,Wagner,Wagner (Fazenda Terra Grapiúna) - PG-FR-04,-12.181,-41.151,Chapada Diamantina,RPGA do Rio Paraguaçu,78.8,10.4,30.0,10.8,24.2,1.0,0.0,0.0,0.0,0.0,0.0,0.2,0.0,0.0,0.0,0.0,0.0,0.2,0.6,66.6,15.8,5.2,0.6,0.0,0.0,2.2,0.0,14.2,3.4,3.0,267.2
Itaberaba,291470301C,Itaberaba,Itaberaba - 291470301C,-12.458,-40.202,Chapada Diamantina,RPGA do Rio Paraguaçu,20.8,14.4,4.0,7.8,2.8,3.4,0.0,0.0,0.0,0.0,0.4,0.0,0.0,0.0,0.0,0.0,0.0,0.0,0.0,20.6,0.2,36.0,0.0,0.0,0.4,1.0,3.2,0.4,1.6,1.8,118.8
Utinga,293280401C,Utinga,Utinga - 293280401C,-12.076,-41.102,Chapada Diamantina,RPGA do Rio Paraguaçu,39.6,9.0,0.6,1.8,0.4,0.6,0.0,0.0,0.0,0.0,0.0,0.0,0.0,0.0,0.0,0.0,0.0,0.0,0.0,71.8,0.4,0.4,0.2,0.0,0.0,0.0,0.0,0.2,1.0,4.2,130.2
Barro Alto,290323501C,Barro Alto,Barro Alto - 290323501C,-11.812,-41.901,Chapada Diamantina,RPGA dos Rios Verde e Jacaré,2.4,7.2,70.0,16.4,0.0,0.0,0.0,0.0,0.0,0.0,0.0,0.0,0.0,0.0,0.0,0.0,0.0,0.0,0.6,22.6,12.0,10.0,0.0,0.0,0.0,0.0,0.0,0.0,0.0,0.2,141.4
Chorrochó,290770701C,Chorrochó,Chorrochó - 290770701C,-8.984,-39.118,Nordeste,RPGA dos Rios Macururé e Curaçá,0.0,27.2,49.0,0.0,0.0,0.0,0.0,0.0,0.0,2.0,0.0,0.0,0.0,0.0,0.0,0.0,0.0,0.0,0.0,0.0,1.8,0.0,0.0,0.0,0.0,0.0,0.0,0.0,0.0,0.0,80.0
Ladeira Vermelha,291750801A,Jacobina,Jacobina (Ladeira Vermelha) - 291750801A,-11.162,-40.554,Nordeste,RPGA do Rio Itapicuru,15.8,3.4,49.8,0.6,1.0,0.2,0.0,0.4,0.0,0.0,1.0,0.0,0.0,0.0,0.0,0.0,0.0,0.0,0.0,46.6,0.6,31.0,0.0,0.0,0.2,0.8,4.2,0.0,2.0,0.8,158.4
Feliz Tomaz,291750802A,Jacobina,Jacobina (Feliz Tomaz) - 291750802A,-11.174,-40.518,Nordeste,RPGA do Rio Itapicuru,9.8,31.0,26.4,1.0,3.6,1.2,0.6,0.6,0.2,0.0,1.4,0.2,0.0,0.0,0.0,0.0,0.0,0.0,0.0,70.4,1.6,38.0,0.8,2.2,0.0,2.8,9.6,0.4,2.0,4.4,208.2
Conde,A431,Conde,Conde - A431,-12.036,-37.683,Nordeste,RPGA do Rio Itapicuru,0.0,0.0,1.6,2.2,6.8,2.2,0.0,1.6,0.0,0.0,1.8,4.8,0.0,0.0,0.0,0.0,0.0,0.0,0.0,0.2,0.2,0.4,1.4,0.8,8.0,3.4,3.2,1.0,6.2,19.4,65.2
Uauá,A435,Uauá,Uauá - A435,-9.834,-39.496,Nordeste,RPGA do Rio Vaza-Barris,0.0,26.2,6.6,0.0,16.0,0.0,0.0,0.0,0.0,0.0,0.0,0.0,0.0,0.0,0.0,0.0,0.0,0.0,0.0,3.4,0.4,0.2,0.2,0.0,0.2,0.0,0.0,0.0,0.0,0.0,53.2
Euclides da Cunha,A442,Euclides da Cunha,Euclides da Cunha - A442,-10.537,-38.997,Nordeste,RPGA do Rio Itapicuru,0.0,10.4,17.2,11.6,0.4,0.0,0.0,0.2,0.0,0.0,0.0,0.0,0.0,0.0,0.0,0.0,0.0,0.0,0.0,85.2,18.6,11.4,0.0,1.0,1.8,2.4,3.8,0.0,1.2,0.2,165.4
Senhor do Bonfim,A428,Senhor do Bonfim,Senhor do Bonfim - A428,-10.443,-40.148,Nordeste,RPGA do Rio Itapicuru,0.0,38.2,66.2,0.0,9.4,0.0,0.0,0.0,0.0,0.0,0.0,0.0,0.0,0.0,0.0,0.0,0.0,0.0,0.0,25.8,0.0,5.6,0.0,0.0,0.0,0.0,0.0,0.0,1.2,0.2,146.6
Pedras Altas,50430000,Capim Grosso,Capim Grosso (Pedras Altas) - 50430000,-11.183,-40.047,Nordeste,RPGA do Rio Itapicuru,0.0,16.0,27.8,0.0,1.2,0.6,0.0,1.0,0.0,0.0,0.0,0.0,0.0,0.0,0.0,0.0,0.0,0.0,0.0,8.8,0.0,8.6,0.0,0.0,0.0,0.6,4.2,0.2,2.0,1.6,72.6
Ponto Novo,50380000,Ponto Novo,Ponto Novo - 50380000,-10.845,-40.113,Nordeste,RPGA do Rio Itapicuru,0.0,13.2,41.4,0.8,2.4,0.2,0.0,0.0,0.0,0.0,0.0,0.0,0.0,0.0,0.0,0.0,0.0,0.0,0.0,29.8,0.2,10.0,0.0,0.6,0.0,0.2,0.0,0.4,0.0,0.0,99.2
Capim Grosso,IT-CL-03,Capim Grosso,Capim Grosso - IT-CL-03,-11.368,-40.034,Nordeste,RPGA do Rio Itapicuru,0.4,42.2,17.4,0.4,1.4,0.0,0.0,0.0,0.0,0.0,0.2,0.0,0.0,0.0,0.0,0.0,0.0,0.0,0.0,21.6,0.2,14.8,0.0,0.0,1.4,1.6,0.0,1.2,1.8,1.4,106.0
Pé de Serra,PG-CL-07,Pé de Serra,Pé de Serra - PG-CL-07,-11.837,-39.659,Nordeste,RPGA do Rio Paraguaçu,0.2,42.2,11.8,0.0,0.8,0.0,0.0,0.0,0.0,0.0,0.0,0.0,0.0,0.0,0.0,0.0,0.0,0.0,0.0,12.0,0.2,21.4,0.0,0.0,0.0,0.2,4.6,0.4,0.8,2.2,96.8
Saúde,IT-CL-04,Saúde,Saúde - IT-CL-04,-10.957,-40.383,Nordeste,RPGA do Rio Itapicuru,24.2,76.0,23.6,2.2,4.0,0.0,0.0,0.0,0.0,0.0,0.0,0.2,0.0,0.0,0.0,0.0,0.0,0.0,0.0,10.2,4.4,44.8,0.0,0.0,0.0,0.6,0.4,1.4,0.8,0.2,193.0
Lajinha,IT-CL-06,Várzea do Poço,Várzea do Poço (Lajinha) - IT-CL-06,-11.496,-40.345,Nordeste,RPGA do Rio Itapicuru,1.8,57.4,18.2,1.6,1.2,0.2,0.0,0.0,0.0,0.0,0.0,0.0,0.4,12.8,0.0,0.0,0.2,0.0,0.0,19.8,5.0,14.8,0.0,0.0,0.0,0.0,0.0,0.0,0.0,3.8,137.2
Itapeipu,IT-PR-34,Jacobina,Jacobina (Itapeipu) - IT-PR-34,-11.316,-40.357,Nordeste,RPGA do Rio Itapicuru,3.2,19.6,25.4,3.0,2.6,0.2,0.0,0.0,0.0,0.0,1.2,0.0,0.0,0.0,0.0,0.0,0.2,0.0,0.4,21.0,10.8,20.2,0.0,0.0,0.0,2.4,0.0,2.8,0.8,2.8,116.6
Tombador Araújo,IT-PR-36,Jacobina,Jacobina (Tombador Araújo) - IT-PR-36,-11.169,-40.671,Nordeste,RPGA do Rio Itapicuru,18.6,8.0,57.6,2.2,0.0,0.0,0.0,0.0,0.0,0.0,1.2,0.0,0.0,0.0,0.0,0.0,0.0,0.0,0.2,15.0,0.2,2.0,0.2,0.0,0.0,1.2,2.4,0.0,0.8,0.0,109.6
Carrapichel,IT-PR-37,Senhor do Bonfim,Senhor do Bonfim (Carrapichel) - IT-PR-37,-10.388,-40.22,Nordeste,RPGA do Rio Itapicuru,0.0,27.6,36.4,0.4,13.2,0.0,0.0,75.4,0.0,0.0,0.0,0.0,0.0,0.0,0.0,0.0,0.0,0.0,0.0,12.8,0.0,5.2,0.0,0.2,0.0,0.0,0.0,0.2,3.0,1.6,176.0
Santaluz,IT-PR-17,Santaluz,Santaluz - IT-PR-17,-11.248,-39.376,Nordeste,RPGA do Rio Itapicuru,0.0,8.4,2.0,0.0,5.0,0.0,0.0,0.0,0.0,0.0,0.0,0.0,0.0,0.0,0.0,0.0,0.0,0.0,0.0,58.2,0.4,21.0,0.0,0.0,0.0,0.0,0.0,0.0,9.8,0.6,105.4
Fazenda Boa Vista,IT-PR-18,Uauá,Uauá (Fazenda Boa Vista) - IT-PR-18,-10.059,-39.706,Nordeste,RPGA do Rio Itapicuru,0.0,52.6,44.6,2.0,33.4,0.0,0.0,0.0,0.0,0.0,0.0,0.0,0.0,0.0,0.0,0.0,0.0,0.0,0.0,3.2,50.0,8.4,0.0,0.0,0.2,0.0,0.8,0.4,0.0,0.0,195.6
Quijingue,IT-PR-25,Quijingue,Quijingue - IT-PR-25,-10.784,-39.208,Nordeste,RPGA do Rio Itapicuru,0.2,5.0,13.6,2.0,5.6,0.6,0.0,0.2,0.2,0.0,0.0,0.0,0.0,0.4,0.0,0.0,0.2,0.0,0.0,27.0,3.2,18.2,0.0,0.6,0.0,0.2,0.2,0.4,1.0,0.4,79.2
Inhambupe,RN-CL-10,Inhambupe,Inhambupe - RN-CL-10,-11.693,-38.314,Nordeste,RPGA do Recôncavo Norte,0.0,0.0,43.4,1.2,30.0,0.0,0.0,2.6,0.2,0.0,0.0,0.2,0.0,0.0,0.2,0.0,0.0,0.0,0.0,4.8,0.0,0.0,0.0,0.2,0.6,0.4,23.8,0.2,7.4,10.4,125.6
Curral Falso,IT-PR-01,Ribeira do Pombal,Ribeira do Pombal (Curral Falso) - IT-PR-01,-10.698,-38.571,Nordeste,RPGA do Rio Itapicuru,0.0,9.0,21.6,0.4,12.2,0.0,0.2,0.0,0.0,0.0,0.0,0.0,0.0,0.0,0.0,0.0,0.0,0.0,0.0,15.6,0.2,4.2,0.0,0.8,0.0,0.0,1.8,0.4,0.4,2.0,68.8
Ribeira do Pombal,IT-PR-04,Ribeira do Pombal,Ribeira do Pombal - IT-PR-04,-10.823,-38.546,Nordeste,RPGA do Rio Itapicuru,0.0,4.4,24.4,1.4,6.0,0.0,0.0,0.0,0.0,0.0,0.0,0.0,0.0,0.0,0.0,0.0,0.0,0.0,0.0,24.2,0.0,1.0,0.0,2.2,2.6,0.0,0.2,0.2,6.2,1.2,74.0
Crisópolis,IT-PR-08,Crisópolis,Crisópolis - IT-PR-08,-11.511,-38.121,Nordeste,RPGA do Rio Itapicuru,0.0,0.0,4.4,2.0,92.6,0.2,0.2,0.2,0.0,0.2,0.2,0.0,0.0,0.0,0.0,0.0,0.0,0.0,0.0,0.0,0.0,0.0,0.0,0.0,1.0,0.4,9.6,2.8,4.6,10.8,129.2
Estação Experimental,IT-PR-10,Nova Soure,Nova Soure (Estação Experimental) - IT-PR-10,-11.308,-38.536,Nordeste,RPGA do Rio Itapicuru,0.0,1.2,3.0,0.4,22.0,12.8,0.2,0.0,0.0,0.2,0.0,0.0,0.0,0.0,0.0,0.0,0.0,0.0,0.0,10.2,0.0,0.0,0.0,0.0,3.6,0.0,0.6,0.2,2.4,2.8,59.6
Boa Hora,IT-PR-13,Ribeira do Amparo,Ribeira do Amparo (Boa Hora) - IT-PR-13,-10.965,-38.523,Nordeste,RPGA do Rio Itapicuru,0.0,2.6,6.4,1.6,3.6,0.0,0.4,0.0,0.0,0.0,0.0,0.0,0.0,0.0,0.0,0.0,0.0,0.0,0.0,33.4,0.0,0.0,0.0,0.0,0.2,0.0,0.0,0.2,8.2,1.2,57.8
Jeremoabo,A450,Jeremoabo,Jeremoabo - A450,-10.081,-38.346,Nordeste,RPGA do Rio Vaza-Barris,1.4,4.4,90.0,0.2,0.2,0.0,0.0,0.0,0.6,0.8,0.6,0.0,0.0,0.0,0.0,0.0,0.0,0.0,0.0,11.4,0.2,2.4,0.0,0.0,0.0,0.0,0.0,0.0,0.8,0.6,113.6
Fazenda Alecrim ,IT-FR-21,Filadélfia,Filadélfia (Fazenda Alecrim ) - IT-FR-21,-10.752,-40.224,Nordeste,RPGA do Rio Itapicuru,14.0,69.2,38.8,1.6,10.0,0.0,0.0,0.2,0.0,0.0,0.0,0.0,0.0,0.0,0.0,0.0,0.0,0.0,0.0,7.0,0.0,2.2,0.0,0.0,0.0,0.0,0.0,0.4,0.2,0.0,143.6
Queimadas,IT-FR-26,Queimadas,Queimadas - IT-FR-26,-10.973,-39.633,Nordeste,RPGA do Rio Itapicuru,2.2,11.4,25.2,0.0,0.2,0.0,0.0,0.0,0.0,0.0,0.0,0.0,0.0,0.0,0.0,0.0,0.0,0.0,0.0,23.8,0.8,3.6,0.0,0.0,0.0,0.0,0.0,0.0,5.6,0.0,72.8
Quixabeira,292593101C,Quixabeira,Quixabeira - 292593101C,-11.373,-40.129,Nordeste,RPGA do Rio Itapicuru,3.6,65.2,32.2,0.0,5.6,0.0,0.0,0.0,0.0,0.0,0.0,0.0,0.0,0.0,0.0,0.0,0.0,0.0,0.0,33.6,0.6,0.0,0.0,0.0,0.4,0.2,0.0,0.2,0.0,0.4,142.0
Itaberaba,291840701A,Juazeiro,Juazeiro (Itaberaba) - 291840701A,-9.448,-40.485,Norte,RPGA dos Rios Macururé e Curaçá,0.4,38.2,65.2,6.6,34.6,0.0,0.0,0.0,0.0,0.0,0.0,0.0,0.0,0.0,0.0,0.0,0.0,0.0,3.4,8.0,0.2,0.0,0.0,0.0,0.0,0.0,0.0,0.0,0.0,0.0,156.6
Maria Gorete,291840703A,Juazeiro,Juazeiro (Maria Gorete) - 291840703A,-9.42,-40.499,Norte,RPGA dos Rios Macururé e Curaçá,1.0,39.6,58.2,5.6,33.6,0.0,0.0,0.0,0.0,0.0,0.0,0.0,0.0,0.0,0.0,0.0,0.0,0.0,5.6,7.4,0.4,0.2,0.0,0.0,0.0,0.0,0.0,0.0,0.0,0.0,151.6
João Paulo II,291840704A,Juazeiro,Juazeiro (João Paulo II) - 291840704A,-9.471,-40.498,Norte,RPGA dos Rios Macururé e Curaçá,1.8,43.6,44.4,4.4,26.2,0.0,0.0,0.0,0.0,0.0,0.0,0.0,0.0,0.0,0.0,0.0,0.0,0.0,5.2,8.0,0.4,0.2,0.0,0.0,0.0,0.0,0.0,0.0,0.0,0.0,134.2
Lapão,291915701A,Lapão,Lapão - 291915701A,-11.38,-41.83,Norte,RPGA dos Rios Verde e Jacaré,0.0,5.4,147.8,54.0,3.2,0.0,0.0,0.0,0.0,0.0,0.0,0.0,0.0,0.0,0.0,0.0,0.0,0.0,0.6,10.8,1.8,2.8,0.0,0.0,0.0,0.0,0.0,0.0,0.0,0.0,226.4
Centro,290115501A,América Dourada,América Dourada (Centro) - 290115501A,-11.45,-41.434,Norte,RPGA dos Rios Verde e Jacaré,2.2,15.2,60.6,9.0,28.0,5.4,0.0,0.0,0.0,0.0,0.0,0.0,0.0,0.0,0.0,0.0,0.0,0.0,3.2,6.4,0.0,33.0,0.2,0.0,0.0,0.0,0.0,0.0,0.4,0.0,163.6
Irecê,A424,Irecê,Irecê - A424,-11.329,-41.865,Norte,RPGA dos Rios Verde e Jacaré,0.0,10.4,138.4,82.0,2.6,0.0,0.0,0.0,0.0,0.0,0.0,0.0,0.0,0.0,0.0,0.0,0.0,0.0,0.8,38.0,2.6,2.6,0.0,0.0,0.0,0.0,0.0,0.0,0.0,1.6,279.0
Campo Formoso,IT-CL-02,Campo Formoso,Campo Formoso - IT-CL-02,-10.471,-40.334,Norte,RPGA do Rio Itapicuru,0.2,71.6,74.8,0.8,18.8,0.0,0.0,0.2,0.0,0.0,0.0,0.0,0.0,0.0,0.0,0.0,0.0,0.0,0.0,12.6,0.0,5.4,0.0,1.4,0.0,0.2,0.2,0.4,5.2,2.4,194.2
Sento Sé,SO-CL-01,Sento Sé,Sento Sé - SO-CL-01,-9.782,-41.819,Norte,RPGA do Lago de Sobradinho,0.0,0.2,12.2,46.0,3.8,0.0,0.0,0.0,0.0,0.0,0.0,0.0,0.0,0.0,0.0,0.0,0.0,0.0,0.0,56.4,0.6,1.8,0.0,0.0,0.0,0.0,0.0,0.0,0.0,0.0,121.0
Juazeiro,48020000,Juazeiro,Juazeiro - 48020000,-9.406,-40.504,Norte,RPGA dos Rios Macururé e Curaçá,0.2,46.2,52.4,0.0,47.2,0.0,0.0,0.0,0.0,0.0,0.0,0.0,0.0,0.0,0.0,0.0,0.0,0.0,4.8,8.2,1.2,0.2,0.0,0.0,0.0,0.0,0.0,0.0,0.0,0.0,160.4
Aeródromo,SA-PR-03,Campo Formoso,Campo Formoso (Aeródromo) - SA-PR-03,-10.49,-40.487,Norte,RPGA do Rio Itapicuru,31.2,60.8,0.6,0.0,11.2,0.0,0.0,2.8,0.0,0.0,0.0,0.0,0.0,0.0,0.0,0.0,0.0,0.0,0.0,8.6,0.0,14.8,0.0,0.4,0.2,0.0,0.2,0.0,4.6,0.0,135.4
Santa Rosa,SM-PR-01,Jaguarari,Jaguarari (Santa Rosa) - SM-PR-01,-10.098,-39.87,Norte,RPGA dos Rios Macururé e Curaçá,0.0,36.4,22.8,1.2,11.8,0.0,0.0,1.6,0.0,0.0,0.0,0.0,0.0,0.0,0.0,0.0,0.0,0.0,4.8,25.6,8.8,37.6,0.0,0.0,0.6,0.2,0.2,1.0,0.0,0.0,152.6
Jaguarari,IT-PR-28,Jaguarari,Jaguarari - IT-PR-28,-10.269,-40.2,Norte,RPGA do Rio Itapicuru,0.2,50.4,25.2,0.8,13.8,0.0,0.0,0.2,0.0,0.0,0.0,0.0,0.0,0.0,0.0,0.0,0.0,0.0,18.6,6.8,0.0,2.2,0.0,0.0,0.0,0.4,1.0,0.0,0.0,0.2,119.8
Nova Vida Montante,46590000,Barreiras,Barreiras (Nova Vida Montante) - 46590000,-11.868,-45.085,Oeste,RPGA do Rio Grande,5.2,0.0,7.6,1.6,102.8,12.2,46.4,0.0,0.0,0.0,0.0,0.0,0.0,0.0,0.0,13.9,32.8,0.0,0.4,0.0,16.2,13.4,0.2,0.0,0.0,0.0,0.0,0.0,0.0,0.0,252.7
Barreiras,83236,Barreiras,Barreiras - 83236,-12.156,-45.008,Oeste,RPGA do Rio Grande,27.4,0.0,5.9,1.0,66.4,20.9,19.0,0.0,0.0,0.0,0.0,0.0,0.0,0.0,0.0,0.0,61.9,0.0,2.0,0.0,21.8,4.0,0.0,7.2,0.0,0.0,0.0,0.0,0.0,0.0,237.5
Derocal,46455000,São Desidério,São Desidério (Derocal) - 46455000,-12.413,-45.121,Oeste,RPGA do Rio Grande,17.6,0.4,7.0,3.2,15.8,0.2,12.0,0.0,0.0,0.0,0.0,0.0,0.0,0.0,0.0,1.2,44.4,3.2,0.0,10.0,17.2,22.6,7.0,0.0,0.0,0.0,0.0,0.0,0.0,0.0,161.8
Arrojado,45770000,Correntina,Correntina (Arrojado) - 45770000,-13.453,-44.569,Oeste,"RPGA do Rio Corrente e Riachos do Ramalho, Serra Dourada e Brejo Velho",2.6,3.4,55.6,36.4,27.4,2.2,0.2,0.4,0.0,0.0,0.0,0.0,0.0,0.0,0.0,12.8,51.0,0.0,22.6,1.6,6.0,21.8,58.2,1.6,0.0,0.0,0.0,0.0,0.0,0.0,303.8
Correntina,45590000,Correntina,Correntina - 45590000,-13.341,-44.639,Oeste,"RPGA do Rio Corrente e Riachos do Ramalho, Serra Dourada e Brejo Velho",5.2,0.4,45.4,30.4,60.0,5.2,0.4,0.0,0.0,0.0,0.0,0.0,0.0,0.0,0.0,5.2,12.0,0.4,15.2,0.8,4.6,13.0,31.0,0.2,0.0,0.0,0.0,0.0,0.0,0.0,229.4
Fazenda Redenção,46543000,Barreiras,Barreiras (Fazenda Redenção) - 46543000,-12.136,-45.103,Oeste,RPGA do Rio Grande,64.2,3.0,6.2,1.2,25.0,0.8,4.2,0.2,0.0,0.0,0.0,0.0,0.0,0.0,0.0,4.2,30.4,4.0,0.0,0.0,18.6,27.2,0.0,4.0,0.0,0.0,0.0,0.0,0.0,0.0,193.2
Fazenda Santa Luzia,CA-CL-01,Cocos,Cocos (Fazenda Santa Luzia) - CA-CL-01,-14.855,-45.936,Oeste,RPGA do Rio Carinhanha,0.4,6.4,19.2,0.2,23.4,0.0,0.0,0.2,0.0,0.0,0.0,0.0,0.0,1.6,0.6,0.0,19.2,23.8,2.6,0.0,0.0,4.4,9.2,1.6,0.2,0.0,0.0,0.0,0.0,0.0,113.0
Fazenda Morinaga,CT-CL-01,Correntina,Correntina (Fazenda Morinaga) - CT-CL-01,-13.752,-45.87,Oeste,"RPGA do Rio Corrente e Riachos do Ramalho, Serra Dourada e Brejo Velho",8.2,16.4,17.2,14.4,10.4,15.4,21.8,10.0,0.0,0.0,0.0,0.0,0.0,0.0,0.0,1.6,0.8,11.0,4.4,9.8,24.8,37.6,11.4,8.8,0.6,0.0,0.0,0.0,0.0,0.0,224.6
Fazenda Madras,GR-CL-04,Riachão das Neves,Riachão das Neves (Fazenda Madras) - GR-CL-04,-11.63,-44.846,Oeste,RPGA do Rio Grande,0.8,0.0,9.4,16.0,80.6,6.0,2.2,0.0,0.0,0.0,0.0,0.0,0.0,0.0,0.0,0.0,17.4,3.8,7.8,0.2,10.4,7.8,3.6,2.2,1.4,0.6,0.0,0.0,0.0,0.0,170.2
Fazenda Barcelona,GR-CL-03,Formosa do Rio Preto,Formosa do Rio Preto (Fazenda Barcelona) - GR-CL-03,-11.591,-46.022,Oeste,RPGA do Rio Grande,1.0,1.8,0.4,5.6,33.4,17.0,3.2,0.0,0.0,0.0,0.0,0.0,0.0,0.0,0.0,0.0,17.4,6.2,16.6,0.0,1.2,10.4,2.6,0.0,0.0,0.0,0.0,0.0,0.0,0.0,116.8
PCH Pres. Goulart-M1,45588000,Correntina,Correntina (PCH Pres. Goulart-M1) - 45588000,-13.341,-44.641,Oeste,"RPGA do Rio Corrente e Riachos do Ramalho, Serra Dourada e Brejo Velho",2.6,0.0,38.8,16.2,32.8,4.6,0.0,0.0,0.0,0.0,0.0,0.0,0.0,0.0,0.0,3.4,7.4,0.0,8.6,0.2,2.8,5.2,11.8,0.0,0.0,0.0,0.0,0.0,0.0,0.0,134.4
PCH Sítio Grande-J,46453500,São Desidério,São Desidério (PCH Sítio Grande-J) - 46453500,-12.429,-45.153,Oeste,RPGA do Rio Grande,9.0,0.0,3.4,5.6,21.6,4.4,16.6,0.0,0.0,0.0,0.0,0.0,0.0,0.0,0.0,3.0,43.0,3.8,0.2,8.8,20.2,9.2,6.8,0.0,0.0,0.0,0.0,0.0,0.0,0.0,155.6
COACERAL,GR-CL-02,Formosa do Rio Preto,Formosa do Rio Preto (COACERAL) - GR-CL-02,-10.562,-45.693,Oeste,RPGA do Rio Grande,60.2,0.8,2.5,11.2,7.2,2.0,28.0,0.0,0.0,0.0,0.0,0.0,0.0,0.0,0.0,0.0,9.8,9.8,0.2,0.0,0.0,55.2,2.2,0.0,0.0,0.0,0.0,0.0,0.0,0.0,189.2
J. Zoológico,A401,Salvador,Salvador (J. Zoológico) - A401,-13.006,-38.506,Recôncavo,RPGA do Recôncavo Norte,0.0,29.0,8.4,5.6,37.4,4.4,3.0,0.0,0.0,0.0,0.0,0.0,0.6,0.0,0.0,0.0,0.0,0.0,0.0,33.0,1.6,0.6,0.0,0.0,2.6,3.2,2.2,3.2,2.2,4.4,141.4
Periperi,292740820A,Salvador,Salvador (Periperi) - 292740820A,-12.867,-38.458,Recôncavo,RPGA do Recôncavo Norte,0.0,1.6,13.4,13.6,20.2,4.2,0.2,2.4,0.0,0.0,0.0,2.8,0.0,0.0,0.0,0.0,0.0,0.0,0.0,49.4,1.2,29.6,0.0,3.8,4.4,0.2,3.2,4.4,9.6,9.4,173.6
Mussurunga,292740821A,Salvador,Salvador (Mussurunga) - 292740821A,-12.908,-38.44,Recôncavo,RPGA do Recôncavo Norte,0.0,6.4,27.4,13.2,3.2,9.4,0.0,0.2,0.6,0.0,0.0,0.6,0.0,0.0,0.0,0.0,0.0,0.0,0.0,66.0,1.0,0.0,0.0,1.8,1.8,5.0,1.8,14.6,6.4,6.8,166.2
Itapuã,292740819A,Salvador,Salvador (Itapuã) - 292740819A,-12.948,-38.37,Recôncavo,RPGA do Recôncavo Norte,0.0,7.8,20.2,9.4,13.0,1.6,0.0,1.0,0.0,0.0,0.0,0.0,0.0,0.0,0.0,0.0,0.0,0.0,0.0,56.2,1.2,0.0,0.0,1.2,1.2,6.4,1.8,8.6,7.2,0.6,137.4
Tancredo Neves,292740823A,Salvador,Salvador (Tancredo Neves) - 292740823A,-12.945,-38.453,Recôncavo,RPGA do Recôncavo Norte,0.2,7.4,15.6,9.6,9.2,0.0,0.2,0.0,0.4,0.0,0.0,0.0,0.0,0.0,0.0,0.0,0.0,0.0,0.0,28.4,1.8,25.0,0.0,0.0,1.0,7.0,0.4,2.6,6.8,4.0,119.6
Estação Rádio Marinha,A456,Salvador,Salvador (Estação Rádio Marinha) - A456,-12.808,-38.496,Recôncavo,RPGA do Recôncavo Norte,0.0,3.0,4.0,2.8,5.0,3.6,0.0,0.0,0.0,0.0,0.0,0.4,0.0,0.0,0.0,0.0,0.0,0.0,0.0,49.8,0.6,2.2,0.0,0.0,0.2,5.6,1.2,5.4,7.2,7.8,98.8
Cachoeira,290490201A,Cachoeira,Cachoeira - 290490201A,-12.608,-38.961,Recôncavo,RPGA do Rio Paraguaçu,0.4,14.6,1.2,0.2,2.8,10.6,0.0,0.0,0.0,0.0,0.0,0.0,0.0,0.0,0.0,0.0,0.0,0.0,0.0,24.4,1.2,0.0,0.0,0.0,2.2,1.0,5.8,3.4,5.4,5.4,78.6
Centro,291345701A,Igrapiúna,Igrapiúna (Centro) - 291345701A,-13.819,-39.142,Recôncavo,RPGA do Recôncavo Sul,0.2,16.0,3.0,0.0,0.4,1.8,0.6,1.0,0.0,0.0,1.4,0.0,0.0,0.0,0.0,0.0,0.0,0.0,0.2,11.0,48.0,56.2,0.2,0.4,12.8,10.2,9.0,2.6,0.4,0.8,176.2
São Félix,292900801A,São Félix,São Félix - 292900801A,-12.607,-38.97,Recôncavo,RPGA do Rio Paraguaçu,0.2,15.6,0.8,0.2,2.2,12.0,0.2,0.0,0.0,0.0,0.0,0.0,0.0,0.0,0.0,0.0,0.0,0.0,0.0,21.6,0.2,0.0,0.0,0.0,2.6,1.2,4.6,3.0,4.0,4.0,72.4
Góes Calmon,293070901A,Simões Filho,Simões Filho (Góes Calmon) - 293070901A,-12.78,-38.353,Recôncavo,RPGA do Recôncavo Norte,0.0,0.4,16.2,5.4,0.4,10.6,0.0,0.2,0.0,0.0,0.2,1.2,0.0,0.0,0.0,0.0,0.0,0.0,0.0,83.8,0.2,0.2,0.0,0.2,3.4,12.4,3.0,7.2,5.6,2.8,153.4
Centro,293070903A,Simões Filho,Simões Filho (Centro) - 293070903A,-12.788,-38.397,Recôncavo,RPGA do Recôncavo Norte,0.0,1.0,16.6,6.8,0.4,23.2,0.0,0.0,0.0,0.0,0.0,0.0,0.0,0.0,0.0,0.0,0.0,0.0,0.0,89.4,0.4,14.0,0.0,0.0,2.2,4.4,2.4,6.4,11.6,1.6,180.4
Amargosa,A434,Amargosa,Amargosa - A434,-13.009,-39.617,Recôncavo,RPGA do Recôncavo Sul,4.8,23.2,14.2,0.0,0.8,13.8,0.0,2.8,0.4,0.0,3.4,0.0,0.0,0.0,0.0,0.0,0.0,0.0,0.0,27.4,44.6,6.4,0.0,2.4,4.8,9.0,8.2,8.6,5.0,5.2,185.0
Ondina,83229,Salvador,Salvador (Ondina) - 83229,-13.005,-38.506,Recôncavo,RPGA do Recôncavo Norte,0.0,32.0,10.2,6.6,41.2,5.1,0.0,0.0,0.0,0.0,0.0,0.0,0.0,0.0,0.0,0.0,0.0,0.0,0.0,26.4,1.7,0.9,0.0,0.0,3.0,3.4,2.8,3.8,2.3,4.9,144.3
Feira de Santana,PG-PR-13,Feira de Santana,Feira de Santana - PG-PR-13,-12.268,-38.966,Recôncavo,RPGA do Rio Paraguaçu,0.0,0.0,0.2,0.0,5.6,0.0,0.0,0.0,0.0,0.0,0.0,0.0,0.0,0.0,0.0,0.0,0.0,0.0,0.0,48.8,1.0,0.0,0.0,0.0,0.4,1.8,0.0,0.6,1.4,4.4,64.2
Centro,292740802A,Salvador,Salvador (Centro) - 292740802A,-12.978,-38.516,Recôncavo,RPGA do Recôncavo Norte,0.0,18.3,6.4,4.0,17.1,1.2,0.0,0.0,0.0,0.0,0.0,0.0,0.0,0.0,0.0,0.0,0.0,0.0,0.0,11.3,0.8,1.0,0.0,0.0,1.2,0.4,1.0,2.0,1.2,0.0,65.8
São tomé de Paripe,292740806A,Salvador,Salvador (São tomé de Paripe) - 292740806A,-12.796,-38.489,Recôncavo,RPGA do Recôncavo Norte,0.0,3.2,4.8,8.0,1.2,1.8,2.6,0.4,0.0,0.0,0.0,0.0,0.0,0.0,0.0,0.0,0.0,1.2,0.0,4.6,24.6,0.4,0.2,0.0,1.0,1.8,2.2,4.5,13.0,3.4,78.8
Federação,292740803A,Salvador,Salvador (Federação) - 292740803A,-13.001,-38.511,Recôncavo,RPGA do Recôncavo Norte,0.0,34.2,11.5,7.8,35.8,8.1,0.0,0.2,0.0,0.0,0.0,0.0,0.0,0.0,0.0,0.0,0.0,0.0,0.0,23.6,1.8,1.0,0.0,0.0,3.6,3.4,2.6,1.6,1.0,3.9,139.9
Cabula,292740810A,Salvador,Salvador (Cabula) - 292740810A,-12.961,-38.461,Recôncavo,RPGA do Recôncavo Norte,0.0,16.2,15.5,11.3,20.9,0.2,0.0,0.0,0.0,0.0,0.0,0.0,0.0,0.0,0.0,0.0,0.0,0.0,0.0,27.9,2.0,26.6,0.0,0.0,0.2,2.2,2.2,2.2,3.2,1.2,131.6
Santo Estevão,PG-CL-08,Santo Estevão,Santo Estevão - PG-CL-08,-12.435,-39.212,Recôncavo,RPGA do Rio Paraguaçu,2.0,1.6,7.4,0.2,1.0,22.6,0.0,0.0,0.0,0.0,0.0,0.0,0.0,0.0,0.0,0.0,0.0,0.0,0.0,61.2,0.0,58.4,0.0,0.0,3.8,0.6,4.2,0.6,1.8,2.8,168.2
Caminho das Árvores,292740815A,Salvador,Salvador (Caminho das Árvores) - 292740815A,-12.977,-38.454,Recôncavo,RPGA do Recôncavo Norte,0.0,30.7,16.4,10.1,17.9,0.4,0.0,0.0,0.0,0.0,0.0,0.0,0.0,0.0,0.0,0.0,0.0,0.0,0.0,1.8,0.0,18.5,0.0,0.0,0.0,3.0,0.8,0.0,0.0,0.0,99.6
Águas Claras,292740808A,Salvador,Salvador (Águas Claras) - 292740808A,-12.894,-38.442,Recôncavo,RPGA do Recôncavo Norte,0.0,6.1,12.7,9.2,10.1,0.6,0.0,1.2,0.0,0.0,0.0,2.0,0.0,0.0,0.0,0.0,0.0,0.0,0.0,36.4,1.2,44.0,0.0,3.4,2.4,3.2,5.7,8.5,8.2,4.9,159.6
Alto do Peru,292740812A,Salvador,Salvador (Alto do Peru) - 292740812A,-12.939,-38.486,Recôncavo,RPGA do Recôncavo Norte,0.0,15.5,16.4,11.2,29.6,0.2,0.2,0.2,0.4,0.0,0.0,0.2,0.0,0.0,0.0,0.0,0.0,0.0,0.0,27.0,2.0,5.3,0.0,0.0,1.0,5.7,0.6,1.8,6.9,5.7,129.8
CAB,292740811A,Salvador,Salvador (CAB) - 292740811A,-12.943,-38.421,Recôncavo,RPGA do Recôncavo Norte,0.0,6.5,18.4,10.0,36.7,1.0,0.0,0.6,0.0,0.0,0.0,0.0,0.0,0.0,0.0,0.0,0.0,0.0,0.0,38.4,1.8,0.4,0.0,0.0,0.0,7.9,0.6,2.8,3.0,2.2,130.0
Cosme de Farias,292740816A,Salvador,Salvador (Cosme de Farias) - 292740816A,-12.979,-38.486,Recôncavo,RPGA do Recôncavo Norte,0.0,33.4,15.0,9.0,29.1,5.1,0.0,0.0,0.0,0.0,0.0,0.0,0.0,0.0,0.0,0.0,0.0,0.0,0.0,35.8,1.4,1.4,0.0,0.0,0.0,3.4,2.8,3.9,2.2,0.0,142.4
São Caetano,292740814A,Salvador,Salvador (São Caetano) - 292740814A,-12.94,-38.475,Recôncavo,RPGA do Recôncavo Norte,0.0,9.2,15.0,8.8,19.5,0.0,0.0,0.6,0.6,0.0,0.0,0.0,0.0,0.0,0.0,0.0,0.0,0.0,0.0,36.6,1.8,10.1,0.0,0.0,2.2,6.9,1.2,1.2,5.7,4.3,123.7
Pirajá,292740801A,Salvador,Salvador (Pirajá) - 292740801A,-12.899,-38.459,Recôncavo,RPGA do Recôncavo Norte,0.0,6.1,15.1,12.9,11.0,0.0,0.0,1.6,0.0,0.0,0.0,2.0,0.0,0.0,0.0,0.0,0.0,0.0,0.0,39.1,1.2,31.0,0.2,3.9,0.0,0.2,1.0,13.7,8.9,7.5,155.4
Rio Sena,292740805A,Salvador,Salvador (Rio Sena) - 292740805A,-12.891,-38.471,Recôncavo,RPGA do Recôncavo Norte,0.0,6.3,14.8,15.3,15.6,0.2,0.0,0.8,0.0,0.0,0.0,5.0,0.0,0.0,0.0,0.0,0.0,0.0,0.0,36.6,3.4,24.1,0.0,3.6,0.0,3.0,2.6,8.6,4.4,8.4,152.6
Valéria,292740817A,Salvador,Salvador (Valéria) - 292740817A,-12.864,-38.438,Recôncavo,RPGA do Recôncavo Norte,0.0,1.4,11.7,9.0,21.7,3.2,0.0,0.8,0.0,0.0,0.0,0.4,0.0,0.0,0.0,0.0,0.0,0.0,0.0,46.6,1.0,31.7,0.0,0.6,0.0,0.2,4.1,7.9,12.0,13.2,165.5
Monte Serrat,292740804A,Salvador,Salvador (Monte Serrat) - 292740804A,-12.931,-38.517,Recôncavo,RPGA do Recôncavo Norte,0.0,26.4,6.4,2.6,56.7,0.4,0.0,0.2,1.0,0.0,0.0,1.2,0.0,0.0,0.0,0.0,0.0,0.0,0.0,43.4,10.2,3.2,0.0,0.0,0.2,2.8,2.4,2.8,4.9,5.9,170.6
Santa Terezinha,290650105A,Candeias,Candeias (Santa Terezinha) - 290650105A,-12.647,-38.539,Recôncavo,RPGA do Recôncavo Norte,0.0,14.2,11.1,2.6,1.2,0.6,0.0,0.0,0.0,0.0,0.0,0.0,0.0,0.0,0.0,0.0,0.0,0.8,0.0,29.1,0.0,8.1,0.0,0.0,5.3,2.0,9.9,0.4,2.0,1.6,88.7
Centro,290650101A,Candeias,Candeias (Centro) - 290650101A,-12.67,-38.544,Recôncavo,RPGA do Recôncavo Norte,0.0,28.5,25.2,3.0,1.6,0.4,0.0,0.0,0.0,0.2,0.0,0.0,0.0,0.0,0.0,0.0,0.0,0.0,0.0,39.5,0.0,8.6,0.0,0.0,4.1,5.0,10.5,0.4,3.2,4.2,134.4
Malemba,290650102A,Candeias,Candeias (Malemba) - 290650102A,-12.678,-38.544,Recôncavo,RPGA do Recôncavo Norte,0.0,29.1,33.0,4.2,2.2,1.2,0.0,0.0,0.2,0.2,0.0,0.0,0.0,0.0,0.0,0.0,0.0,0.0,0.0,48.6,0.0,9.8,0.0,0.0,3.4,3.0,10.2,0.6,5.1,3.6,154.3
Sarandi,290650104A,Candeias,Candeias (Sarandi) - 290650104A,-12.671,-38.531,Recôncavo,RPGA do Recôncavo Norte,0.0,20.7,27.2,4.8,1.4,0.0,0.0,0.0,0.0,0.4,0.0,0.2,0.0,0.0,0.0,0.0,0.0,0.0,0.0,32.4,0.0,10.1,0.0,0.0,7.9,4.1,11.8,0.8,3.0,3.7,128.6
Areia Branca,291920706A,Lauro de Freitas,Lauro de Freitas (Areia Branca) - 291920706A,-12.841,-38.337,Recôncavo,RPGA do Recôncavo Norte,0.0,5.0,13.8,9.4,2.2,12.6,0.0,0.4,0.0,0.0,0.0,1.4,0.0,0.0,0.0,0.0,0.0,0.0,0.0,73.3,0.6,0.0,0.0,0.0,2.2,1.4,4.5,4.4,12.3,1.6,144.9
Itinga 02,291920704A,Lauro de Freitas,Lauro de Freitas (Itinga 02) - 291920704A,-12.89,-38.353,Recôncavo,RPGA do Recôncavo Norte,0.0,2.4,28.4,14.1,2.0,13.4,0.0,1.2,0.0,0.0,0.0,0.6,0.0,0.0,0.0,0.0,0.0,0.0,0.0,57.1,0.8,0.0,0.0,0.0,0.8,1.2,4.4,7.9,6.3,12.8,153.2
Vila Praiana,291920702A,Lauro de Freitas,Lauro de Freitas (Vila Praiana) - 291920702A,-12.901,-38.308,Recôncavo,RPGA do Recôncavo Norte,0.0,4.0,26.5,17.1,2.8,2.8,0.0,0.0,0.0,0.0,0.6,0.2,0.0,0.0,0.0,0.0,0.0,0.0,0.0,54.7,1.4,0.0,0.0,0.0,0.0,3.0,4.0,3.4,1.0,8.9,130.0
Portão,291920701A,Lauro de Freitas,Lauro de Freitas (Portão) - 291920701A,-12.87,-38.305,Recôncavo,RPGA do Recôncavo Norte,0.0,4.2,23.8,14.4,2.4,6.7,0.0,0.4,0.0,0.0,0.6,0.2,0.0,0.0,0.0,0.0,0.0,0.0,0.0,67.5,0.8,0.0,0.2,0.0,0.0,2.0,2.6,2.8,9.1,3.8,141.3
Rua 02 de Julho,291920705A,Lauro de Freitas,Lauro de Freitas (Rua 02 de Julho) - 291920705A,-12.839,-38.35,Recôncavo,RPGA do Recôncavo Norte,0.0,12.6,13.2,6.0,1.4,13.4,0.2,0.6,0.0,0.0,0.0,1.0,0.0,0.0,0.0,0.0,0.0,0.0,0.0,84.4,1.2,0.2,0.0,0.0,0.2,2.2,2.2,3.2,12.2,2.4,156.5
Dois de Julho,291120401A,Gandú,Gandú (Dois de Julho) - 291120401A,-13.741,-39.483,Recôncavo,RPGA do Recôncavo Sul,0.0,11.8,6.4,0.6,1.4,7.5,0.4,1.4,0.0,0.0,0.0,0.0,0.0,0.0,0.0,0.0,0.0,1.0,0.0,14.5,21.6,43.9,0.0,0.0,2.0,4.7,4.9,0.6,0.2,0.0,123.0
Centro,292250801A,Nazaré,Nazaré (Centro) - 292250801A,-13.032,-39.015,Recôncavo,RPGA do Recôncavo Sul,0.0,1.8,3.4,0.0,28.0,7.1,0.0,0.0,0.0,0.0,0.0,0.0,0.0,0.0,0.0,0.0,0.0,0.0,0.0,38.9,0.2,0.8,0.0,0.8,5.3,17.3,5.0,12.7,8.1,5.5,134.8
Rua São Roque,293290301A,Valença,Valença (Rua São Roque) - 293290301A,-13.363,-39.078,Recôncavo,RPGA do Recôncavo Sul,0.2,18.9,5.4,0.0,8.7,3.2,0.2,0.4,0.0,0.0,3.0,0.8,0.0,0.0,0.0,0.0,0.0,0.0,0.0,4.7,21.3,4.3,0.0,7.1,1.6,7.9,0.8,4.9,1.4,6.8,101.4
Abaeté,RN-CL-05,Salvador,Salvador (Abaeté) - RN-CL-05,-12.947,-38.359,Recôncavo,RPGA do Recôncavo Norte,0.0,8.6,27.6,4.8,8.2,0.6,0.0,1.8,0.0,0.0,0.0,0.0,0.0,0.0,0.0,0.0,0.0,0.0,0.0,60.8,1.0,0.0,0.0,1.2,2.0,2.6,2.4,6.2,2.6,0.4,130.8
Lauro de Freitas,RN-CL-09,Lauro de Freitas,Lauro de Freitas - RN-CL-09,-12.887,-38.297,Recôncavo,RPGA do Recôncavo Norte,0.0,2.8,26.4,16.6,3.2,2.4,0.0,1.8,0.0,0.0,0.0,0.0,0.0,0.0,0.0,0.0,0.0,0.0,0.0,44.0,1.0,0.0,0.2,0.0,0.2,0.8,2.2,3.2,7.4,9.4,121.6
São Francisco do Conde,RN-CL-07,São Francisco do Conde,São Francisco do Conde - RN-CL-07,-12.611,-38.682,Recôncavo,RPGA do Recôncavo Norte,0.0,6.4,5.4,0.0,22.6,0.0,0.0,0.0,0.0,0.0,0.0,0.0,0.0,0.0,0.0,0.0,0.0,0.0,0.0,20.6,0.0,0.0,0.0,0.0,2.2,1.0,16.2,1.2,1.6,4.2,81.4
CIA,293070902A,Simões Filho,Simões Filho (CIA) - 293070902A,-12.825,-38.409,Recôncavo,RPGA do Recôncavo Norte,0.0,1.4,9.4,7.8,0.8,16.4,0.0,0.2,0.0,0.0,0.4,0.4,0.0,0.0,0.0,0.0,0.0,0.0,0.0,67.2,0.6,34.0,0.0,0.0,0.8,3.0,2.2,2.8,10.0,1.8,159.2
PC Fazenda Jurema,51346050,Rafael Jambeiro,Rafael Jambeiro (PC Fazenda Jurema) - 51346050,-12.488,-39.698,Recôncavo,RPGA do Rio Paraguaçu,0.8,2.0,2.4,0.0,0.0,0.4,0.0,0.0,0.0,0.0,0.0,0.0,0.0,0.0,0.0,0.0,0.0,0.0,0.0,39.2,12.8,1.2,0.0,0.0,0.4,1.4,0.4,0.0,2.6,5.2,68.8
PC Argoim,51351000,Rafael Jambeiro,Rafael Jambeiro (PC Argoim) - 51351000,-12.587,-39.522,Recôncavo,RPGA do Rio Paraguaçu,0.0,9.2,6.0,0.0,0.0,0.4,0.0,0.4,0.0,0.0,0.0,0.0,0.0,0.0,0.0,0.0,0.0,0.0,0.0,50.4,7.2,5.2,0.4,0.0,1.0,1.8,2.4,0.0,1.0,2.4,87.8
PC Rio Paratigi,51370000,Santo Estevão,Santo Estevão (PC Rio Paratigi) - 51370000,-12.515,-39.383,Recôncavo,RPGA do Rio Paraguaçu,0.0,10.8,4.8,0.0,0.4,1.2,0.0,0.0,0.0,0.0,0.0,0.0,0.0,0.0,0.0,0.0,0.0,0.0,0.0,23.2,0.0,27.2,0.0,0.4,2.4,0.0,3.2,1.4,4.4,4.2,83.6
Abaeté,RN-PR-01,Salvador,Salvador (Abaeté) - RN-PR-01,-12.945,-38.361,Recôncavo,RPGA do Recôncavo Norte,0.0,25.8,11.2,14.6,7.8,0.6,0.0,0.8,0.0,0.0,0.0,0.0,0.0,0.0,0.0,0.0,0.0,0.0,0.0,73.0,0.0,0.0,0.0,1.2,1.1,4.7,1.5,7.8,4.1,0.3,154.5
Cândido Sales,53620000,Cândido Sales,Cândido Sales - 53620000,-15.513,-41.237,Sudoeste,RPGA do Rio Pardo,16.4,26.4,19.8,7.6,38.4,51.0,0.6,0.0,0.0,0.0,0.0,0.0,0.0,0.0,0.0,1.4,10.6,23.6,6.6,13.2,55.8,6.8,6.4,10.2,6.4,5.4,4.4,0.2,3.2,0.4,314.8
Itiruçu,A407,Itiruçu,Itiruçu - A407,-13.526,-40.121,Sudoeste,RPGA do Recôncavo Sul,4.4,9.4,24.8,2.0,5.0,23.2,0.0,0.0,0.0,0.0,0.0,0.0,0.0,0.0,0.0,0.0,0.0,2.2,0.2,30.2,10.6,10.0,0.2,0.2,3.4,3.0,3.4,2.8,2.4,0.0,137.4
Vitória da Conquista,A414,Vitória da Conquista,Vitória da Conquista - A414,-14.886,-40.801,Sudoeste,RPGA do Rio Pardo,33.2,11.2,27.4,4.0,12.0,10.8,5.8,0.0,0.2,0.2,0.0,0.0,0.0,0.0,0.0,0.0,0.0,1.0,10.8,5.0,9.8,12.0,4.6,0.8,2.4,6.2,2.4,1.0,2.4,0.8,164.0
Ituaçu,83292,Ituaçu,Ituaçu - 83292,-13.813,-41.3,Sudoeste,RPGA do Rio de Contas,0.0,17.0,25.0,5.3,0.0,28.1,52.2,0.0,0.0,0.0,0.0,0.0,0.0,0.0,0.0,0.0,0.2,8.3,4.2,16.9,11.6,19.0,20.2,0.0,0.0,0.0,3.2,0.0,0.0,0.0,211.2
Lagoa,291760701A,Jaguaquara,Jaguaquara (Lagoa) - 291760701A,-13.523,-39.969,Sudoeste,RPGA do Recôncavo Sul,18.4,7.6,16.4,0.4,4.8,11.6,1.2,0.0,0.2,0.0,0.0,0.0,0.0,0.0,0.0,0.0,0.0,0.6,0.0,12.8,60.2,13.8,0.4,0.2,4.4,1.4,5.4,0.4,3.2,0.2,163.6
Entroncamento,291760702A,Jaguaquara,Jaguaquara (Entroncamento) - 291760702A,-13.51,-40.055,Sudoeste,RPGA do Recôncavo Sul,14.2,6.4,16.4,0.0,4.6,13.6,0.0,0.0,0.0,0.0,0.0,0.0,0.0,0.0,0.0,0.0,0.0,1.2,0.0,26.0,29.0,30.4,0.2,0.6,2.0,0.2,12.6,1.0,1.2,0.0,159.6
Brumado,A433,Brumado,Brumado - A433,-14.182,-41.672,Sudoeste,RPGA do Rio de Contas,26.0,16.8,53.2,3.2,28.4,9.0,2.8,0.0,0.0,0.0,0.0,0.0,0.0,0.0,0.0,0.0,0.2,0.4,18.2,15.8,0.6,21.4,2.0,0.0,1.0,0.4,0.4,0.4,0.2,0.4,200.8
Itapetinga,A446,Itapetinga,Itapetinga - A446,-15.245,-40.23,Sudoeste,RPGA do Rio Pardo,32.2,12.4,25.2,5.0,16.0,9.4,7.8,0.0,0.0,0.0,0.0,0.0,0.0,0.0,0.0,0.0,0.0,7.8,10.4,6.0,27.2,5.4,9.6,0.0,9.2,3.8,7.6,0.2,7.0,6.8,209.0
Centro,293330701A,Vitória da Conquista,Vitória da Conquista (Centro) - 293330701A,-14.852,-40.839,Sudoeste,RPGA do Rio Pardo,36.0,1.6,0.2,23.6,13.4,13.0,9.2,2.0,5.0,1.4,0.0,0.0,5.6,0.0,9.3,1.8,0.0,0.8,7.3,6.9,8.2,14.9,0.2,22.4,5.7,3.0,0.4,0.4,3.8,6.8,202.9
Clerolândia,291640101A,Itapetinga,Itapetinga (Clerolândia) - 291640101A,-15.243,-40.221,Sudoeste,RPGA do Rio Pardo,34.3,15.2,22.9,6.9,9.7,9.9,6.1,0.0,0.0,0.0,0.0,0.0,0.0,0.0,0.0,0.0,0.0,11.1,17.3,5.5,28.2,3.4,6.5,0.2,8.5,2.6,8.4,0.2,6.5,5.5,209.1
Recreio,293330702A,Vitória da Conquista,Vitória da Conquista (Recreio) - 293330702A,-14.861,-40.841,Sudoeste,RPGA do Rio Pardo,37.0,15.9,24.7,3.6,7.9,15.0,4.2,0.0,0.0,0.0,0.0,0.0,0.0,0.0,0.0,0.0,0.0,0.8,8.1,6.0,6.8,9.5,0.2,0.0,5.0,3.2,1.2,0.2,3.0,0.4,152.6
Patagônia,293330704A,Vitória da Conquista,Vitória da Conquista (Patagônia) - 293330704A,-14.87,-40.863,Sudoeste,RPGA do Rio Pardo,30.2,14.4,25.8,2.8,10.9,20.1,3.6,0.0,0.2,0.0,0.0,0.0,0.0,0.0,0.0,0.0,0.0,1.0,15.6,5.6,2.4,6.3,2.4,0.2,3.6,2.8,3.4,0.6,0.6,0.0,152.2
Lomantão,293330703A,Vitória da Conquista,Vitória da Conquista (Lomantão) - 293330703A,-14.87,-40.827,Sudoeste,RPGA do Rio Pardo,42.8,11.4,20.7,3.0,6.0,12.3,4.5,0.0,0.0,0.0,0.0,0.0,0.0,0.0,0.0,0.0,0.0,1.2,7.7,4.4,3.4,10.2,0.6,0.2,5.1,2.6,1.0,0.4,1.0,0.4,138.8
Jaguaquara,RS-CL-01,Jaguaquara,Jaguaquara - RS-CL-01,-13.573,-39.941,Sudoeste,RPGA do Recôncavo Sul,15.5,11.0,14.5,1.2,4.2,6.5,0.2,0.0,0.0,0.0,0.0,0.0,0.0,0.0,0.0,0.0,0.0,0.5,3.2,19.2,45.8,28.0,0.0,0.0,9.2,8.0,3.0,1.2,3.8,1.2,176.5
Vitória da Conquista,PA-CL-01,Vitória da Conquista,Vitória da Conquista - PA-CL-01,-14.886,-40.801,Sudoeste,RPGA do Rio Pardo,30.0,12.8,28.8,4.5,12.0,12.2,5.8,0.0,0.0,0.0,0.0,0.0,0.0,0.0,0.0,0.0,0.0,0.8,11.2,4.5,10.2,12.8,4.0,0.5,2.0,5.8,2.0,0.5,1.8,0.8,162.8
Itati,LE-CL-03,Itororó,Itororó (Itati) - LE-CL-03,-15.053,-40.023,Sudoeste,RPGA do Leste,6.2,34.0,0.0,0.0,0.0,0.4,1.8,179.2,31.8,0.0,0.0,0.0,0.0,0.0,0.0,0.0,0.0,11.8,0.4,3.8,25.4,27.2,15.2,0.2,1.0,5.8,4.0,0.8,7.0,2.2,358.2
Itiruçu,291690601C,Itiruçu,Itiruçu - 291690601C,-13.397,-40.138,Sudoeste,RPGA do Recôncavo Sul,31.6,6.4,19.6,0.4,1.8,9.2,0.8,0.0,0.0,0.0,0.0,0.0,0.0,0.0,0.0,0.0,0.0,0.0,0.2,32.4,7.4,2.0,0.0,0.8,0.8,1.4,9.4,0.4,0.6,0.0,125.2
Nova Canaã,292270601C,Nova Canaã,Nova Canaã - 292270601C,-14.663,-40.275,Sudoeste,RPGA do Rio de Contas,13.2,39.2,27.4,1.0,0.4,3.2,0.0,0.2,2.0,0.0,0.8,0.0,0.2,0.0,0.0,0.0,0.0,6.0,4.6,5.2,25.4,33.4,6.4,0.2,4.8,6.4,3.8,2.8,3.2,0.6,190.4
Itambé,291580901C,Itambé,Itambé - 291580901C,-15.224,-40.63,Sudoeste,RPGA do Rio Pardo,40.0,20.6,43.8,2.2,6.0,0.8,0.2,0.0,0.0,0.0,0.0,0.0,0.0,0.0,0.0,0.0,0.0,4.6,13.0,19.2,20.8,6.8,1.4,0.2,10.0,5.4,7.6,4.6,2.6,1.4,211.2
Fz Nanci,53880000,Camacã,Camacã (Fz Nanci) - 53880000,-15.581,-39.521,Sul,RPGA do Rio Pardo,4.2,29.0,16.2,4.6,16.2,1.6,4.4,1.4,0.0,0.2,0.4,0.0,0.0,0.0,0.0,0.0,0.6,4.2,48.2,7.4,10.6,10.8,7.2,0.0,12.6,5.0,4.8,3.8,4.0,1.2,198.6
PCH Cach. da Lixa M,55354000,Jucuruçu,Jucuruçu (PCH Cach. da Lixa M) - 55354000,-17.067,-40.069,Sul,"RPGA dos Rios Peruípe, Itanhém e Jucuruçu",39.8,14.6,11.0,12.8,7.4,7.4,23.0,0.8,0.0,4.8,0.0,0.0,0.0,0.0,0.0,5.0,0.0,1.2,17.4,2.4,48.0,22.2,18.6,8.8,11.0,5.6,6.6,2.6,6.0,2.8,279.8
PCH Colino II M,55355600,Vereda,Vereda (PCH Colino II M) - 55355600,-17.071,-40.155,Sul,"RPGA dos Rios Peruípe, Itanhém e Jucuruçu",66.5,18.0,11.5,12.8,6.0,15.8,14.0,0.0,0.0,0.0,5.8,0.0,0.0,0.0,0.0,2.5,3.8,0.8,26.0,24.5,25.8,16.8,8.0,4.0,8.2,10.0,10.0,4.5,6.5,1.5,303.0
Ilhéus,A410,Ilhéus,Ilhéus - A410,-14.659,-39.181,Sul,RPGA do Leste,0.8,44.6,25.0,15.8,3.4,4.6,0.2,1.2,0.0,0.2,0.0,0.2,0.0,0.0,0.0,0.0,0.0,1.2,1.6,4.4,65.0,36.2,1.6,0.2,8.0,21.2,2.4,5.6,5.6,0.4,249.4
Itajuípe,,Itajuípe,Itajuípe,-14.674,-39.377,Sul,RPGA do Leste,0.2,68.2,9.6,1.2,4.6,7.2,6.2,6.6,0.0,0.0,0.6,0.0,0.2,0.0,0.0,0.0,0.0,1.8,18.8,7.4,6.6,56.6,3.4,0.8,10.6,19.4,2.4,2.0,2.6,0.8,237.8
Barra do Rocha,290310201A,Barra do Rocha,Barra do Rocha - 290310201A,-14.209,-39.599,Sul,RPGA do Rio de Contas,1.8,28.0,17.0,1.4,6.4,48.0,2.4,0.0,0.8,0.0,1.2,0.0,0.0,0.0,0.0,0.0,0.0,2.6,26.8,13.6,17.4,22.4,0.2,1.8,6.4,7.8,12.6,2.2,1.6,0.6,223.0
Centro,290580001A,Camamu,Camamu (Centro) - 290580001A,-13.944,-39.103,Sul,RPGA do Recôncavo Sul,0.6,11.8,2.4,0.2,0.0,1.0,0.2,2.6,0.2,0.0,0.0,0.0,0.0,0.0,0.0,0.0,0.0,0.0,0.2,2.8,34.0,42.4,0.0,2.8,9.6,9.6,7.0,2.6,0.2,0.0,130.2
Novo Horizonte,291180801A,Guaratinga,Guaratinga (Novo Horizonte) - 291180801A,-16.583,-39.781,Sul,"RPGA dos Rios dos Frades, Buranhém e Santo Antônio",12.6,29.2,15.2,10.8,16.4,1.6,40.8,0.0,0.0,0.0,0.0,0.2,0.0,0.0,0.0,0.0,0.0,5.0,3.2,64.0,38.4,1.8,7.0,3.8,8.2,0.8,13.8,3.6,1.2,1.4,279.0
Passagem,291490101A,Itacaré,Itacaré (Passagem) - 291490101A,-14.281,-39.003,Sul,RPGA do Rio de Contas,0.0,20.0,8.2,0.2,0.0,11.8,3.8,0.0,0.0,0.0,0.0,0.0,0.2,0.0,0.0,0.0,0.0,0.0,3.0,3.8,176.8,32.8,0.2,12.4,6.6,13.4,5.8,0.6,0.4,0.2,300.2
Centro,291560101A,Itamaraju,Itamaraju (Centro) - 291560101A,-17.028,-39.535,Sul,"RPGA dos Rios Peruípe, Itanhém e Jucuruçu",18.0,36.2,18.0,13.6,22.8,4.0,3.6,0.2,0.0,0.0,0.0,0.0,0.0,0.0,0.0,0.2,2.8,0.2,2.4,18.2,34.6,15.0,15.8,11.4,7.0,2.8,2.0,1.4,3.8,1.0,235.0
Pau Brasil,292390201A,Pau Brasil,Pau Brasil - 292390201A,-15.461,-39.652,Sul,RPGA do Rio Pardo,6.4,31.2,24.8,12.2,9.0,2.8,1.6,0.4,0.0,0.0,0.0,0.0,0.0,0.0,0.0,0.0,0.0,10.8,13.6,0.8,30.2,22.6,13.0,0.6,0.4,19.6,3.0,3.8,2.6,5.4,214.8
Ribeira,292550101A,Prado,Prado (Ribeira) - 292550101A,-17.338,-39.232,Sul,"RPGA dos Rios Peruípe, Itanhém e Jucuruçu",44.4,22.6,9.2,7.2,11.2,14.6,69.2,0.0,0.0,0.0,0.0,0.0,0.0,0.0,0.0,0.0,3.8,0.0,0.4,7.4,45.6,13.6,27.8,0.0,1.2,0.0,1.6,6.8,6.6,3.8,297.0
Centro,292805901A,Santa Luzia,Santa Luzia (Centro) - 292805901A,-15.43,-39.333,Sul,RPGA do Leste,3.0,37.8,10.8,4.6,10.2,1.0,2.0,0.2,0.2,0.0,0.8,0.0,0.0,0.0,0.0,0.0,0.0,0.0,14.2,1.8,3.0,23.2,2.8,1.8,11.4,15.0,3.6,2.6,0.2,2.6,152.8
Maraú,A438,Maraú,Maraú - A438,-13.907,-38.972,Sul,RPGA do Recôncavo Sul,0.2,20.4,6.0,0.0,0.2,0.0,0.0,0.0,0.2,0.0,0.2,0.6,0.0,0.0,0.0,0.0,0.0,0.4,0.0,13.8,32.0,12.2,1.4,0.6,2.8,8.8,13.0,5.6,1.8,0.0,120.2
PCH Colino I J,55357000,Jucuruçu,Jucuruçu (PCH Colino I J) - 55357000,-17.082,-40.077,Sul,"RPGA dos Rios Peruípe, Itanhém e Jucuruçu",54.8,16.2,12.8,17.8,8.8,16.2,12.2,0.0,5.5,0.0,0.0,0.0,0.0,0.0,0.0,8.0,0.5,2.8,11.2,4.2,38.0,19.8,18.2,9.2,7.5,3.5,6.8,2.2,6.5,5.8,288.5
Eunápolis,FB-CL-01,Eunápolis,Eunápolis - FB-CL-01,-16.291,-39.58,Sul,"RPGA dos Rios dos Frades, Buranhém e Santo Antônio",6.2,10.2,23.8,10.2,23.5,5.8,9.8,0.0,0.0,0.0,0.0,0.0,0.0,0.0,0.0,0.0,0.2,16.8,2.0,15.8,35.0,6.2,5.8,30.0,1.8,13.2,0.0,1.8,6.0,2.5,226.5
Centro,290560201A,Camacan,Camacan (Centro) - 290560201A,-15.422,-39.495,Sul,RPGA do Rio Pardo,7.1,47.1,27.1,10.1,25.6,5.8,1.2,0.0,0.0,0.0,0.0,0.0,0.0,0.0,0.0,0.0,0.0,1.6,53.0,0.2,5.0,23.9,11.5,4.0,11.5,14.2,2.6,8.6,2.0,2.2,264.1
São João do Panelinha,290560202A,Camacan,Camacan (São João do Panelinha) - 290560202A,-15.375,-39.49,Sul,RPGA do Rio Pardo,4.8,49.4,26.1,8.5,24.1,4.2,2.0,0.2,0.0,0.0,0.0,0.0,0.0,0.0,0.0,0.0,0.0,0.6,26.6,0.0,5.6,33.0,14.2,1.4,13.4,9.7,2.2,0.6,5.1,0.4,232.0
Centro,290560203A,Camacan,Camacan (Centro) - 290560203A,-15.416,-39.494,Sul,RPGA do Rio Pardo,5.6,43.6,24.2,9.3,24.0,5.4,1.2,0.0,0.0,0.0,0.0,0.0,0.0,0.0,0.0,0.0,0.0,1.2,46.4,0.2,4.4,26.9,5.5,4.3,6.7,17.7,1.2,9.1,2.0,0.8,239.6
Conquista,291360601A,Ilhéus,Ilhéus (Conquista) - 291360601A,-14.797,-39.046,Sul,RPGA do Leste,0.8,53.5,5.6,0.0,2.6,9.7,0.2,0.0,0.0,0.0,0.0,0.0,0.0,0.4,0.0,0.0,0.0,2.4,3.2,0.0,33.5,52.4,1.8,1.6,8.9,12.2,3.4,6.1,9.8,0.0,208.0
Malhado,291360602A,Ilhéus,Ilhéus (Malhado) - 291360602A,-14.789,-39.049,Sul,RPGA do Leste,0.6,48.6,6.0,0.0,2.4,9.7,0.2,0.0,0.0,0.0,0.0,0.0,0.0,1.6,0.0,0.0,0.0,2.0,2.2,0.0,31.5,45.5,2.8,0.6,10.0,13.5,2.2,5.7,7.2,0.2,192.3
São Caetano,291480202A,Itabuna,Itabuna (São Caetano) - 291480202A,-14.806,-39.278,Sul,RPGA do Leste,3.6,84.6,10.1,0.8,4.8,13.8,3.2,0.0,0.0,0.0,0.0,0.0,0.0,1.0,0.2,0.0,0.0,2.0,19.7,2.8,57.6,24.9,2.2,1.2,6.3,16.0,1.4,13.4,1.2,0.8,271.5
Nova Ferradas,291480203A,Itabuna,Itabuna (Nova Ferradas) - 291480203A,-14.857,-39.347,Sul,RPGA do Leste,0.2,75.7,13.2,0.4,3.2,9.7,0.2,0.0,0.0,0.0,0.0,0.0,0.0,0.0,0.0,0.0,0.0,3.6,6.5,2.2,80.6,34.2,6.9,1.2,4.7,3.4,3.4,2.0,6.3,0.4,258.0
Planalto I,292110401A,Medeiros Neto,Medeiros Neto (Planalto I) - 292110401A,-17.365,-40.223,Sul,"RPGA dos Rios Peruípe, Itanhém e Jucuruçu",44.3,17.3,0.8,4.0,9.4,0.2,0.0,1.4,0.0,0.0,0.0,0.0,0.0,0.0,1.0,4.0,0.2,0.0,31.2,0.0,22.6,6.6,8.7,2.6,9.5,1.6,1.2,0.2,2.4,4.3,173.5
Centro,292300102A,Nova Viçosa,Nova Viçosa (Centro) - 292300102A,-17.893,-39.372,Sul,"RPGA dos Rios Peruípe, Itanhém e Jucuruçu",83.7,33.7,2.2,2.0,10.7,0.8,10.8,3.8,0.0,0.0,0.0,0.0,0.0,0.0,0.0,1.2,0.0,7.5,0.0,5.1,11.5,21.9,40.4,8.3,3.2,0.0,5.1,0.8,6.5,1.0,260.2
Posto da Mata,292300103A,Nova Viçosa,Nova Viçosa (Posto da Mata) - 292300103A,-17.896,-39.37,Sul,"RPGA dos Rios Peruípe, Itanhém e Jucuruçu",73.9,31.5,1.6,1.6,8.3,0.6,5.7,2.0,0.0,0.0,0.0,0.0,0.0,0.0,0.0,0.8,0.6,4.5,0.2,3.8,9.7,20.5,33.3,6.9,1.8,0.0,2.2,0.4,6.5,1.2,217.4
Areião,292530301A,Porto Seguro,Porto Seguro (Areião) - 292530301A,-16.441,-39.076,Sul,"RPGA dos Rios dos Frades, Buranhém e Santo Antônio",1.6,12.7,9.7,17.1,37.6,8.5,56.5,0.0,0.0,0.0,0.0,0.0,0.0,0.0,0.0,0.0,0.0,0.0,2.8,19.1,63.2,85.4,6.1,0.0,3.0,0.0,0.0,0.0,2.4,0.0,325.6
Paraguai,292530302A,Porto Seguro,Porto Seguro (Paraguai) - 292530302A,-16.41,-39.08,Sul,"RPGA dos Rios dos Frades, Buranhém e Santo Antônio",2.2,13.5,9.9,17.7,35.2,9.1,99.5,0.0,0.0,0.0,0.0,0.0,0.0,0.0,0.0,0.0,0.0,0.6,7.9,23.0,35.9,90.3,2.6,2.8,1.6,0.8,0.0,0.8,3.1,1.0,357.3
Trancoso,292530303A,Porto Seguro,Porto Seguro (Trancoso) - 292530303A,-16.595,-39.109,Sul,"RPGA dos Rios dos Frades, Buranhém e Santo Antônio",3.2,26.3,7.2,16.6,33.3,7.8,3.8,0.0,0.0,0.0,0.0,0.0,0.0,0.0,0.0,0.0,0.0,0.0,0.2,19.4,35.8,39.4,14.4,0.6,6.7,0.6,1.0,0.0,7.5,1.8,225.5
BR367km4,292770501A,Santa Cruz Cabrália,Santa Cruz Cabrália (BR367km4) - 292770501A,-16.321,-39.023,Sul,"RPGA dos Rios dos Frades, Buranhém e Santo Antônio",1.4,12.9,10.7,11.3,26.4,8.1,17.2,0.0,0.0,0.0,0.0,0.0,0.0,0.0,0.0,0.0,0.0,0.0,12.2,27.9,26.3,68.6,1.4,0.2,0.0,2.2,0.8,0.6,3.2,2.6,233.6
Centro,291480201A,Itabuna,Itabuna (Centro) - 291480201A,-14.79,-39.274,Sul,RPGA do Leste,1.8,98.0,12.6,0.4,3.6,10.2,1.4,0.0,0.0,0.0,0.0,0.0,0.0,0.0,0.0,0.0,0.0,1.4,16.9,0.4,56.1,32.1,2.4,1.2,3.6,7.9,1.6,4.9,3.0,2.6,261.9
Jusante,54945000,Itapebi,Itapebi (Jusante) - 54945000,-15.949,-39.523,Sul,RPGA do Rio Jequitinhonha,7.2,29.2,17.8,15.2,15.6,6.8,50.6,0.0,0.0,0.0,0.0,0.0,0.0,0.0,0.0,0.0,0.0,9.8,53.4,7.6,13.4,5.0,9.4,1.2,3.2,7.2,7.2,6.8,2.6,3.4,272.6
Morpará,46360000,Morpará,Morpará - 46360000,-11.558,-43.282,São Francisco,RPGA dos Rios Paramirim e Santo Onofre,1.4,4.6,70.0,7.2,10.0,18.4,37.4,0.2,0.0,0.0,0.0,0.0,0.0,0.0,0.0,0.0,15.2,0.6,3.0,13.6,0.6,11.2,0.2,0.0,0.0,0.0,0.0,0.0,0.0,0.0,193.6
Pilão Arcado,A449,Pilão Arcado,Pilão Arcado - A449,-10.004,-42.475,São Francisco,RPGA do Lago de Sobradinho,0.0,14.6,12.6,34.8,7.6,0.0,0.0,0.0,0.0,0.0,0.0,0.0,0.0,0.0,0.0,0.0,0.0,0.0,3.4,68.2,59.6,24.6,0.2,0.0,0.0,0.0,0.0,0.0,0.0,0.0,225.6
Bom Jesus da Lapa,83288,Bom Jesus da Lapa,Bom Jesus da Lapa - 83288,-13.251,-43.405,São Francisco,RPGA do Rio Carnaíba de Dentro,0.0,18.8,27.1,20.0,36.6,23.0,0.4,0.0,0.0,0.0,0.0,0.0,0.0,0.0,0.0,0.0,5.4,1.6,31.6,8.3,3.6,6.8,27.7,0.0,0.0,0.0,0.0,0.0,0.0,0.0,210.9
Santa Rita de Cássia,83076,Santa Rita de Cássia,Santa Rita de Cássia - 83076,-11.017,-44.517,São Francisco,RPGA do Rio Grande,2.5,0.0,28.0,16.0,51.0,8.0,29.7,0.0,0.0,0.0,0.0,0.0,0.0,0.0,0.0,0.0,0.0,1.3,16.5,21.6,4.4,50.8,4.0,0.0,0.0,0.0,0.0,0.0,0.0,0.0,233.8
Guanambí,A426,Guanambí,Guanambí - A426,-14.208,-42.75,São Francisco,RPGA do Rio Carnaíba de Dentro,0.6,11.8,12.8,7.2,15.6,17.8,0.0,0.0,0.0,0.0,0.0,0.0,0.0,0.0,0.0,40.2,0.0,0.0,9.2,15.4,27.6,8.2,0.0,0.0,0.0,0.0,0.0,0.0,0.0,0.0,166.4
Macaúbas,PM-CL-02,Macaúbas,Macaúbas - PM-CL-02,-13.08,-42.696,São Francisco,RPGA dos Rios Paramirim e Santo Onofre,45.0,57.0,50.8,45.4,8.8,8.4,22.6,0.0,0.0,0.0,0.0,0.0,0.0,0.0,0.0,0.0,0.0,0.4,7.4,6.0,3.8,1.8,5.8,0.0,0.0,0.0,0.0,0.0,0.0,0.0,263.2
Faz. Macambira,46675000,Cotegipe,Cotegipe (Faz. Macambira) - 46675000,-11.611,-44.157,São Francisco,RPGA do Rio Grande,41.4,3.2,38.6,25.8,54.8,3.8,13.4,0.0,0.0,0.0,0.0,0.0,0.0,0.0,0.0,0.0,15.6,0.8,9.0,19.4,0.2,25.6,3.0,0.0,0.0,0.0,0.0,0.0,0.0,0.0,254.6
Fz.P. Limpo,46870000,Mansidão,Mansidão (Fz.P. Limpo) - 46870000,-11.237,-43.951,São Francisco,RPGA do Rio Grande,0.0,4.4,28.8,5.4,15.0,2.4,28.0,0.0,0.0,0.0,0.0,0.0,0.0,0.0,0.0,0.0,1.4,0.2,5.6,12.4,0.0,50.2,0.0,0.2,0.0,0.0,0.0,0.0,0.0,0.0,154.0
Santa Maria da Vitória,45910001,Santa Maria da Vitória,Santa Maria da Vitória - 45910001,-13.401,-44.199,São Francisco,"RPGA do Rio Corrente e Riachos do Ramalho, Serra Dourada e Brejo Velho",4.4,0.4,35.2,8.8,42.0,14.2,4.2,0.0,0.0,0.0,0.0,0.0,0.0,0.0,0.0,6.4,10.4,0.0,10.4,21.8,5.2,11.4,7.8,0.0,0.0,0.0,0.0,0.0,0.0,0.0,182.6
Bom Jesus da Lapa,45480000,Bom Jesus da Lapa,Bom Jesus da Lapa - 45480000,-13.257,-43.435,São Francisco,"RPGA do Rio Corrente e Riachos do Ramalho, Serra Dourada e Brejo Velho",0.6,6.4,8.8,13.4,36.2,0.0,0.4,0.0,0.0,0.2,0.0,0.0,0.0,0.0,0.0,0.0,5.2,3.0,14.2,20.6,1.4,3.8,18.6,0.0,0.2,0.0,0.0,0.0,0.0,0.0,133.0
Barra,46998000,Barra,Barra - 46998000,-11.093,-43.14,São Francisco,RPGA do Rio Grande,0.4,20.8,44.6,1.0,6.2,0.2,0.0,0.0,0.0,0.0,0.0,0.0,0.0,0.0,0.0,0.0,0.0,0.4,43.6,38.6,3.0,10.8,0.0,0.0,0.0,0.0,0.0,0.0,0.0,2.2,171.8
Boqueirão,46902000,Mansidão,Mansidão (Boqueirão) - 46902000,-11.345,-43.826,São Francisco,RPGA do Rio Grande,6.8,50.6,27.0,6.0,33.4,1.2,5.4,0.0,0.0,0.0,0.0,0.0,0.0,0.0,0.0,0.0,5.4,0.0,40.2,26.4,0.2,58.4,15.2,0.0,0.0,0.0,0.0,0.0,0.0,0.0,276.2
Volta da Serra,CD-CL-02,Paratinga,Paratinga (Volta da Serra) - CD-CL-02,-12.576,-43.128,São Francisco,RPGA do Rio Carnaíba de Dentro,9.2,56.8,66.6,20.0,16.2,10.8,5.0,0.0,0.0,0.0,0.0,0.0,0.0,0.0,0.0,0.0,3.0,0.0,14.4,0.2,0.2,12.0,0.0,0.0,0.0,0.0,0.0,0.0,0.0,0.0,214.4
Xique-Xique,PM-CL-05,Xique-Xique,Xique-Xique - PM-CL-05,-10.825,-42.689,São Francisco,RPGA dos Rios Paramirim e Santo Onofre,0.0,18.6,8.6,37.6,16.0,0.2,0.0,0.0,0.0,0.0,0.0,0.0,0.0,0.0,0.0,0.0,0.0,0.0,0.8,21.0,2.8,30.8,0.0,0.0,0.0,0.0,0.0,0.0,0.0,0.0,136.4
Boquira,290410001C,Boquira,Boquira - 290410001C,-12.81,-42.718,São Francisco,RPGA dos Rios Paramirim e Santo Onofre,11.8,29.6,85.0,57.0,13.8,7.4,6.6,0.0,0.0,0.0,0.0,0.0,0.0,0.0,0.0,0.0,0.0,0.6,9.6,8.6,1.0,1.2,0.0,0.0,0.0,0.0,0.0,5.0,0.0,0.0,237.2
Ibipitanga,291250901C,Ibipitanga,Ibipitanga - 291250901C,-12.884,-42.451,São Francisco,RPGA dos Rios Paramirim e Santo Onofre,42.6,33.4,97.8,39.2,7.4,8.2,6.2,0.2,0.0,0.0,0.0,0.0,0.0,0.0,0.0,0.0,0.0,1.0,1.8,40.0,14.0,11.8,0.2,0.2,0.0,0.0,0.0,3.6,0.0,0.0,307.6
Licínio de Almeida,291940501C,Licínio de Almeida,Licínio de Almeida - 291940501C,-14.689,-42.503,São Francisco,RPGA do Rio de Contas,16.8,8.0,2.2,1.0,1.0,3.0,1.0,1.6,0.6,0.8,0.6,0.4,0.2,0.2,0.0,0.0,0.0,0.0,0.0,0.0,0.0,0.0,0.0,0.0,0.0,0.0,0.0,0.0,0.0,0.0,37.4
