nome_estacao,codigo,municipio,estacao,latitude,longitude,regiao,rpga,01_12_21,02_12_21,03_12_21,04_12_21,05_12_21,06_12_21,07_12_21,08_12_21,09_12_21,10_12_21,11_12_21,12_12_21,13_12_21,total
Iaçu,51280000,Iaçu,Iaçu - 51280000,-12.7622,-40.2136,Chapada Diamantina,RPGA do Rio Paraguaçu,4.8,1.4,0.0,5.8,5.4,3.8,0.0,0.0,0.0,0.6,5.0,0.0,0.0,26.8
Lagoa Bonita,PG-PR-15,Iacú,Iacú (Lagoa Bonita) - PG-PR-15,-12.931506,-40.226468,Chapada Diamantina,RPGA do Rio Paraguaçu,2.4,2.4,0.0,7.8,0.4,0.0,0.0,0.0,6.6,0.4,6.6,0.0,0.0,26.6
João Amaro,PG-PR-16,Iaçu,Iaçu (João Amaro) - PG-PR-16,-12.800391,-40.363139,Chapada Diamantina,RPGA do Rio Paraguaçu,4.6,1.6,0.0,3.8,1.8,1.0,0.0,0.0,0.4,2.8,3.8,0.0,0.0,19.8
Ruy Barbosa,PG-PR-18,Ruy Barbosa,Ruy Barbosa - PG-PR-18,-12.285653,-40.513698,Chapada Diamantina,RPGA do Rio Paraguaçu,0.0,1.8,0.4,4.2,2.6,1.2,0.6,0.0,3.8,1.4,27.8,2.6,0.0,46.4
Wagner,PG-PR-22,Wagner,Wagner - PG-PR-22,-12.289538,-41.161774,Chapada Diamantina,RPGA do Rio Paraguaçu,10.0,5.8,3.6,35.4,2.2,18.2,0.0,2.6,35.6,1.2,68.6,0.8,0.0,184.0
Guiné,PG-PR-24,Mucugê,Mucugê (Guiné) - PG-PR-24,-12.771772,-41.540679,Chapada Diamantina,RPGA do Rio Paraguaçu,2.6,19.8,42.2,19.2,0.0,4.8,3.4,1.4,40.2,2.4,28.6,1.2,0.0,165.8
Machado Portela,PG-PR-26,Marcionílio Souza,Marcionílio Souza (Machado Portela) - PG-PR-26,-13.153732,-40.768155,Chapada Diamantina,RPGA do Rio Paraguaçu,8.0,5.6,0.4,29.2,3.2,0.2,0.0,1.0,30.0,4.6,9.4,0.2,0.0,91.81
Rio do Pires,PM-CL-04,Rio do Pires,Rio do Pires - PM-CL-04,-13.11695,-42.28411,Chapada Diamantina,RPGA dos Rios Paramirim e Santo Onofre,0.0,16.0,0.0,31.4,1.0,2.0,4.8,0.0,45.8,2.0,22.8,0.4,0.0,126.2
Iaçu,PG-CL-05,Iaçu,Iaçu - PG-CL-05,-12.9114,-40.03177,Chapada Diamantina,RPGA do Rio Paraguaçu,1.6,2.2,0.0,5.2,9.0,1.8,0.8,0.2,0.2,2.0,11.2,0.2,0.0,34.41
Ibiaporã,PG-CL-01,Mundo Novo,Mundo Novo (Ibiaporã) - PG-CL-01,-12.05379,-40.83722,Chapada Diamantina,RPGA do Rio Paraguaçu,0.0,0.0,0.0,0.0,0.0,0.0,0.0,0.0,0.4,0.0,0.6,0.4,0.0,1.4
Marcionílio Souza,PG-CL-03,Marcionílio Souza,Marcionílio Souza - PG-CL-03,-13.00021,-40.537783,Chapada Diamantina,RPGA do Rio Paraguaçu,17.8,2.2,23.6,7.6,0.2,0.2,0.0,0.0,17.4,4.6,6.2,0.0,0.0,79.8
Iraquara,PG-PR-02,Iraquara,Iraquara - PG-PR-02,-12.255093,-41.61679,Chapada Diamantina,RPGA do Rio Paraguaçu,0.2,0.0,29.8,19.2,1.8,0.0,0.0,2.4,31.8,6.0,34.2,0.0,0.0,125.4
Piritiba,PG-PR-07,Piritiba,Piritiba - PG-PR-07,-11.733137,-40.562306,Chapada Diamantina,RPGA do Rio Paraguaçu,0.0,0.0,0.0,0.0,0.0,0.0,0.0,0.0,0.0,0.0,0.0,0.0,0.0,0.0
Baixa Grande,PG-PR-08,Baixa Grande,Baixa Grande - PG-PR-08,-11.908701,-40.183683,Chapada Diamantina,RPGA do Rio Paraguaçu,24.2,0.0,0.0,2.2,0.0,44.6,0.0,0.0,0.0,11.8,0.0,0.0,0.0,82.8
Tapiramutá,PG-PR-09,Tapiramutá,Tapiramutá - PG-PR-09,-11.838502,-40.791761,Chapada Diamantina,RPGA do Rio Paraguaçu,0.0,2.2,0.2,16.8,3.4,0.6,0.0,0.0,36.4,0.4,14.4,0.6,0.0,75.0
Ventura,PG-PR-10,Morro do Chapéu,Morro do Chapéu (Ventura) - PG-PR-10,-11.650911,-40.951765,Chapada Diamantina,RPGA do Rio Paraguaçu,1.2,1.4,8.6,11.8,6.2,3.2,0.0,0.0,23.6,0.4,19.2,0.6,0.0,76.2
Centro,291900901A,Lajedinho,Lajedinho (Centro) - 291900901A,-12.35585,-40.90228,Chapada Diamantina,RPGA do Rio Paraguaçu,16.8,13.8,5.2,24.6,1.4,1.2,0.4,0.0,47.6,34.8,28.4,3.8,0.0,178.01
PC Ponte Rio Capivari,51326200,Itaberaba,Itaberaba (PC Ponte Rio Capivari) - 51326200,-12.51429,-39.93422,Chapada Diamantina,RPGA do Rio Paraguaçu,1.4,0.2,1.2,1.0,0.0,7.4,0.2,0.0,0.0,7.2,1.0,0.0,0.0,19.6
Fazenda Terra Grapiúna,PG-FR-04,Wagner,Wagner (Fazenda Terra Grapiúna) - PG-FR-04,-12.181482,-41.150663,Chapada Diamantina,RPGA do Rio Paraguaçu,6.2,3.2,7.0,16.4,3.8,39.4,0.0,0.0,6.0,0.4,54.8,0.2,0.0,137.4
Ladeira Vermelha,291750801A,Jacobina,Jacobina (Ladeira Vermelha) - 291750801A,-11.161707,-40.554213,Nordeste,RPGA do Rio Itapicuru,27.0,0.0,15.0,6.0,2.4,29.4,0.4,0.0,5.4,1.6,0.4,0.0,0.0,87.61
Feliz Tomaz,291750802A,Jacobina,Jacobina (Feliz Tomaz) - 291750802A,-11.174316,-40.517837,Nordeste,RPGA do Rio Itapicuru,30.2,0.2,9.0,5.8,4.4,21.6,0.2,0.0,18.6,1.6,0.4,0.2,0.0,92.2
Pedras Altas,50430000,Capim Grosso,Capim Grosso (Pedras Altas) - 50430000,-11.18288,-40.04725,Nordeste,RPGA do Rio Itapicuru,2.0,0.0,0.0,0.0,3.6,0.0,0.0,0.0,0.0,2.8,0.6,0.0,0.0,9.0
Ponto Novo,50380000,Ponto Novo,Ponto Novo - 50380000,-10.845,-40.1128,Nordeste,RPGA do Rio Itapicuru,0.2,0.0,0.0,0.0,10.6,8.0,0.2,0.0,2.8,8.2,0.2,1.0,0.0,31.2
Pé de Serra,PG-CL-07,Pé de Serra,Pé de Serra - PG-CL-07,-11.83676,-39.65905,Nordeste,RPGA do Rio Paraguaçu,3.0,0.0,0.0,0.0,0.6,10.2,0.0,0.0,0.0,0.0,0.0,1.8,0.0,15.6
Caldas do Jorro,IT-CL-05,Tucano,Tucano (Caldas do Jorro) - IT-CL-05,-11.03477,-38.80386,Nordeste,RPGA do Rio Itapicuru,2.0,0.0,0.0,0.0,28.6,14.0,0.6,0.0,0.0,0.0,0.0,0.0,0.0,45.2
Saúde,IT-CL-04,Saúde,Saúde - IT-CL-04,-10.95669,-40.38329,Nordeste,RPGA do Rio Itapicuru,20.0,0.0,0.0,0.4,2.8,13.0,0.0,0.0,15.2,6.0,0.0,1.0,0.0,58.41
Lajinha,IT-CL-06,Várzea do Poço,Várzea do Poço (Lajinha) - IT-CL-06,-11.4964,-40.34474,Nordeste,RPGA do Rio Itapicuru,4.0,0.0,0.0,11.0,5.0,6.2,0.0,0.0,15.8,13.0,1.8,1.4,0.0,58.2
Ipirá,PG-CL-02,Ipirá,Ipirá - PG-CL-02,-12.14986,-39.76454,Nordeste,RPGA do Rio Paraguaçu,2.4,0.0,0.0,0.0,0.0,1.2,0.0,0.0,2.0,0.2,0.0,0.4,0.0,6.2
Pé de Serra,PG-PR-06,Pé de Serra,Pé de Serra - PG-PR-06,-11.833423,-39.623663,Nordeste,RPGA do Rio Paraguaçu,1.6,0.0,0.0,0.0,0.0,13.6,0.0,0.0,0.0,0.0,0.8,0.0,0.0,16.0
Centro,293010501A,Senhor do Bonfim,Senhor do Bonfim (Centro) - 293010501A,-10.464,-40.19,Nordeste,RPGA do Rio Itapicuru,0.0,0.0,0.0,0.0,0.0,2.56,0.2,0.0,0.0,0.2,0.0,0.0,0.0,2.97
Itapeipu,IT-PR-34,Jacobina,Jacobina (Itapeipu) - IT-PR-34,-11.315629,-40.356742,Nordeste,RPGA do Rio Itapicuru,1.2,0.0,0.2,8.4,1.2,1.8,0.0,0.0,16.6,11.4,5.2,1.0,0.0,47.01
Caém,IT-PR-35,Caém,Caém - IT-PR-35,-11.093399,-40.437579,Nordeste,RPGA do Rio Itapicuru,0.0,0.0,0.0,1.0,3.2,54.2,0.0,0.0,9.2,3.0,1.0,0.2,0.0,71.81
Carrapichel,IT-PR-37,Senhor do Bonfim,Senhor do Bonfim (Carrapichel) - IT-PR-37,-10.388101,-40.220067,Nordeste,RPGA do Rio Itapicuru,35.6,0.0,0.0,0.0,10.8,7.2,0.4,0.0,0.0,0.0,0.0,0.0,0.0,54.01
Santaluz,IT-PR-17,Santaluz,Santaluz - IT-PR-17,-11.24831,-39.37563,Nordeste,RPGA do Rio Itapicuru,0.2,0.0,0.0,0.0,5.4,6.6,0.0,0.0,0.0,4.4,0.0,0.0,0.0,16.6
Curral Falso,IT-PR-01,Ribeira do Pombal,Ribeira do Pombal (Curral Falso) - IT-PR-01,-10.697843,-38.5714,Nordeste,RPGA do Rio Itapicuru,0.0,0.0,0.0,0.0,15.0,32.8,0.0,0.0,0.0,0.0,0.0,0.0,0.0,47.8
Ribeira do Pombal,IT-PR-04,Ribeira do Pombal,Ribeira do Pombal - IT-PR-04,-10.823399,-38.545844,Nordeste,RPGA do Rio Itapicuru,0.0,0.0,0.0,0.0,32.8,67.0,0.2,0.0,0.0,0.0,0.0,0.0,0.0,100.0
BR 116 E. Cunha / Tucano,IT-PR-05,Quijingue,Quijingue (BR 116 E. Cunha / Tucano) - IT-PR-05,-10.7105,-38.9227,Nordeste,RPGA do Rio Itapicuru,0.0,0.0,0.0,0.0,1.2,0.4,0.0,0.0,0.0,0.0,0.0,0.0,0.0,1.6
Crisópolis,IT-PR-08,Crisópolis,Crisópolis - IT-PR-08,-11.510923,-38.120832,Nordeste,RPGA do Rio Itapicuru,0.0,0.0,0.0,0.0,1.2,9.6,0.0,0.0,0.0,0.0,0.0,0.0,0.0,10.8
Fazenda Laranjeiras III,IT-PR-09,Araci,Araci (Fazenda Laranjeiras III) - IT-PR-09,-11.334248,-38.968638,Nordeste,RPGA do Rio Itapicuru,0.0,0.0,0.0,0.0,0.2,0.0,0.0,0.0,0.0,0.0,0.0,0.0,0.0,0.2
Olindina,IT-PR-11,Olindina,Olindina - IT-PR-11,-11.343693,-38.318892,Nordeste,RPGA do Rio Itapicuru,0.0,0.0,0.0,0.0,18.6,32.8,2.4,0.0,0.0,0.4,0.0,0.0,0.0,54.2
Boa Hora,IT-PR-13,Ribeira do Amparo,Ribeira do Amparo (Boa Hora) - IT-PR-13,-10.965,-38.5234,Nordeste,RPGA do Rio Itapicuru,0.2,0.2,0.0,0.2,0.0,0.2,0.2,0.2,0.0,0.2,0.0,0.0,1.8,3.2
Fazenda Alecrim ,IT-FR-21,Filadélfia,Filadélfia (Fazenda Alecrim ) - IT-FR-21,-10.7522,-40.22444,Nordeste,RPGA do Rio Itapicuru,0.2,0.0,0.0,0.0,10.4,4.4,2.4,0.0,12.6,9.2,1.8,0.0,0.0,41.0
Fazenda Grutinha,IT-FR-13,Pindobaçu,Pindobaçu (Fazenda Grutinha) - IT-FR-13,-10.7589,-40.4367,Nordeste,RPGA do Rio Itapicuru,28.6,0.0,0.0,0.2,1.4,33.4,0.0,0.0,18.6,1.6,0.2,0.0,0.0,84.0
Queimadas,IT-FR-26,Queimadas,Queimadas - IT-FR-26,-10.9733,-39.6328,Nordeste,RPGA do Rio Itapicuru,0.0,0.0,0.0,0.0,37.4,3.6,0.0,0.0,0.0,0.0,0.0,0.4,0.0,41.4
Itaberaba,291840701A,Juazeiro,Juazeiro (Itaberaba) - 291840701A,-9.44837,-40.48517,Norte,RPGA dos Rios Macururé e Curaçá,0.2,1.8,0.2,8.6,3.0,0.0,0.0,0.0,41.6,3.4,0.0,0.0,0.0,58.81
Maria Gorete,291840703A,Juazeiro,Juazeiro (Maria Gorete) - 291840703A,-9.42014,-40.49909,Norte,RPGA dos Rios Macururé e Curaçá,0.0,4.2,0.0,3.4,3.2,0.0,0.0,0.0,35.2,0.2,0.0,0.0,0.0,46.2
João Paulo II,291840704A,Juazeiro,Juazeiro (João Paulo II) - 291840704A,-9.47067,-40.49805,Norte,RPGA dos Rios Macururé e Curaçá,0.0,1.4,0.0,19.2,8.8,0.0,0.0,0.0,30.4,0.6,0.0,0.0,0.0,60.4
Lapão,291915701A,Lapão,Lapão - 291915701A,-11.38,-41.83,Norte,RPGA dos Rios Verde e Jacaré,12.4,0.0,22.6,19.6,4.6,2.4,0.0,0.0,50.6,0.6,31.2,0.8,0.0,144.8
Centro,290115501A,América Dourada,América Dourada (Centro) - 290115501A,-11.45011,-41.434004,Norte,RPGA dos Rios Verde e Jacaré,4.2,0.0,16.2,2.2,0.0,0.0,0.0,0.0,46.4,0.2,29.0,0.2,0.0,98.4
Várzea Nova,SA-CL-02,Várzea Nova,Várzea Nova - SA-CL-02,-11.23996,-40.935618,Norte,RPGA do Rio Salitre,0.0,0.0,1.2,0.0,1.0,1.2,0.0,0.0,44.2,0.2,0.2,0.8,0.0,48.81
CODEVASF Salitre,MC-CL-01,Juazeiro,Juazeiro (CODEVASF Salitre) - MC-CL-01,-9.48778,-40.61333,Norte,RPGA dos Rios Macururé e Curaçá,0.0,10.2,0.0,7.2,17.6,0.6,0.0,0.0,83.0,0.0,0.0,0.0,0.0,118.6
Campo Formoso,IT-CL-02,Campo Formoso,Campo Formoso - IT-CL-02,-10.47062,-40.33412,Norte,RPGA do Rio Itapicuru,0.0,0.0,4.4,1.2,0.2,4.8,0.2,0.0,30.2,4.4,0.0,3.0,0.0,48.4
Sento Sé,SO-CL-01,Sento Sé,Sento Sé - SO-CL-01,-9.78228,-41.81872,Norte,RPGA do Lago de Sobradinho,0.0,0.0,0.0,2.6,0.0,10.4,0.0,0.0,18.2,0.0,0.0,0.0,0.0,31.2
Itaguaçu da Bahia,VJ-CL-03,Itaguaçu da Bahia,Itaguaçu da Bahia - VJ-CL-03,-10.9549,-42.3465,Norte,RPGA dos Rios Verde e Jacaré,11.8,0.0,1.6,25.6,2.4,0.0,0.0,0.0,27.6,0.0,0.4,0.0,0.0,69.4
Juazeiro,48020000,Juazeiro,Juazeiro - 48020000,-9.4064,-40.5036,Norte,RPGA dos Rios Macururé e Curaçá,0.2,8.6,0.0,7.8,6.2,0.2,1.0,0.0,26.0,0.2,0.0,0.0,0.0,50.2
Ibipeba,VJ-CL-02,Ibipeba,Ibipeba - VJ-CL-02,-11.62667,-42.06444,Norte,RPGA dos Rios Verde e Jacaré,87.4,3.6,0.0,23.0,0.8,0.0,0.0,3.4,66.4,1.2,54.0,1.0,0.0,240.8
Lapão,VJ-PR-23,Lapão,Lapão - VJ-PR-23,-11.401625,-41.894,Norte,RPGA dos Rios Verde e Jacaré,19.0,0.2,24.8,6.0,2.2,0.0,0.0,0.0,49.2,14.0,93.4,0.0,0.2,209.0
Mirangaba,IT-PR-29,Mirangaba,Mirangaba - IT-PR-29,-10.954784,-40.574527,Norte,RPGA do Rio Itapicuru,0.0,0.0,13.8,1.0,1.2,6.2,0.0,0.0,0.0,2.4,0.2,0.0,0.0,24.8
Derocal,46455000,São Desidério,São Desidério (Derocal) - 46455000,-12.412696,-45.121499,Oeste,RPGA do Rio Grande,5.6,11.0,2.6,24.6,0.4,28.8,1.0,33.2,23.8,27.6,15.0,41.4,3.2,218.2
Fazenda Redenção,46543000,Barreiras,Barreiras (Fazenda Redenção) - 46543000,-12.1358,-45.1033,Oeste,RPGA do Rio Grande,1.2,20.8,4.8,22.2,0.0,4.2,0.2,8.2,37.0,35.0,9.8,9.4,1.2,154.01
Fazenda Barcelona,GR-CL-03,Formosa do Rio Preto,Formosa do Rio Preto (Fazenda Barcelona) - GR-CL-03,-11.59139,-46.02194,Oeste,RPGA do Rio Grande,17.8,24.8,0.2,7.6,6.4,0.0,0.0,1.8,4.4,0.6,0.0,0.2,0.2,64.0
PCH Pres. Goulart-J,45600000,Correntina,Correntina (PCH Pres. Goulart-J) - 45600000,-13.3344,-44.6208,Oeste,"RPGA do Rio Corrente e Riachos do Ramalho, Serra Dourada e Brejo Velho",0.0,11.4,0.4,43.4,0.0,0.0,9.0,21.0,16.0,36.0,4.2,0.8,24.0,166.2
PCH Pres. Goulart-M1,45588000,Correntina,Correntina (PCH Pres. Goulart-M1) - 45588000,-13.3408,-44.6414,Oeste,"RPGA do Rio Corrente e Riachos do Ramalho, Serra Dourada e Brejo Velho",0.0,19.6,2.2,34.2,0.2,0.0,15.4,8.4,21.6,30.6,5.8,1.6,36.4,176.01
PCH Sítio Grande-J,46453500,São Desidério,São Desidério (PCH Sítio Grande-J) - 46453500,-12.4286,-45.1528,Oeste,RPGA do Rio Grande,0.0,5.6,0.0,18.6,0.0,31.0,4.4,16.6,24.2,10.8,11.2,17.8,1.6,141.8
Ponte do Fortunato,CA-FR-01,Cocos,Cocos (Ponte do Fortunato) - CA-FR-01,-14.641237,-45.503601,Oeste,RPGA do Rio Carinhanha,0.0,0.0,5.6,13.0,39.0,0.8,5.0,9.0,22.4,29.2,21.4,6.8,2.8,155.01
Fazenda Morete,CT-FR-01,Correntina,Correntina (Fazenda Morete) - CT-FR-01,-13.223149,-45.154136,Oeste,"RPGA do Rio Corrente e Riachos do Ramalho, Serra Dourada e Brejo Velho",0.0,16.0,0.2,22.2,1.0,0.0,12.4,29.2,13.4,8.2,27.2,18.8,22.4,171.01
Fazenda Lagoa do Casamento,CT-FR-08,Cocos,Cocos (Fazenda Lagoa do Casamento) - CT-FR-08,-14.39901,-45.520267,Oeste,"RPGA do Rio Corrente e Riachos do Ramalho, Serra Dourada e Brejo Velho",0.0,5.0,1.4,5.4,59.2,9.4,1.2,10.8,13.4,36.0,10.6,12.2,29.2,193.8
Fazenda Vereda Nova,GR-FR-20,São Desidério,São Desidério (Fazenda Vereda Nova) - GR-FR-20,-12.833418,-45.307751,Oeste,RPGA do Rio Grande,0.0,6.2,0.0,68.8,0.2,46.2,13.8,18.8,39.6,23.8,11.8,18.0,6.8,254.01
Fazenda Vale do Urso,GR-FR-23,Luís Eduardo Magalhães,Luís Eduardo Magalhães (Fazenda Vale do Urso) - GR-FR-23,-11.905058,-45.698311,Oeste,RPGA do Rio Grande,0.0,27.6,6.4,22.4,0.0,0.0,0.0,5.4,29.0,48.2,6.6,10.8,0.2,156.6
Bebedouro,45760000,Jaborandi,Jaborandi (Bebedouro) - 45760000,-13.7372,-45.4639,Oeste,"RPGA do Rio Corrente e Riachos do Ramalho, Serra Dourada e Brejo Velho",0.0,12.8,0.2,25.0,14.6,5.2,14.4,0.4,38.4,4.6,23.2,43.2,41.4,223.4
Rio de Pedras,46520000,Barreiras,Barreiras (Rio de Pedras) - 46520000,-12.1944,-45.4897,Oeste,RPGA do Rio Grande,0.0,15.2,0.6,58.2,0.0,0.0,0.0,21.4,48.0,68.2,13.4,6.8,0.2,232.01
Periperi,292740820A,Salvador,Salvador (Periperi) - 292740820A,-12.867344,-38.458111,Recôncavo,RPGA do Recôncavo Norte,24.0,0.0,0.0,0.2,36.0,22.4,0.0,0.0,2.4,11.2,9.4,2.2,0.0,107.81
Mussurunga,292740821A,Salvador,Salvador (Mussurunga) - 292740821A,-12.907733,-38.440111,Recôncavo,RPGA do Recôncavo Norte,18.8,0.0,0.0,0.0,42.4,55.2,0.2,0.0,0.4,2.0,0.0,0.0,0.0,119.01
Itapuã,292740819A,Salvador,Salvador (Itapuã) - 292740819A,-12.947736,-38.370136,Recôncavo,RPGA do Recôncavo Norte,22.2,0.2,0.0,0.0,23.4,57.6,0.4,0.6,0.0,0.0,0.2,0.0,0.0,104.61
Cachoeira,290490201A,Cachoeira,Cachoeira - 290490201A,-12.607725,-38.960655,Recôncavo,RPGA do Rio Paraguaçu,6.2,0.0,0.0,0.0,2.4,2.0,0.0,0.0,0.0,7.0,12.4,0.2,0.0,30.2
Centro,291345701A,Igrapiúna,Igrapiúna (Centro) - 291345701A,-13.819025,-39.141885,Recôncavo,RPGA do Recôncavo Sul,0.0,1.6,0.2,23.6,9.0,0.2,0.0,0.0,1.8,55.8,75.4,0.4,0.8,168.81
Itaparica,RN-CL-08,Itaparica,Itaparica - RN-CL-08,-12.8865,-38.68086,Recôncavo,RPGA do Recôncavo Sul,0.0,0.2,0.0,0.0,0.0,0.0,0.0,0.0,0.0,0.0,0.0,0.0,0.0,0.2
São Félix,292900801A,São Félix,São Félix - 292900801A,-12.606591,-38.969939,Recôncavo,RPGA do Rio Paraguaçu,3.8,0.0,0.0,0.0,3.0,1.0,0.0,0.0,0.0,6.4,6.0,0.2,0.0,20.4
Góes Calmon,293070901A,Simões Filho,Simões Filho (Góes Calmon) - 293070901A,-12.780101,-38.353331,Recôncavo,RPGA do Recôncavo Norte,13.4,0.0,0.0,0.0,74.2,19.2,0.0,0.0,0.0,3.6,1.0,3.4,0.0,114.81
Centro,293070903A,Simões Filho,Simões Filho (Centro) - 293070903A,-12.788344,-38.396864,Recôncavo,RPGA do Recôncavo Norte,11.0,0.0,0.0,0.0,55.8,18.0,0.0,0.0,1.8,20.0,1.4,0.8,0.0,108.8
Feira de Santana,PG-PR-13,Feira de Santana,Feira de Santana - PG-PR-13,-12.268161,-38.96642,Recôncavo,RPGA do Rio Paraguaçu,2.0,0.0,0.0,0.0,0.0,0.0,0.0,0.0,0.0,9.8,0.0,0.0,0.0,11.8
Centro,292740802A,Salvador,Salvador (Centro) - 292740802A,-12.97821,-38.515945,Recôncavo,RPGA do Recôncavo Norte,1.78,1.58,0.2,3.55,25.4,20.26,0.2,0.0,0.0,20.27,2.8,0.0,0.0,76.04
São tomé de Paripe,292740806A,Salvador,Salvador (São tomé de Paripe) - 292740806A,-12.795508,-38.489389,Recôncavo,RPGA do Recôncavo Norte,14.88,2.37,0.0,0.0,48.31,25.05,0.0,0.0,0.0,0.59,0.99,0.39,0.0,92.58
Federação,292740803A,Salvador,Salvador (Federação) - 292740803A,-13.000791,-38.511056,Recôncavo,RPGA do Recôncavo Norte,2.36,0.0,0.0,10.63,22.43,35.99,0.0,0.0,0.0,81.57,0.2,0.0,0.0,153.18
Cabula,292740810A,Salvador,Salvador (Cabula) - 292740810A,-12.961347,-38.460778,Recôncavo,RPGA do Recôncavo Norte,17.63,0.0,0.0,3.74,24.99,43.67,0.0,0.0,0.0,5.31,0.0,0.0,0.0,95.34
Caminho das Árvores,292740815A,Salvador,Salvador (Caminho das Árvores) - 292740815A,-12.97718,-38.453834,Recôncavo,RPGA do Recôncavo Norte,20.56,0.0,0.0,6.7,21.04,75.67,0.2,0.0,0.0,9.43,0.0,0.0,0.0,133.6
Águas Claras,292740808A,Salvador,Salvador (Águas Claras) - 292740808A,-12.8944,-38.441889,Recôncavo,RPGA do Recôncavo Norte,19.65,0.0,0.0,0.39,30.12,24.03,0.0,0.0,0.0,13.19,0.2,0.0,0.0,87.58
Alto do Peru,292740812A,Salvador,Salvador (Alto do Peru) - 292740812A,-12.939122,-38.486334,Recôncavo,RPGA do Recôncavo Norte,14.41,0.0,0.0,3.16,34.86,27.76,0.0,0.0,0.2,19.18,0.4,0.0,0.0,99.97
CAB,292740811A,Salvador,Salvador (CAB) - 292740811A,-12.943354,-38.421264,Recôncavo,RPGA do Recôncavo Norte,14.46,1.0,0.0,2.76,24.91,63.53,0.0,0.0,4.73,10.84,0.0,0.0,0.0,122.23
Cosme de Farias,292740816A,Salvador,Salvador (Cosme de Farias) - 292740816A,-12.979402,-38.4855,Recôncavo,RPGA do Recôncavo Norte,3.74,0.0,0.0,7.9,42.81,42.43,0.0,0.0,0.0,23.02,0.0,0.0,0.0,119.9
São Caetano,292740814A,Salvador,Salvador (São Caetano) - 292740814A,-12.939678,-38.474667,Recôncavo,RPGA do Recôncavo Norte,17.9,0.0,0.0,8.1,15.34,41.13,0.0,0.0,0.0,5.0,0.0,0.0,0.0,87.47
Pirajá,292740801A,Salvador,Salvador (Pirajá) - 292740801A,-12.8994,-38.458833,Recôncavo,RPGA do Recôncavo Norte,19.37,0.4,0.0,2.96,37.97,34.14,0.0,0.0,0.0,7.7,0.39,0.0,0.0,102.93
Rio Sena,292740805A,Salvador,Salvador (Rio Sena) - 292740805A,-12.891344,-38.470778,Recôncavo,RPGA do Recôncavo Norte,25.24,0.79,0.0,3.55,14.78,39.71,0.0,0.0,5.56,2.8,1.6,0.8,0.0,94.83
Valéria,292740817A,Salvador,Salvador (Valéria) - 292740817A,-12.8644,-38.438276,Recôncavo,RPGA do Recôncavo Norte,21.32,0.0,0.0,0.2,22.43,21.46,0.0,0.0,1.18,24.2,3.94,0.2,0.0,94.93
Monte Serrat,292740804A,Salvador,Salvador (Monte Serrat) - 292740804A,-12.930789,-38.517167,Recôncavo,RPGA do Recôncavo Norte,13.9,0.0,0.0,0.4,49.43,21.07,0.0,0.0,3.35,1.76,7.48,0.4,0.0,97.8
Santa Terezinha,290650105A,Candeias,Candeias (Santa Terezinha) - 290650105A,-12.647172,-38.539112,Recôncavo,RPGA do Recôncavo Norte,4.51,0.2,0.0,0.0,47.31,2.76,0.0,0.0,0.0,1.97,1.21,0.0,0.0,57.96
Centro,290650101A,Candeias,Candeias (Centro) - 290650101A,-12.670229,-38.544112,Recôncavo,RPGA do Recôncavo Norte,3.15,0.0,0.0,0.0,11.23,12.11,0.4,0.0,0.0,12.17,3.74,0.0,0.0,42.81
Sarandi,290650104A,Candeias,Candeias (Sarandi) - 290650104A,-12.671341,-38.531056,Recôncavo,RPGA do Recôncavo Norte,4.34,0.0,0.0,0.0,26.95,5.73,1.78,0.0,0.0,13.77,0.4,0.0,0.0,52.97
Areia Branca,291920706A,Lauro de Freitas,Lauro de Freitas (Areia Branca) - 291920706A,-12.841,-38.337,Recôncavo,RPGA do Recôncavo Norte,53.88,0.0,0.0,0.0,28.73,31.29,0.0,0.0,0.59,2.17,0.98,0.0,0.0,117.65
Itinga 02,291920704A,Lauro de Freitas,Lauro de Freitas (Itinga 02) - 291920704A,-12.89,-38.353,Recôncavo,RPGA do Recôncavo Norte,3.97,0.2,0.0,0.6,30.38,37.43,0.0,0.0,0.0,1.8,0.0,0.0,0.0,74.38
Vila Praiana,291920702A,Lauro de Freitas,Lauro de Freitas (Vila Praiana) - 291920702A,-12.901,-38.308,Recôncavo,RPGA do Recôncavo Norte,21.08,0.0,0.0,3.97,32.14,36.36,0.0,0.0,0.0,0.0,0.0,0.0,0.0,93.55
Portão,291920701A,Lauro de Freitas,Lauro de Freitas (Portão) - 291920701A,-12.87,-38.305,Recôncavo,RPGA do Recôncavo Norte,55.82,0.0,0.0,0.98,39.8,41.11,0.98,0.0,0.0,0.0,0.0,0.0,0.0,138.69
Rua 02 de Julho,291920705A,Lauro de Freitas,Lauro de Freitas (Rua 02 de Julho) - 291920705A,-12.839,-38.35,Recôncavo,RPGA do Recôncavo Norte,16.34,0.2,0.0,0.0,38.97,30.74,0.0,0.0,4.33,3.16,1.78,0.0,0.0,95.52
Muritiba,PG-PR-12,Muritiba,Muritiba - PG-PR-12,-12.617895,-39.005591,Recôncavo,RPGA do Rio Paraguaçu,0.0,0.0,0.0,0.0,1.8,0.4,0.0,0.2,0.0,11.2,4.2,0.0,0.0,17.8
Dois de Julho,291120401A,Gandú,Gandú (Dois de Julho) - 291120401A,-13.741357,-39.48303,Recôncavo,RPGA do Recôncavo Sul,1.19,4.58,0.0,37.41,1.57,0.4,0.0,0.0,1.39,3.77,38.96,0.2,0.0,89.47
Rua São Roque,293290301A,Valença,Valença (Rua São Roque) - 293290301A,-13.363,-39.078,Recôncavo,RPGA do Recôncavo Sul,1.77,0.0,0.2,10.29,31.28,5.92,0.2,0.2,0.4,28.79,23.68,2.96,0.0,105.7
São Francisco do Conde,RN-CL-07,São Francisco do Conde,São Francisco do Conde - RN-CL-07,-12.61136,-38.68222,Recôncavo,RPGA do Recôncavo Norte,4.2,0.0,0.0,0.0,7.0,3.2,26.4,0.0,0.0,0.0,6.0,5.2,0.0,52.0
CIA,293070902A,Simões Filho,Simões Filho (CIA) - 293070902A,-12.825461,-38.409051,Recôncavo,RPGA do Recôncavo Norte,11.2,0.0,0.0,0.0,38.0,25.8,0.0,0.0,0.0,31.2,2.8,3.8,0.0,112.8
PC Fazenda Jurema,51346050,Rafael Jambeiro,Rafael Jambeiro (PC Fazenda Jurema) - 51346050,-12.4881,-39.6981,Recôncavo,RPGA do Rio Paraguaçu,22.8,0.0,0.0,1.2,0.4,5.8,0.6,0.0,0.0,3.2,0.2,9.2,0.0,43.41
PC Argoim,51351000,Rafael Jambeiro,Rafael Jambeiro (PC Argoim) - 51351000,-12.5867,-39.5217,Recôncavo,RPGA do Rio Paraguaçu,13.4,0.2,0.2,2.4,0.4,3.4,5.2,0.0,0.0,13.6,2.2,0.6,0.0,41.6
PC Rio Paratigi,51370000,Santo Estevão,Santo Estevão (PC Rio Paratigi) - 51370000,-12.51503,-39.38272,Recôncavo,RPGA do Rio Paraguaçu,4.2,0.4,0.0,0.4,0.2,4.4,0.0,0.0,0.0,1.2,1.0,0.0,0.0,11.8
Cândido Sales,53620000,Cândido Sales,Cândido Sales - 53620000,-15.512891,-41.236629,Sudoeste,RPGA do Rio Pardo,11.8,2.8,3.0,31.4,2.4,1.8,20.4,4.4,14.4,0.8,43.4,1.0,0.0,137.6
Lagoa,291760701A,Jaguaquara,Jaguaquara (Lagoa) - 291760701A,-13.523228,-39.968685,Sudoeste,RPGA do Recôncavo Sul,0.0,43.4,7.8,101.6,0.4,11.0,0.2,0.0,0.6,2.8,21.6,2.0,0.2,191.6
Entroncamento,291760702A,Jaguaquara,Jaguaquara (Entroncamento) - 291760702A,-13.509869,-40.05461,Sudoeste,RPGA do Recôncavo Sul,0.2,28.0,0.2,92.0,0.2,0.8,0.4,0.0,0.8,1.6,38.6,0.2,0.0,163.0
Recreio,293330702A,Vitória da Conquista,Vitória da Conquista (Recreio) - 293330702A,-14.861,-40.841,Sudoeste,RPGA do Rio Pardo,0.0,9.46,0.0,17.72,0.98,70.66,0.2,8.3,29.26,1.0,43.09,1.59,0.0,182.26
Patagônia,293330704A,Vitória da Conquista,Vitória da Conquista (Patagônia) - 293330704A,-14.87,-40.863,Sudoeste,RPGA do Rio Pardo,0.0,7.33,0.0,27.18,2.57,75.53,0.0,14.21,34.67,0.4,44.87,4.34,0.0,211.11
Barcelar,293330705A,Vitória da Conquista,Vitória da Conquista (Barcelar) - 293330705A,-14.838,-40.856,Sudoeste,RPGA do Rio Pardo,0.0,15.07,0.0,32.7,8.86,62.18,0.2,7.52,31.05,1.99,24.58,3.94,0.0,188.1
Lomantão,293330703A,Vitória da Conquista,Vitória da Conquista (Lomantão) - 293330703A,-14.87,-40.827,Sudoeste,RPGA do Rio Pardo,0.0,7.88,0.0,13.95,0.4,30.87,0.2,8.28,20.96,1.2,39.04,3.74,0.0,126.52
Fz Nanci,53880000,Camacã,Camacã (Fz Nanci) - 53880000,-15.581395,-39.521095,Sul,RPGA do Rio Pardo,0.8,29.0,8.4,43.8,30.0,1.8,10.0,9.2,26.6,17.2,2.6,5.0,1.2,185.6
PCH Cach. da Lixa M,55354000,Jucuruçu,Jucuruçu (PCH Cach. da Lixa M) - 55354000,-17.06703,-40.068619,Sul,"RPGA dos Rios Peruípe, Itanhém e Jucuruçu",17.4,39.8,0.6,0.4,0.6,0.2,0.4,4.8,1.8,2.2,0.8,1.2,0.8,71.0
Itajuípe,,Itajuípe,Itajuípe,-14.6744,-39.3769,Sul,RPGA do Leste,0.0,0.2,0.0,20.4,10.4,23.0,2.6,4.6,0.8,0.8,10.4,10.8,5.2,89.2
Barra do Rocha,290310201A,Barra do Rocha,Barra do Rocha - 290310201A,-14.208644,-39.598562,Sul,RPGA do Rio de Contas,0.2,10.8,9.8,35.8,4.4,0.0,7.8,0.0,0.0,1.0,27.4,4.6,0.0,101.8
Centro,290580001A,Camamu,Camamu (Centro) - 290580001A,-13.943506,-39.10251,Sul,RPGA do Recôncavo Sul,0.0,0.4,0.0,21.6,0.0,0.2,0.0,0.0,0.2,65.2,27.2,0.8,0.0,115.6
Novo Horizonte,291180801A,Guaratinga,Guaratinga (Novo Horizonte) - 291180801A,-16.582916,-39.780555,Sul,"RPGA dos Rios dos Frades, Buranhém e Santo Antônio",4.6,1.0,26.4,2.0,13.4,5.0,1.4,29.6,116.4,62.8,16.6,0.2,0.0,279.41
CPLAC,LE-CL-02,Jussari,Jussari (CPLAC) - LE-CL-02,-15.18683,-39.48713,Sul,RPGA do Leste,0.0,4.0,9.6,33.2,5.0,9.8,0.0,9.8,4.4,28.8,13.4,0.2,0.2,118.41
Centro,291560101A,Itamaraju,Itamaraju (Centro) - 291560101A,-17.027541,-39.534994,Sul,"RPGA dos Rios Peruípe, Itanhém e Jucuruçu",0.2,18.0,10.6,0.4,9.2,6.0,0.2,315.6,79.8,87.6,10.0,0.2,1.0,538.81
Pau Brasil,292390201A,Pau Brasil,Pau Brasil - 292390201A,-15.46122,-39.65225,Sul,RPGA do Rio Pardo,0.4,37.8,11.8,74.2,7.8,0.8,5.6,8.6,15.2,50.4,11.8,1.2,0.0,225.6
Centro,292805901A,Santa Luzia,Santa Luzia (Centro) - 292805901A,-15.42976,-39.332759,Sul,RPGA do Leste,0.2,9.2,27.2,42.6,14.0,1.8,4.8,18.8,4.6,54.8,14.8,1.2,0.0,194.0
PCH Colino I J,55357000,Jucuruçu,Jucuruçu (PCH Colino I J) - 55357000,-17.0822,-40.0772,Sul,"RPGA dos Rios Peruípe, Itanhém e Jucuruçu",6.0,45.5,0.75,0.0,0.25,0.25,0.0,0.0,0.25,0.0,0.25,0.0,0.0,53.25
Centro,290560201A,Camacan,Camacan (Centro) - 290560201A,-15.422225,-39.494984,Sul,RPGA do Rio Pardo,0.0,11.06,20.87,71.5,26.19,3.2,8.6,8.2,5.4,15.58,14.6,8.79,4.4,198.39
Centro,290340901A,Belmonte,Belmonte (Centro) - 290340901A,-15.859179,-38.878025,Sul,RPGA do Rio Jequitinhonha,2.36,1.98,3.74,6.32,0.0,0.0,0.79,2.56,3.94,91.74,12.2,0.0,0.0,125.63
São João do Panelinha,290560202A,Camacan,Camacan (São João do Panelinha) - 290560202A,-15.375278,-39.489984,Sul,RPGA do Rio Pardo,0.0,6.3,16.56,75.53,4.33,5.52,0.79,17.92,10.25,15.58,17.69,1.18,0.2,171.85
Centro,290560203A,Camacan,Camacan (Centro) - 290560203A,-15.416389,-39.493873,Sul,RPGA do Rio Pardo,0.2,9.3,18.6,96.92,12.62,0.59,6.9,11.07,12.39,24.83,9.73,3.93,1.78,208.86
Conquista,291360601A,Ilhéus,Ilhéus (Conquista) - 291360601A,-14.797213,-39.04608,Sul,RPGA do Leste,6.31,4.33,28.15,14.2,5.71,27.97,0.0,1.78,42.2,98.39,121.8,0.0,0.2,351.04
Malhado,291360602A,Ilhéus,Ilhéus (Malhado) - 291360602A,-14.789158,-39.048858,Sul,RPGA do Leste,5.13,3.77,32.69,12.48,3.95,25.61,0.0,0.8,33.88,86.32,108.03,0.82,0.0,313.48
São Caetano,291480202A,Itabuna,Itabuna (São Caetano) - 291480202A,-14.80638,-39.27803,Sul,RPGA do Leste,0.0,4.04,3.97,12.87,0.0,16.9,4.54,19.15,9.26,8.88,88.54,0.8,0.2,169.15
Nova Ferradas,291480203A,Itabuna,Itabuna (Nova Ferradas) - 291480203A,-14.857213,-39.346922,Sul,RPGA do Leste,1.57,5.8,5.51,16.02,0.2,13.41,2.0,16.42,11.42,10.84,58.45,2.57,0.2,144.41
Centro,292300102A,Nova Viçosa,Nova Viçosa (Centro) - 292300102A,-17.893,-39.372,Sul,"RPGA dos Rios Peruípe, Itanhém e Jucuruçu",0.0,9.26,0.0,19.94,2.96,3.77,11.72,54.77,28.49,26.4,3.36,0.2,0.0,160.88
Posto da Mata,292300103A,Nova Viçosa,Nova Viçosa (Posto da Mata) - 292300103A,-17.896,-39.37,Sul,"RPGA dos Rios Peruípe, Itanhém e Jucuruçu",0.0,7.88,0.0,19.52,1.78,4.13,11.1,48.07,25.71,13.4,0.2,0.0,0.0,131.79
Areião,292530301A,Porto Seguro,Porto Seguro (Areião) - 292530301A,-16.441,-39.076,Sul,"RPGA dos Rios dos Frades, Buranhém e Santo Antônio",50.59,3.35,1.97,3.57,0.0,0.0,1.77,16.77,153.31,80.67,3.94,0.59,0.0,316.53
Centro,291480201A,Itabuna,Itabuna (Centro) - 291480201A,-14.79,-39.274,Sul,RPGA do Leste,0.0,3.18,5.12,12.82,0.0,7.67,7.08,16.72,5.72,3.54,88.58,1.39,0.0,151.82
Estádio Municipal,291530401A,Itagimirim,Itagimirim (Estádio Municipal) - 291530401A,-16.089181,-39.615546,Sul,RPGA do Rio Jequitinhonha,5.35,12.64,3.19,8.23,22.11,0.0,12.4,13.25,19.76,15.17,2.84,2.21,0.0,117.15
Jusante,54945000,Itapebi,Itapebi (Jusante) - 54945000,-15.949206,-39.5225,Sul,RPGA do Rio Jequitinhonha,0.6,7.0,2.6,27.4,6.6,3.8,0.8,16.6,12.8,28.4,2.0,3.0,11.0,122.6
Ferradas,53170000,Itabuna,Itabuna (Ferradas) - 53170000,-14.8439,-39.3311,Sul,RPGA do Leste,1.2,5.2,2.4,18.4,0.6,14.0,4.8,18.6,8.8,17.6,70.6,3.2,1.6,167.0
Morpará,46360000,Morpará,Morpará - 46360000,-11.5583,-43.2825,São Francisco,RPGA dos Rios Paramirim e Santo Onofre,16.6,5.4,0.2,16.4,8.8,0.0,5.4,0.4,47.4,1.4,2.6,6.0,7.0,117.6
Faz. Macambira,46675000,Cotegipe,Cotegipe (Faz. Macambira) - 46675000,-11.6106,-44.1567,São Francisco,RPGA do Rio Grande,0.0,39.8,0.2,8.0,4.4,0.0,27.2,19.8,17.4,0.2,0.0,0.0,0.0,117.0
Fz.P. Limpo,46870000,Mansidão,Mansidão (Fz.P. Limpo) - 46870000,-11.236845,-43.950633,São Francisco,RPGA do Rio Grande,0.0,4.6,0.2,2.8,0.0,0.0,14.8,1.4,0.6,42.0,12.4,0.0,0.0,78.81
Barra,46998000,Barra,Barra - 46998000,-11.0928,-43.1403,São Francisco,RPGA do Rio Grande,13.2,3.6,2.8,0.0,0.2,0.2,0.0,0.0,0.0,0.2,0.0,0.2,0.0,20.4
Boqueirão,46902000,Mansidão,Mansidão (Boqueirão) - 46902000,-11.345255,-43.826056,São Francisco,RPGA do Rio Grande,7.2,8.6,0.0,9.4,3.8,0.0,7.8,10.8,2.8,0.6,0.0,2.8,0.0,53.81
Boquira,PM-PR-05,Boquira,Boquira - PM-PR-05,-12.81037,-42.71849,São Francisco,RPGA dos Rios Paramirim e Santo Onofre,0.0,17.6,0.4,3.0,1.0,4.6,4.4,3.2,17.6,0.4,0.0,0.8,0.0,53.0
Ipupiara,SM-PR-07,Ipupiara,Ipupiara - SM-PR-07,-11.81885,-42.61825,São Francisco,RPGA dos Rios Paramirim e Santo Onofre,0.2,59.4,2.2,0.0,0.0,0.0,0.0,0.0,0.0,0.0,0.0,0.0,0.0,61.81
Volta da Serra,CD-CL-02,Paratinga,Paratinga (Volta da Serra) - CD-CL-02,-12.57591,-43.12782,São Francisco,RPGA do Rio Carnaíba de Dentro,0.2,9.6,0.0,4.6,0.8,1.2,1.2,2.0,45.4,0.2,0.4,0.8,0.0,66.4
Xique-Xique,PM-CL-05,Xique-Xique,Xique-Xique - PM-CL-05,-10.82519,-42.68914,São Francisco,RPGA dos Rios Paramirim e Santo Onofre,6.0,41.4,19.4,3.0,0.4,0.2,0.0,0.0,9.2,0.0,0.8,0.0,0.0,80.4
Fazenda Água Quente,VJ-FR-01,Gentio do Ouro,Gentio do Ouro (Fazenda Água Quente) - VJ-FR-01,-11.550069,-42.337643,São Francisco,RPGA dos Rios Verde e Jacaré,12.8,0.0,5.0,2.0,0.4,2.6,0.0,0.0,59.6,2.8,13.2,0.4,0.0,98.81
