nome_estacao,codigo,municipio,estacao,latitude,longitude,regiao,rpga,01_01_21,02_01_21,03_01_21,04_01_21,05_01_21,06_01_21,07_01_21,08_01_21,09_01_21,10_01_21,11_01_21,12_01_21,13_01_21,14_01_21,15_01_21,16_01_21,17_01_21,18_01_21,19_01_21,20_01_21,21_01_21,22_01_21,23_01_21,24_01_21,25_01_21,26_01_21,27_01_21,28_01_21,29_01_21,30_01_21,31_01_21,total
Lençóis,83242,Lençóis,Lençóis - 83242,-12.557,-41.389,Chapada Diamantina,RPGA do Rio Paraguaçu,0.0,0.0,0.0,1.7,0.0,0.0,0.0,0.0,0.0,0.0,2.2,0.5,5.2,2.0,0.4,7.4,5.3,0.0,5.2,0.0,0.0,0.0,0.0,0.0,0.3,1.0,4.1,0.3,0.4,0.0,1.0,37.0
Morro do Chapéu,83184,Morro do Chapéu,Morro do Chapéu - 83184,-11.217,-41.217,Chapada Diamantina,RPGA do Rio Salitre,0.0,0.0,0.0,0.0,0.0,0.0,0.0,0.0,0.0,0.0,0.0,0.0,0.0,0.0,0.0,13.7,0.8,0.0,0.0,0.0,0.0,0.0,1.0,0.0,2.3,0.4,0.0,0.0,0.0,0.0,0.0,18.2
Piatã,A430,Piatã,Piatã - A430,-13.156,-41.774,Chapada Diamantina,RPGA do Rio de Contas,0.0,0.0,0.0,0.0,0.0,0.0,0.0,0.0,0.0,6.4,0.8,0.0,62.2,40.4,1.0,0.8,2.4,0.0,0.2,0.0,0.0,0.0,0.0,0.0,0.2,1.0,0.2,2.0,0.0,0.0,0.0,117.61
Livramento de Nossa Senhora,291950401U,Livramento de Nossa Senhora,Livramento de Nossa Senhora - 291950401U,-13.683,-41.841,Chapada Diamantina,RPGA do Rio de Contas,0.0,0.0,0.0,0.0,0.0,0.0,0.0,0.0,0.0,0.0,11.8,0.0,0.8,0.0,0.0,0.0,5.2,0.0,0.0,0.0,0.0,0.0,0.0,0.0,0.0,0.0,0.0,0.0,0.0,0.0,0.0,17.8
Iaçu,51280000,Iaçu,Iaçu - 51280000,-12.762,-40.214,Chapada Diamantina,RPGA do Rio Paraguaçu,0.0,0.0,0.0,0.0,2.2,3.8,0.0,0.0,0.0,0.0,0.2,0.0,0.0,0.0,2.2,3.6,0.0,0.4,1.6,0.0,0.0,0.4,0.0,0.0,1.0,0.0,1.2,0.0,0.0,0.0,0.0,16.6
Lençóis,A425,Lençóis,Lençóis - A425,-12.558,-41.389,Chapada Diamantina,RPGA do Rio Paraguaçu,0.0,0.0,0.0,2.0,0.0,0.0,0.0,0.0,0.0,0.0,2.6,0.6,5.6,2.0,0.2,2.8,2.2,0.0,0.8,0.0,0.0,0.0,0.0,0.0,0.2,0.6,2.8,0.0,0.0,0.0,1.2,23.6
Lagoa Bonita,PG-PR-15,Iacú,Iacú (Lagoa Bonita) - PG-PR-15,-12.932,-40.226,Chapada Diamantina,RPGA do Rio Paraguaçu,0.0,0.0,0.0,0.0,0.0,0.6,0.0,0.0,0.0,0.0,0.0,0.0,2.4,0.0,0.2,8.2,0.6,0.2,1.4,0.0,0.0,0.0,0.0,0.0,0.4,0.4,4.6,0.0,0.0,0.0,0.0,19.0
João Amaro,PG-PR-16,Iaçu,Iaçu (João Amaro) - PG-PR-16,-12.8,-40.363,Chapada Diamantina,RPGA do Rio Paraguaçu,0.0,0.0,0.0,0.0,0.2,3.4,0.0,0.0,0.0,0.0,0.0,0.2,0.6,0.0,0.6,0.2,0.4,0.0,0.0,0.0,0.0,0.0,0.0,0.0,0.0,0.2,2.6,0.0,0.0,0.0,0.0,8.4
Guiné,PG-PR-24,Mucugê,Mucugê (Guiné) - PG-PR-24,-12.772,-41.541,Chapada Diamantina,RPGA do Rio Paraguaçu,0.0,0.0,0.0,0.0,0.0,0.0,0.0,0.0,0.0,0.0,9.0,0.0,0.4,0.0,0.2,1.8,0.2,0.0,0.0,0.0,0.0,0.0,0.0,0.0,0.0,0.0,5.8,0.8,0.0,0.0,0.0,18.2
Machado Portela,PG-PR-26,Marcionílio Souza,Marcionílio Souza (Machado Portela) - PG-PR-26,-13.154,-40.768,Chapada Diamantina,RPGA do Rio Paraguaçu,0.0,0.0,0.0,0.0,0.0,0.0,0.0,0.0,0.0,0.0,0.0,0.0,0.8,0.0,0.2,1.2,4.4,0.0,7.4,0.0,0.0,0.0,0.0,0.0,0.0,0.0,3.8,1.0,0.0,0.0,0.0,18.8
Marcionílio Souza,PG-CL-03,Marcionílio Souza,Marcionílio Souza - PG-CL-03,-13.0,-40.538,Chapada Diamantina,RPGA do Rio Paraguaçu,0.0,0.0,0.0,0.0,0.0,0.6,0.0,0.0,0.0,0.0,0.0,0.0,0.0,0.0,0.2,0.6,0.0,0.0,1.6,0.0,0.0,0.0,0.0,0.0,0.6,2.6,2.8,0.2,0.0,0.0,0.0,9.2
Seabra,PG-PR-01,Seabra,Seabra - PG-PR-01,-12.428,-41.77,Chapada Diamantina,RPGA do Rio Paraguaçu,0.0,0.0,0.0,0.0,0.0,0.0,0.0,0.0,0.0,0.0,0.0,0.0,2.0,7.2,0.0,1.2,0.2,0.0,0.0,0.0,0.0,0.0,0.0,0.0,0.0,0.0,1.2,0.0,0.0,0.0,0.0,11.8
Baixa Grande,PG-PR-08,Baixa Grande,Baixa Grande - PG-PR-08,-11.909,-40.184,Chapada Diamantina,RPGA do Rio Paraguaçu,0.0,0.0,0.0,0.0,0.0,0.0,0.0,0.0,0.0,0.0,0.0,0.0,0.0,0.0,0.0,7.2,0.2,3.6,5.4,0.0,0.0,1.0,1.4,5.8,1.0,0.4,0.0,0.0,0.0,0.4,0.0,26.4
Ventura,PG-PR-10,Morro do Chapéu,Morro do Chapéu (Ventura) - PG-PR-10,-11.651,-40.952,Chapada Diamantina,RPGA do Rio Paraguaçu,0.0,0.0,0.0,0.0,0.0,0.0,0.0,0.0,0.0,0.0,0.0,0.0,0.0,0.0,0.0,8.2,0.0,0.0,0.0,0.0,0.0,0.0,0.2,0.2,0.6,0.2,0.0,0.0,0.0,0.0,0.0,9.4
Bonito,PG-PR-11,Bonito,Bonito - PG-PR-11,-11.99,-41.254,Chapada Diamantina,RPGA do Rio Paraguaçu,0.0,0.0,0.0,0.0,0.0,0.0,0.0,0.0,0.0,0.0,0.0,0.0,1.0,0.0,1.6,17.2,0.2,1.2,0.0,0.0,2.4,0.6,0.4,0.2,0.4,1.8,1.8,0.0,0.0,0.2,0.0,29.0
Piatã,CO-CL-04,Piatã,Piatã - CO-CL-04,-13.164,-41.771,Chapada Diamantina,RPGA do Rio de Contas,0.0,0.0,0.0,0.0,0.0,0.0,0.0,0.0,0.0,8.75,0.0,0.0,32.25,31.0,0.0,2.0,0.5,0.0,0.0,0.0,0.0,0.0,0.0,0.0,0.0,0.25,0.25,1.75,0.0,0.0,0.0,76.75
Centro,291900901A,Lajedinho,Lajedinho (Centro) - 291900901A,-12.356,-40.902,Chapada Diamantina,RPGA do Rio Paraguaçu,0.6,0.0,0.0,0.0,0.0,0.8,0.0,0.0,0.0,0.0,0.0,0.0,0.0,0.0,2.6,4.6,0.2,0.2,0.0,0.0,1.2,0.4,0.2,0.0,2.0,2.8,0.4,0.0,0.0,0.0,0.0,16.0
PC Ponte Rio Capivari,51326200,Itaberaba,Itaberaba (PC Ponte Rio Capivari) - 51326200,-12.514,-39.934,Chapada Diamantina,RPGA do Rio Paraguaçu,0.0,0.0,0.0,0.0,0.0,0.0,0.0,0.0,0.0,0.0,0.0,0.0,0.0,0.0,0.2,6.2,3.0,0.2,0.0,0.0,0.4,1.2,0.2,0.2,0.2,1.0,0.2,0.8,0.0,0.2,0.0,14.0
Fazenda Terra Grapiúna,PG-FR-04,Wagner,Wagner (Fazenda Terra Grapiúna) - PG-FR-04,-12.181,-41.151,Chapada Diamantina,RPGA do Rio Paraguaçu,0.0,0.0,0.0,0.0,0.0,0.0,0.0,0.0,0.0,0.0,0.0,0.0,0.2,0.0,2.8,2.2,0.6,0.4,0.0,0.0,0.6,0.0,0.0,0.0,0.0,0.2,0.0,0.0,0.4,0.8,0.0,8.21
Açude Bandeira de Melo Jusante,PG-FR-18,Itaeté,Itaeté (Açude Bandeira de Melo Jusante) - PG-FR-18,-13.041,-40.777,Chapada Diamantina,RPGA do Rio Paraguaçu,0.0,0.0,0.0,0.0,0.0,0.0,0.0,0.0,0.0,0.0,0.0,0.0,0.4,0.4,0.0,0.0,1.4,0.0,0.8,0.0,0.2,0.0,0.0,0.0,0.2,0.0,2.6,0.0,0.0,0.0,0.0,6.0
Itaberaba,291470301C,Itaberaba,Itaberaba - 291470301C,-12.458,-40.202,Chapada Diamantina,RPGA do Rio Paraguaçu,0.0,0.0,0.0,0.0,0.0,0.0,0.0,0.0,0.0,0.0,0.0,0.0,0.0,0.0,0.0,4.4,0.2,0.6,0.0,0.0,2.2,0.0,0.0,0.0,1.2,0.4,0.0,0.0,0.0,0.0,0.0,9.0
Barro Alto,290323501C,Barro Alto,Barro Alto - 290323501C,-11.812,-41.901,Chapada Diamantina,RPGA dos Rios Verde e Jacaré,0.0,0.0,0.0,0.0,0.0,0.0,0.0,0.0,0.0,0.0,0.0,0.0,1.0,0.0,0.0,0.0,0.0,0.0,0.0,0.0,0.0,0.0,0.0,0.0,0.0,0.0,0.0,0.0,0.0,0.0,0.0,1.0
Chorrochó,290770701C,Chorrochó,Chorrochó - 290770701C,-8.984,-39.118,Nordeste,RPGA dos Rios Macururé e Curaçá,0.0,0.0,0.0,0.0,0.0,0.0,0.0,0.0,0.0,0.0,0.0,0.0,0.0,0.2,0.0,0.0,0.0,0.0,0.0,0.0,0.0,0.0,0.0,0.0,0.0,0.0,0.0,0.0,0.0,0.0,12.8,13.0
Cipó,83192,Cipó,Cipó - 83192,-11.083,-38.517,Nordeste,RPGA do Rio Itapicuru,0.0,0.0,0.0,0.0,0.0,0.0,0.0,0.0,0.0,0.0,0.0,0.0,0.0,3.2,0.0,1.0,0.0,0.0,0.0,0.0,0.0,1.2,0.8,2.6,0.6,0.0,0.0,0.0,0.0,0.0,6.5,15.9
Jacobina,83186,Jacobina,Jacobina - 83186,-11.173,-40.534,Nordeste,RPGA do Rio Itapicuru,0.0,0.0,0.0,0.0,0.0,0.0,0.0,0.0,0.0,0.0,0.0,0.0,0.0,40.7,0.0,10.4,0.0,0.0,0.0,0.0,0.0,0.0,0.0,0.0,0.0,0.0,0.0,0.0,0.0,0.0,0.0,51.1
Ladeira Vermelha,291750801A,Jacobina,Jacobina (Ladeira Vermelha) - 291750801A,-11.162,-40.554,Nordeste,RPGA do Rio Itapicuru,0.0,0.0,0.0,0.0,0.0,0.0,0.0,0.0,0.0,0.0,0.0,0.0,0.0,26.4,0.0,12.2,0.2,0.0,0.0,0.0,0.0,0.0,0.0,0.0,0.4,0.0,0.0,0.0,0.0,0.0,0.0,39.2
Feliz Tomaz,291750802A,Jacobina,Jacobina (Feliz Tomaz) - 291750802A,-11.174,-40.518,Nordeste,RPGA do Rio Itapicuru,0.0,0.0,0.0,0.0,0.0,0.0,0.0,0.0,0.0,0.0,0.0,0.0,0.0,51.8,0.2,11.6,0.2,0.0,0.0,0.0,0.0,0.0,0.2,0.2,0.4,0.2,0.0,0.0,0.0,0.0,0.0,64.81
Conde,A431,Conde,Conde - A431,-12.036,-37.683,Nordeste,RPGA do Rio Itapicuru,0.0,0.0,0.0,0.0,6.0,0.0,1.0,0.0,0.0,0.0,0.0,27.6,4.6,1.2,0.6,1.0,1.0,0.0,0.0,1.2,5.4,0.0,2.6,0.0,0.6,1.0,1.4,4.6,2.6,0.0,0.2,62.61
Senhor do Bonfim,A428,Senhor do Bonfim,Senhor do Bonfim - A428,-10.443,-40.148,Nordeste,RPGA do Rio Itapicuru,0.0,0.0,0.0,0.0,0.0,0.0,0.0,0.0,0.0,0.0,0.0,0.0,0.0,0.0,0.0,0.0,0.0,0.0,0.0,0.0,0.0,0.0,0.0,0.6,0.2,0.0,0.0,0.0,0.0,0.0,0.0,0.8
Pedras Altas,50430000,Capim Grosso,Capim Grosso (Pedras Altas) - 50430000,-11.183,-40.047,Nordeste,RPGA do Rio Itapicuru,0.0,0.0,0.0,0.0,0.0,0.0,0.0,0.0,0.0,0.0,0.0,0.0,0.0,0.6,0.0,1.4,0.0,0.0,0.2,0.0,0.0,0.0,0.0,0.0,0.0,0.0,0.0,0.0,0.0,0.0,0.0,2.2
Ponto Novo,50380000,Ponto Novo,Ponto Novo - 50380000,-10.845,-40.113,Nordeste,RPGA do Rio Itapicuru,0.0,0.0,0.0,0.0,0.0,0.0,0.0,0.0,0.0,0.0,0.0,0.0,0.4,0.0,0.0,0.0,0.0,0.2,0.0,0.4,0.2,0.2,0.0,0.0,0.2,0.0,0.0,2.0,0.2,0.0,0.0,3.8
Capim Grosso,IT-CL-03,Capim Grosso,Capim Grosso - IT-CL-03,-11.368,-40.034,Nordeste,RPGA do Rio Itapicuru,0.0,0.0,0.0,0.0,0.0,0.0,0.0,0.0,0.0,0.0,0.0,0.0,0.0,0.4,0.6,0.0,0.0,0.0,0.0,0.0,0.2,0.0,0.0,0.0,0.0,0.0,0.0,0.0,0.0,0.0,0.0,1.2
Pé de Serra,PG-CL-07,Pé de Serra,Pé de Serra - PG-CL-07,-11.837,-39.659,Nordeste,RPGA do Rio Paraguaçu,0.0,0.0,0.0,0.0,0.4,0.4,0.0,0.0,0.0,0.0,0.0,0.0,0.0,0.0,0.0,2.2,0.0,2.8,2.0,0.0,0.0,0.0,0.2,0.2,0.2,0.0,0.0,0.0,0.0,0.0,0.0,8.4
Itapeipu,IT-PR-34,Jacobina,Jacobina (Itapeipu) - IT-PR-34,-11.316,-40.357,Nordeste,RPGA do Rio Itapicuru,0.0,0.0,0.0,0.0,0.0,1.4,0.0,0.4,0.0,0.0,0.0,0.0,0.0,4.8,0.6,1.4,0.0,0.0,0.0,0.0,0.0,0.0,0.8,1.6,1.4,0.2,0.0,0.0,0.0,0.0,0.0,12.6
Carrapichel,IT-PR-37,Senhor do Bonfim,Senhor do Bonfim (Carrapichel) - IT-PR-37,-10.388,-40.22,Nordeste,RPGA do Rio Itapicuru,0.0,0.0,0.0,0.0,0.0,0.0,0.0,0.0,0.0,0.0,0.0,0.0,0.0,0.0,0.0,0.8,0.0,0.0,0.0,0.0,0.0,0.0,0.0,0.6,0.6,0.0,0.4,0.0,0.0,0.0,0.4,2.8
Santaluz,IT-PR-17,Santaluz,Santaluz - IT-PR-17,-11.248,-39.376,Nordeste,RPGA do Rio Itapicuru,0.0,0.0,0.0,0.0,0.0,0.0,0.0,0.0,0.0,0.0,0.0,0.0,0.0,0.0,0.2,0.0,0.0,0.0,1.0,0.0,0.0,0.0,0.0,1.6,0.0,0.0,0.0,0.0,0.0,0.2,1.6,4.6
Fazenda Boa Vista,IT-PR-18,Uauá,Uauá (Fazenda Boa Vista) - IT-PR-18,-10.059,-39.706,Nordeste,RPGA do Rio Itapicuru,0.0,0.0,0.0,0.0,0.0,0.0,0.0,0.0,0.0,2.0,0.0,19.2,8.2,0.0,0.0,0.0,0.0,0.0,0.0,0.0,0.0,0.0,0.0,0.0,0.0,0.0,0.0,0.0,0.4,0.0,0.0,29.8
Cansanção,IT-PR-20,Cansanção,Cansanção - IT-PR-20,-10.703,-39.544,Nordeste,RPGA do Rio Itapicuru,0.0,0.0,0.0,0.0,0.0,0.0,0.0,0.0,0.0,0.0,0.0,0.0,0.0,0.0,0.0,0.0,0.0,0.0,0.0,0.0,0.0,0.0,1.4,0.0,0.4,1.2,0.0,0.4,0.0,0.0,0.0,3.4
Quijingue,IT-PR-25,Quijingue,Quijingue - IT-PR-25,-10.784,-39.208,Nordeste,RPGA do Rio Itapicuru,0.0,0.0,0.0,0.0,0.0,0.0,0.0,0.0,0.0,0.0,0.0,0.0,0.0,0.0,0.0,0.0,0.0,0.0,1.0,0.0,0.4,0.0,1.6,0.4,0.0,0.2,0.2,0.0,0.0,0.0,0.0,3.81
Inhambupe,RN-CL-10,Inhambupe,Inhambupe - RN-CL-10,-11.693,-38.314,Nordeste,RPGA do Recôncavo Norte,0.0,0.0,0.0,0.0,1.2,0.6,0.0,0.0,0.0,0.0,0.0,0.0,0.0,3.0,2.6,0.8,0.0,0.4,0.0,0.0,0.8,0.8,0.2,0.6,1.8,2.2,0.6,0.0,0.0,0.0,18.8,34.41
Curral Falso,IT-PR-01,Ribeira do Pombal,Ribeira do Pombal (Curral Falso) - IT-PR-01,-10.698,-38.571,Nordeste,RPGA do Rio Itapicuru,0.0,0.0,0.0,0.0,0.0,0.0,0.0,0.0,0.0,0.0,0.0,0.0,0.0,0.0,0.0,0.4,0.0,0.0,2.6,0.0,0.0,0.0,0.2,1.6,0.0,5.8,0.0,0.0,0.0,0.2,2.0,12.8
Ribeira do Pombal,IT-PR-04,Ribeira do Pombal,Ribeira do Pombal - IT-PR-04,-10.823,-38.546,Nordeste,RPGA do Rio Itapicuru,0.0,0.0,0.0,0.0,0.0,0.0,0.0,0.0,0.0,0.0,0.0,0.0,0.0,0.0,0.0,0.2,0.4,0.0,0.0,0.0,0.0,0.0,0.0,0.8,0.2,5.2,0.0,0.0,0.0,1.4,6.2,14.41
Crisópolis,IT-PR-08,Crisópolis,Crisópolis - IT-PR-08,-11.511,-38.121,Nordeste,RPGA do Rio Itapicuru,0.0,0.0,0.0,0.0,0.0,0.0,0.0,1.4,0.0,0.0,0.0,0.0,0.0,0.0,0.8,1.0,0.0,0.0,0.0,0.0,0.0,2.8,2.6,0.0,0.8,2.8,0.6,0.0,0.0,0.2,12.0,25.0
Boa Hora,IT-PR-13,Ribeira do Amparo,Ribeira do Amparo (Boa Hora) - IT-PR-13,-10.965,-38.523,Nordeste,RPGA do Rio Itapicuru,0.0,0.0,0.0,0.0,0.0,0.0,0.0,0.2,0.0,0.0,0.0,0.0,0.0,2.6,0.0,0.6,0.0,0.0,1.4,0.0,0.2,0.8,0.4,1.0,4.8,3.6,0.0,0.2,1.6,1.0,32.0,50.4
Jeremoabo,A450,Jeremoabo,Jeremoabo - A450,-10.081,-38.346,Nordeste,RPGA do Rio Vaza-Barris,0.0,0.0,0.0,0.0,0.0,0.0,0.0,0.0,0.0,0.0,0.0,0.0,0.0,0.0,0.0,0.0,0.0,0.0,2.0,0.0,0.0,0.0,2.2,0.2,0.0,0.0,0.0,0.0,0.0,0.0,3.2,7.61
Fazenda Alecrim ,IT-FR-21,Filadélfia,Filadélfia (Fazenda Alecrim ) - IT-FR-21,-10.752,-40.224,Nordeste,RPGA do Rio Itapicuru,0.0,0.0,0.0,0.0,0.0,0.0,0.0,0.0,0.0,0.0,0.0,0.0,0.0,0.0,0.0,0.0,0.0,0.0,0.0,3.8,0.0,0.0,0.0,0.2,0.4,0.0,0.0,0.8,0.0,0.0,0.0,5.2
Queimadas,IT-FR-26,Queimadas,Queimadas - IT-FR-26,-10.973,-39.633,Nordeste,RPGA do Rio Itapicuru,0.0,0.0,0.0,0.0,0.0,0.0,0.0,0.0,0.0,0.0,0.0,0.0,0.0,0.0,0.0,0.0,0.0,0.0,6.2,0.0,0.6,0.0,0.0,0.2,0.0,0.0,0.0,0.0,0.0,0.0,0.0,7.0
Quixabeira,292593101C,Quixabeira,Quixabeira - 292593101C,-11.373,-40.129,Nordeste,RPGA do Rio Itapicuru,0.0,0.0,0.0,0.0,0.0,0.0,0.0,0.0,0.0,0.0,0.0,0.0,0.0,0.0,0.0,0.0,0.0,0.0,0.0,0.0,0.0,0.0,0.0,0.0,0.0,0.0,0.0,0.0,0.0,0.0,0.0,0.0
Teofilândia,293150901C,Teofilândia,Teofilândia - 293150901C,-11.506,-38.948,Nordeste,RPGA do Recôncavo Norte,0.0,0.0,0.0,0.0,0.0,0.0,0.0,0.0,0.0,0.0,0.0,0.0,0.8,0.0,0.0,0.0,0.0,0.0,0.0,0.0,0.0,0.0,0.0,0.0,1.0,0.0,0.0,0.0,0.0,0.0,0.0,1.8
Itaberaba,291840701A,Juazeiro,Juazeiro (Itaberaba) - 291840701A,-9.448,-40.485,Norte,RPGA dos Rios Macururé e Curaçá,0.0,0.0,0.0,0.0,0.0,0.0,0.0,0.0,0.0,0.0,13.0,0.2,9.0,0.0,0.0,0.0,0.0,0.0,0.0,0.0,0.0,1.8,0.0,0.0,0.0,0.0,0.0,0.0,0.0,0.0,0.0,24.0
Maria Gorete,291840703A,Juazeiro,Juazeiro (Maria Gorete) - 291840703A,-9.42,-40.499,Norte,RPGA dos Rios Macururé e Curaçá,0.0,0.0,0.0,0.0,0.0,0.0,0.0,0.0,0.0,0.0,11.4,0.0,12.0,0.0,0.0,0.0,0.0,0.0,0.0,0.0,0.0,8.6,0.0,0.0,0.0,0.0,0.0,0.0,0.0,0.0,0.0,32.0
João Paulo II,291840704A,Juazeiro,Juazeiro (João Paulo II) - 291840704A,-9.471,-40.498,Norte,RPGA dos Rios Macururé e Curaçá,0.0,0.0,0.0,0.0,0.0,0.0,0.0,0.0,0.0,0.0,9.6,0.2,10.4,0.2,0.0,0.0,0.0,0.0,0.0,0.0,0.0,0.0,0.0,0.0,0.0,0.0,0.0,0.0,0.0,0.0,0.0,20.4
Lapão,291915701A,Lapão,Lapão - 291915701A,-11.38,-41.83,Norte,RPGA dos Rios Verde e Jacaré,0.0,0.0,2.4,0.0,0.0,0.0,0.0,0.0,0.0,0.0,0.0,0.0,10.6,7.2,0.2,0.0,0.0,0.0,0.0,0.0,0.0,0.0,0.0,0.0,0.0,0.0,0.0,0.0,0.0,0.0,0.0,20.4
Centro,290115501A,América Dourada,América Dourada (Centro) - 290115501A,-11.45,-41.434,Norte,RPGA dos Rios Verde e Jacaré,0.0,0.0,0.0,0.0,0.0,0.0,0.0,0.0,0.0,0.0,0.0,0.4,0.0,10.8,0.0,0.0,0.0,0.0,0.0,0.0,0.0,0.0,0.0,0.0,0.6,0.2,0.0,0.0,0.0,0.0,0.0,12.0
Irecê,A424,Irecê,Irecê - A424,-11.329,-41.865,Norte,RPGA dos Rios Verde e Jacaré,0.0,0.0,0.0,0.0,0.0,0.0,0.0,0.0,0.0,0.0,5.4,0.2,11.2,2.8,0.0,0.0,0.0,0.0,0.0,0.0,0.0,0.0,0.0,0.0,0.2,0.0,0.0,0.0,0.0,0.0,0.0,19.8
Juazeiro,48020000,Juazeiro,Juazeiro - 48020000,-9.406,-40.504,Norte,RPGA dos Rios Macururé e Curaçá,0.0,0.0,0.0,0.0,0.0,0.0,0.0,0.0,0.0,0.0,4.2,0.0,22.2,0.0,0.0,0.0,0.0,0.0,0.0,0.0,0.0,12.6,0.0,0.0,0.0,0.0,0.0,0.0,0.0,0.0,0.0,39.0
Ibipeba,VJ-CL-02,Ibipeba,Ibipeba - VJ-CL-02,-11.627,-42.064,Norte,RPGA dos Rios Verde e Jacaré,0.0,0.0,0.0,0.0,0.0,0.0,0.0,0.0,0.0,0.0,13.8,2.6,5.8,1.2,0.0,0.0,0.0,0.0,0.0,0.0,0.0,0.0,0.0,0.4,0.0,0.0,0.0,0.0,0.0,0.0,0.0,23.8
Santa Rosa,SM-PR-01,Jaguarari,Jaguarari (Santa Rosa) - SM-PR-01,-10.098,-39.87,Norte,RPGA dos Rios Macururé e Curaçá,0.0,0.0,0.0,0.0,0.0,0.0,0.0,0.0,0.0,11.0,0.2,3.2,0.0,0.0,0.0,0.0,0.0,0.0,0.0,0.0,0.0,0.0,0.0,0.2,0.4,0.0,0.0,0.0,0.0,0.0,0.6,15.6
Nova Vida Montante,46590000,Barreiras,Barreiras (Nova Vida Montante) - 46590000,-11.868,-45.085,Oeste,RPGA do Rio Grande,0.0,0.0,0.0,10.4,0.0,0.0,0.0,0.0,3.0,7.6,1.8,0.6,4.8,0.0,0.0,3.6,0.0,0.8,0.0,0.0,0.0,0.0,0.0,0.0,0.0,0.0,0.0,0.0,0.0,0.0,1.6,34.2
Derocal,46455000,São Desidério,São Desidério (Derocal) - 46455000,-12.413,-45.121,Oeste,RPGA do Rio Grande,0.0,0.0,3.8,8.0,0.0,0.0,0.0,0.0,0.0,42.4,2.8,14.0,37.2,0.0,0.0,12.6,0.0,0.0,0.0,0.0,0.0,1.6,0.0,0.0,0.0,0.0,0.0,0.0,0.0,0.0,0.6,123.0
Arrojado,45770000,Correntina,Correntina (Arrojado) - 45770000,-13.453,-44.569,Oeste,"RPGA do Rio Corrente e Riachos do Ramalho, Serra Dourada e Brejo Velho",0.0,0.0,0.0,0.2,0.0,0.0,0.0,0.0,0.0,2.6,3.8,10.2,0.4,0.0,13.8,7.0,0.0,0.0,0.0,0.0,0.0,0.0,0.0,0.0,0.0,0.0,0.0,0.0,0.0,0.0,0.0,38.0
Fazenda Redenção,46543000,Barreiras,Barreiras (Fazenda Redenção) - 46543000,-12.136,-45.103,Oeste,RPGA do Rio Grande,0.0,0.0,0.8,21.2,0.0,0.0,0.0,0.0,0.6,7.4,0.0,0.0,25.0,0.0,9.4,36.6,0.0,0.2,0.0,0.0,0.0,0.0,5.8,0.0,0.0,0.0,0.0,0.0,0.0,0.0,0.0,107.0
Fazenda Santa Luzia,CA-CL-01,Cocos,Cocos (Fazenda Santa Luzia) - CA-CL-01,-14.855,-45.936,Oeste,RPGA do Rio Carinhanha,0.0,0.2,0.0,50.6,0.2,0.0,0.0,0.0,0.0,31.6,29.2,29.0,22.0,0.0,1.0,16.8,1.2,13.2,0.0,0.0,0.0,0.0,0.0,0.0,0.0,10.4,0.0,0.0,0.0,0.0,0.0,205.4
Fazenda Morinaga,CT-CL-01,Correntina,Correntina (Fazenda Morinaga) - CT-CL-01,-13.752,-45.87,Oeste,"RPGA do Rio Corrente e Riachos do Ramalho, Serra Dourada e Brejo Velho",0.0,0.0,0.0,19.8,11.4,0.0,0.0,0.0,20.2,1.4,0.0,7.4,0.0,0.6,6.0,13.8,12.4,46.8,0.0,0.0,0.0,0.0,0.0,0.0,0.0,0.0,0.0,0.0,0.0,0.0,0.0,139.8
Fazenda Madras,GR-CL-04,Riachão das Neves,Riachão das Neves (Fazenda Madras) - GR-CL-04,-11.63,-44.846,Oeste,RPGA do Rio Grande,0.0,0.0,0.0,5.8,0.0,0.0,0.0,0.0,0.0,2.4,0.6,2.2,2.0,1.6,1.2,1.0,1.2,0.6,0.4,0.0,0.0,0.0,2.0,0.0,0.0,0.2,0.0,0.0,1.8,0.0,0.4,23.4
Fazenda Barcelona,GR-CL-03,Formosa do Rio Preto,Formosa do Rio Preto (Fazenda Barcelona) - GR-CL-03,-11.591,-46.022,Oeste,RPGA do Rio Grande,0.0,0.0,0.0,3.4,24.6,0.0,0.0,0.0,0.0,0.0,1.8,3.0,25.4,0.0,1.4,21.2,0.2,28.8,0.2,0.0,0.0,0.0,7.8,0.0,0.0,1.2,0.0,0.0,0.0,0.0,3.2,122.2
PCH Pres. Goulart-J,45600000,Correntina,Correntina (PCH Pres. Goulart-J) - 45600000,-13.334,-44.621,Oeste,"RPGA do Rio Corrente e Riachos do Ramalho, Serra Dourada e Brejo Velho",0.0,0.0,0.0,1.4,0.0,0.0,0.0,0.0,0.0,24.8,0.8,9.0,3.8,3.8,20.2,0.0,0.0,0.0,0.0,0.0,0.0,0.0,0.0,0.0,0.0,0.0,0.0,0.0,0.0,0.0,0.0,63.8
PCH Pres. Goulart-M1,45588000,Correntina,Correntina (PCH Pres. Goulart-M1) - 45588000,-13.341,-44.641,Oeste,"RPGA do Rio Corrente e Riachos do Ramalho, Serra Dourada e Brejo Velho",0.0,0.0,0.0,0.0,0.0,0.0,0.0,0.0,0.0,17.8,0.2,3.2,1.2,0.4,3.0,0.6,0.0,0.0,0.0,0.0,0.0,0.0,0.0,0.0,0.0,0.0,0.0,0.0,0.0,0.0,0.0,26.4
PCH Sítio Grande-J,46453500,São Desidério,São Desidério (PCH Sítio Grande-J) - 46453500,-12.429,-45.153,Oeste,RPGA do Rio Grande,0.0,0.0,3.2,4.8,0.0,0.0,0.0,0.0,0.0,46.6,4.6,16.4,2.4,0.0,0.0,3.2,0.0,0.0,0.0,0.0,0.0,0.0,0.0,0.0,0.0,0.2,0.0,0.0,0.0,0.0,2.6,84.0
COACERAL,GR-CL-02,Formosa do Rio Preto,Formosa do Rio Preto (COACERAL) - GR-CL-02,-10.562,-45.693,Oeste,RPGA do Rio Grande,0.0,0.0,0.0,5.75,7.25,0.0,0.0,0.0,0.0,18.25,4.75,0.5,3.25,0.0,11.25,1.25,5.75,1.75,0.0,0.0,10.0,4.75,0.0,0.0,0.0,0.0,0.25,0.0,0.0,0.0,0.0,74.75
J. Zoológico,A401,Salvador,Salvador (J. Zoológico) - A401,-13.006,-38.506,Recôncavo,RPGA do Recôncavo Norte,0.0,0.0,0.0,0.0,0.0,0.0,0.2,0.0,31.2,0.0,3.8,45.4,4.6,0.2,66.6,18.0,1.6,0.2,0.2,0.2,2.8,1.4,2.4,2.6,0.0,0.2,0.0,7.6,0.0,0.0,0.0,189.2
Periperi,292740820A,Salvador,Salvador (Periperi) - 292740820A,-12.867,-38.458,Recôncavo,RPGA do Recôncavo Norte,0.4,0.0,0.4,0.0,0.4,0.4,0.0,0.0,0.0,0.0,3.4,1.8,11.2,0.2,8.8,8.2,1.6,0.0,0.0,9.0,0.8,0.2,1.2,5.2,0.0,2.8,0.0,0.4,0.2,0.0,1.6,58.21
Mussurunga,292740821A,Salvador,Salvador (Mussurunga) - 292740821A,-12.908,-38.44,Recôncavo,RPGA do Recôncavo Norte,0.0,0.0,0.0,0.0,2.4,0.2,0.0,0.6,0.0,0.0,32.2,10.4,8.6,2.0,45.0,23.0,0.2,0.0,0.0,0.0,3.8,1.0,0.2,1.4,0.4,0.8,0.2,0.8,0.0,0.0,7.8,141.01
Itapuã,292740819A,Salvador,Salvador (Itapuã) - 292740819A,-12.948,-38.37,Recôncavo,RPGA do Recôncavo Norte,0.0,0.0,0.0,0.0,3.2,0.0,0.0,0.0,0.0,0.0,26.4,26.2,0.2,1.6,19.8,30.0,0.2,0.4,6.4,0.0,0.4,1.4,2.0,0.0,1.2,0.8,0.0,0.2,0.0,2.0,1.2,123.61
Tancredo Neves,292740823A,Salvador,Salvador (Tancredo Neves) - 292740823A,-12.945,-38.453,Recôncavo,RPGA do Recôncavo Norte,0.0,0.2,0.4,0.0,1.2,0.2,0.0,0.0,28.0,0.0,10.6,19.8,1.2,0.0,22.0,24.2,4.8,0.8,0.0,0.6,0.0,0.2,0.0,8.0,0.2,0.2,0.0,0.0,0.0,0.0,0.6,123.2
Estação Rádio Marinha,A456,Salvador,Salvador (Estação Rádio Marinha) - A456,-12.808,-38.496,Recôncavo,RPGA do Recôncavo Norte,0.4,0.0,0.0,0.0,1.8,0.0,0.0,0.0,0.0,0.0,0.4,0.4,2.6,4.0,9.4,7.8,0.0,2.4,0.0,1.0,1.2,0.0,0.0,0.8,0.2,1.2,0.0,0.0,0.0,0.0,0.0,33.6
Cruz das Almas,83222,Cruz das Almas,Cruz das Almas - 83222,-12.667,-39.083,Recôncavo,RPGA do Rio Paraguaçu,0.0,0.0,0.0,0.0,1.0,0.0,0.0,0.0,0.0,0.0,0.0,2.6,6.6,0.0,0.5,5.0,1.5,7.4,0.0,1.4,0.2,0.2,0.0,0.0,1.4,4.2,0.0,0.4,0.0,0.0,0.0,32.4
Cachoeira,290490201A,Cachoeira,Cachoeira - 290490201A,-12.608,-38.961,Recôncavo,RPGA do Rio Paraguaçu,0.0,0.0,0.2,0.0,0.0,0.0,0.0,0.0,0.0,0.0,0.0,13.6,0.8,0.2,0.2,7.6,0.6,5.4,0.0,0.0,0.4,2.6,0.4,2.0,1.4,1.8,0.0,0.0,0.4,0.0,0.0,37.6
Centro,291345701A,Igrapiúna,Igrapiúna (Centro) - 291345701A,-13.819,-39.142,Recôncavo,RPGA do Recôncavo Sul,1.4,0.6,6.4,0.8,8.8,3.6,0.0,0.0,0.0,0.0,2.2,27.4,14.8,11.2,12.2,28.0,11.0,8.2,7.4,9.6,1.8,3.8,1.6,0.6,8.4,3.8,8.0,6.8,0.6,1.0,4.0,194.01
São Félix,292900801A,São Félix,São Félix - 292900801A,-12.607,-38.97,Recôncavo,RPGA do Rio Paraguaçu,0.0,0.0,0.0,0.0,0.0,0.0,0.0,0.0,0.0,0.0,0.0,16.6,0.2,0.0,0.4,5.4,0.2,6.2,0.2,0.0,1.6,1.8,0.6,1.8,2.4,1.2,0.0,0.0,0.4,0.0,0.0,39.0
Góes Calmon,293070901A,Simões Filho,Simões Filho (Góes Calmon) - 293070901A,-12.78,-38.353,Recôncavo,RPGA do Recôncavo Norte,0.0,0.0,0.0,0.0,2.6,2.6,0.0,0.0,2.6,0.8,0.0,6.2,28.6,0.2,25.0,13.8,0.0,3.8,2.2,0.2,0.4,0.6,5.4,2.0,3.8,3.8,0.4,3.0,0.0,0.0,6.0,114.01
Centro,293070903A,Simões Filho,Simões Filho (Centro) - 293070903A,-12.788,-38.397,Recôncavo,RPGA do Recôncavo Norte,0.0,0.0,0.0,0.0,0.8,1.0,0.0,0.0,26.6,0.0,0.0,6.4,5.6,0.2,25.2,20.2,2.8,3.6,0.2,0.0,1.4,0.2,0.6,1.4,1.4,1.4,0.0,0.0,0.0,0.0,2.6,101.61
Amargosa,A434,Amargosa,Amargosa - A434,-13.009,-39.617,Recôncavo,RPGA do Recôncavo Sul,0.0,0.0,0.0,0.0,0.4,0.8,0.0,0.0,0.0,0.0,0.0,0.0,3.4,4.6,1.4,8.0,1.2,2.2,0.0,0.0,0.6,0.0,0.0,0.8,1.0,9.8,5.0,12.0,0.0,0.0,1.2,52.41
Ondina,83229,Salvador,Salvador (Ondina) - 83229,-13.005,-38.506,Recôncavo,RPGA do Recôncavo Norte,0.0,0.0,0.0,0.2,0.0,0.0,0.0,0.0,33.6,0.0,4.2,47.6,1.4,0.2,69.4,18.7,2.0,0.0,0.6,0.2,3.2,1.5,2.7,3.1,0.0,0.5,0.0,8.0,0.2,0.0,0.0,197.3
Feira de Santana,PG-PR-13,Feira de Santana,Feira de Santana - PG-PR-13,-12.268,-38.966,Recôncavo,RPGA do Rio Paraguaçu,0.0,0.0,0.0,0.0,0.4,0.0,0.0,0.0,0.0,0.0,0.0,0.0,0.0,0.0,0.0,8.0,0.2,3.2,0.0,0.0,0.2,0.0,0.0,0.6,0.0,0.4,0.0,0.0,0.0,0.0,0.0,13.0
Centro,292740802A,Salvador,Salvador (Centro) - 292740802A,-12.978,-38.516,Recôncavo,RPGA do Recôncavo Norte,0.0,0.0,0.0,0.0,0.0,0.0,0.0,0.0,3.55,0.0,2.57,16.52,2.76,0.4,17.33,10.63,0.39,0.0,0.0,0.79,3.15,2.39,0.4,8.5,0.99,5.51,0.4,0.0,0.0,0.0,0.0,76.28
São tomé de Paripe,292740806A,Salvador,Salvador (São tomé de Paripe) - 292740806A,-12.796,-38.489,Recôncavo,RPGA do Recôncavo Norte,0.0,0.0,0.0,0.0,0.79,0.0,0.0,0.0,0.0,0.0,0.0,0.2,2.96,0.6,9.23,5.33,0.0,2.36,0.0,7.18,3.73,0.2,0.0,1.19,1.18,1.57,0.4,0.4,0.0,0.0,0.0,37.32
Federação,292740803A,Salvador,Salvador (Federação) - 292740803A,-13.001,-38.511,Recôncavo,RPGA do Recôncavo Norte,0.0,0.0,0.0,1.57,0.0,0.0,0.0,0.0,14.15,0.0,3.54,40.45,11.39,0.2,60.97,14.33,0.39,0.0,0.0,0.99,2.96,1.97,0.99,1.97,0.0,0.2,0.0,4.14,0.0,0.0,0.0,160.21
Cabula,292740810A,Salvador,Salvador (Cabula) - 292740810A,-12.961,-38.461,Recôncavo,RPGA do Recôncavo Norte,0.0,0.79,0.0,0.0,1.19,0.0,0.0,0.2,48.74,0.0,7.49,21.65,2.18,0.4,23.85,30.91,0.2,0.0,0.79,0.2,1.97,0.2,0.2,4.53,0.2,2.18,0.0,0.59,0.0,0.0,5.71,154.17
Caminho das Árvores,292740815A,Salvador,Salvador (Caminho das Árvores) - 292740815A,-12.977,-38.454,Recôncavo,RPGA do Recôncavo Norte,0.0,0.0,0.0,0.0,0.0,0.0,0.0,0.0,1.19,0.0,0.39,0.0,0.79,0.0,0.0,3.74,0.0,0.0,0.98,0.4,1.59,0.59,0.2,3.16,0.2,2.96,0.0,0.0,0.0,0.0,0.0,16.19
Águas Claras,292740808A,Salvador,Salvador (Águas Claras) - 292740808A,-12.894,-38.442,Recôncavo,RPGA do Recôncavo Norte,0.0,0.0,0.0,0.0,2.56,0.0,0.0,0.0,0.0,0.0,9.25,14.66,15.36,0.99,10.63,6.5,0.2,0.0,0.99,9.44,2.76,0.79,1.58,3.35,0.4,0.0,0.0,0.0,0.59,0.0,4.33,84.39
Alto do Peru,292740812A,Salvador,Salvador (Alto do Peru) - 292740812A,-12.939,-38.486,Recôncavo,RPGA do Recôncavo Norte,0.0,0.0,0.0,0.0,0.2,0.0,0.0,0.0,8.85,0.0,7.09,47.64,11.62,0.79,30.91,15.36,1.58,1.38,1.57,14.03,0.39,0.0,0.0,1.2,0.79,4.72,0.0,0.0,0.59,0.0,0.2,148.91
CAB,292740811A,Salvador,Salvador (CAB) - 292740811A,-12.943,-38.421,Recôncavo,RPGA do Recôncavo Norte,0.0,0.39,0.4,0.0,1.19,0.0,0.0,0.0,24.31,0.0,24.62,8.65,0.6,0.4,29.16,30.7,1.57,0.0,0.59,0.0,0.0,0.99,0.0,2.56,0.2,0.39,0.0,0.79,0.0,0.0,2.75,130.26
Cosme de Farias,292740816A,Salvador,Salvador (Cosme de Farias) - 292740816A,-12.979,-38.486,Recôncavo,RPGA do Recôncavo Norte,0.0,0.0,0.0,0.0,2.17,0.0,0.0,0.0,61.31,0.0,4.93,23.42,7.08,0.0,35.44,30.1,1.38,0.0,0.59,0.6,7.88,1.96,0.99,3.15,0.98,1.38,0.0,0.2,0.0,0.0,0.2,183.76
São Caetano,292740814A,Salvador,Salvador (São Caetano) - 292740814A,-12.94,-38.475,Recôncavo,RPGA do Recôncavo Norte,0.0,0.0,0.0,0.0,0.4,0.0,0.0,0.0,10.24,0.0,5.71,34.86,8.46,0.59,28.1,20.66,3.16,1.78,0.2,8.45,0.0,0.39,0.0,2.96,0.0,4.92,0.0,0.0,0.4,0.2,0.0,131.48
Pirajá,292740801A,Salvador,Salvador (Pirajá) - 292740801A,-12.899,-38.459,Recôncavo,RPGA do Recôncavo Norte,0.0,0.0,0.0,0.0,0.81,0.0,0.0,0.0,0.0,0.0,13.78,14.77,19.09,0.0,17.11,5.93,0.39,0.0,0.0,9.24,0.0,1.4,0.2,0.0,0.0,0.0,0.0,0.0,0.0,0.0,0.2,82.93
Rio Sena,292740805A,Salvador,Salvador (Rio Sena) - 292740805A,-12.891,-38.471,Recôncavo,RPGA do Recôncavo Norte,0.0,0.0,0.0,0.0,1.98,0.0,0.0,0.0,0.0,0.0,4.54,3.0,22.63,4.57,13.02,8.79,0.0,0.0,0.0,9.09,0.4,2.2,0.4,2.19,0.8,2.77,0.0,0.0,0.0,0.0,1.19,77.57
Valéria,292740817A,Salvador,Salvador (Valéria) - 292740817A,-12.864,-38.438,Recôncavo,RPGA do Recôncavo Norte,0.0,0.0,0.0,0.0,0.99,0.0,0.0,0.0,2.56,0.0,3.74,3.95,6.3,0.98,11.03,7.7,0.8,0.0,0.2,8.46,2.57,0.59,0.0,3.75,0.2,2.57,0.0,0.99,0.2,0.0,2.17,59.76
Monte Serrat,292740804A,Salvador,Salvador (Monte Serrat) - 292740804A,-12.931,-38.517,Recôncavo,RPGA do Recôncavo Norte,2.77,0.0,1.97,0.39,0.2,0.0,0.0,0.0,0.59,0.0,8.05,8.46,68.56,31.55,24.05,23.99,0.4,0.6,0.0,7.18,3.15,0.0,0.6,2.76,0.39,1.78,0.0,0.0,0.2,0.0,0.0,187.64
Santa Terezinha,290650105A,Candeias,Candeias (Santa Terezinha) - 290650105A,-12.647,-38.539,Recôncavo,RPGA do Recôncavo Norte,0.0,0.0,0.0,0.0,2.36,0.0,0.0,0.0,0.0,0.0,0.0,0.79,5.91,11.47,1.59,2.77,0.42,2.37,0.0,0.0,1.99,1.19,0.4,1.39,0.4,0.0,0.0,0.0,0.0,4.93,0.0,37.98
Centro,290650101A,Candeias,Candeias (Centro) - 290650101A,-12.67,-38.544,Recôncavo,RPGA do Recôncavo Norte,0.0,0.0,0.0,0.0,0.2,0.0,0.0,0.0,0.0,0.0,0.0,3.37,16.26,12.79,1.4,2.0,2.6,2.2,0.4,0.4,3.37,0.4,0.0,2.38,1.59,2.8,0.8,0.0,0.0,6.17,0.4,59.53
Malemba,290650102A,Candeias,Candeias (Malemba) - 290650102A,-12.678,-38.544,Recôncavo,RPGA do Recôncavo Norte,0.0,0.0,0.0,0.0,0.4,0.0,0.0,0.0,0.0,0.0,0.0,4.2,1.2,2.6,27.18,2.6,2.4,0.8,0.8,0.2,0.2,0.0,0.0,0.2,0.0,0.0,0.4,0.2,0.0,4.8,3.0,51.18
Sarandi,290650104A,Candeias,Candeias (Sarandi) - 290650104A,-12.671,-38.531,Recôncavo,RPGA do Recôncavo Norte,0.0,0.0,0.0,0.0,0.6,0.0,0.0,0.0,0.0,0.0,0.0,10.24,9.84,9.83,0.98,8.08,0.0,3.93,0.0,0.0,2.37,0.0,0.6,1.78,0.59,0.6,0.79,0.0,0.0,1.98,0.0,52.21
Areia Branca,291920706A,Lauro de Freitas,Lauro de Freitas (Areia Branca) - 291920706A,-12.841,-38.337,Recôncavo,RPGA do Recôncavo Norte,0.0,0.0,0.0,0.0,3.74,1.18,0.0,0.99,0.0,0.0,5.91,4.92,2.17,0.0,2.37,4.16,3.73,0.6,6.29,4.91,9.65,0.0,0.0,0.4,1.58,1.38,0.0,0.2,0.0,0.0,3.93,58.12
Itinga 02,291920704A,Lauro de Freitas,Lauro de Freitas (Itinga 02) - 291920704A,-12.89,-38.353,Recôncavo,RPGA do Recôncavo Norte,0.0,0.0,0.0,0.0,0.0,0.0,0.0,0.0,0.0,0.0,15.33,16.64,1.98,0.2,12.0,6.7,0.2,0.0,2.17,0.0,4.55,0.0,0.0,1.97,0.59,2.56,0.0,0.39,0.0,0.0,9.46,74.75
Vila Praiana,291920702A,Lauro de Freitas,Lauro de Freitas (Vila Praiana) - 291920702A,-12.901,-38.308,Recôncavo,RPGA do Recôncavo Norte,0.0,0.0,0.0,0.0,0.0,0.0,0.0,1.97,0.2,0.0,21.06,23.4,2.18,0.0,28.55,17.9,0.4,0.0,1.78,0.0,3.55,0.0,0.0,1.38,2.76,3.54,0.0,0.62,0.0,0.0,11.43,120.72
Portão,291920701A,Lauro de Freitas,Lauro de Freitas (Portão) - 291920701A,-12.87,-38.305,Recôncavo,RPGA do Recôncavo Norte,0.2,0.0,0.0,0.0,0.2,0.0,0.0,0.0,0.0,0.0,18.28,29.52,2.95,0.0,11.4,16.72,2.77,0.2,3.75,1.18,23.86,0.0,0.0,0.0,1.19,5.33,0.4,2.18,1.19,1.38,0.39,123.1
Rua 02 de Julho,291920705A,Lauro de Freitas,Lauro de Freitas (Rua 02 de Julho) - 291920705A,-12.839,-38.35,Recôncavo,RPGA do Recôncavo Norte,0.0,0.0,0.0,0.0,7.27,0.6,0.2,0.0,0.0,0.0,4.16,6.52,6.74,0.0,2.4,6.76,2.4,0.4,5.31,6.9,7.16,0.6,0.0,0.4,1.8,1.78,0.0,0.0,0.0,0.0,4.73,66.13
Dois de Julho,291120401A,Gandú,Gandú (Dois de Julho) - 291120401A,-13.741,-39.483,Recôncavo,RPGA do Recôncavo Sul,0.0,0.0,0.0,0.0,3.36,0.99,0.0,0.0,0.0,0.0,0.62,1.18,6.55,23.44,46.85,20.48,0.8,1.78,3.16,18.3,0.99,1.2,1.57,2.95,3.55,5.34,3.75,0.0,0.0,0.0,0.2,147.06
Centro,292250801A,Nazaré,Nazaré (Centro) - 292250801A,-13.032,-39.015,Recôncavo,RPGA do Recôncavo Sul,0.0,0.0,0.0,0.0,0.79,1.57,0.0,0.0,0.0,0.0,12.41,0.2,7.69,1.38,7.51,19.54,0.0,3.76,0.0,0.2,1.97,4.74,0.2,4.54,4.53,6.94,3.95,0.6,0.2,1.58,0.98,85.28
Rua São Roque,293290301A,Valença,Valença (Rua São Roque) - 293290301A,-13.363,-39.078,Recôncavo,RPGA do Recôncavo Sul,0.0,0.0,0.0,0.79,9.85,0.2,0.0,0.0,0.0,0.0,22.83,16.13,13.04,11.44,29.8,60.59,1.58,3.74,0.0,4.33,2.2,2.97,3.94,5.15,2.19,2.95,14.0,0.8,1.59,0.99,1.97,213.08
Abaeté,RN-CL-05,Salvador,Salvador (Abaeté) - RN-CL-05,-12.947,-38.359,Recôncavo,RPGA do Recôncavo Norte,0.0,0.0,0.0,0.0,4.2,0.2,3.4,0.0,0.0,0.0,25.2,35.2,1.0,2.2,14.2,32.0,0.4,0.0,10.0,0.2,1.0,0.8,2.6,0.2,0.2,1.0,0.2,0.6,0.0,0.2,0.8,135.8
Lauro de Freitas,RN-CL-09,Lauro de Freitas,Lauro de Freitas - RN-CL-09,-12.887,-38.297,Recôncavo,RPGA do Recôncavo Norte,0.0,0.0,0.0,0.0,0.0,0.0,0.0,0.8,0.0,0.0,39.6,23.2,1.6,0.4,25.0,16.4,0.2,0.0,0.0,0.0,22.2,0.2,0.0,1.0,0.6,0.2,0.0,2.4,0.0,0.0,0.2,134.0
CIA,293070902A,Simões Filho,Simões Filho (CIA) - 293070902A,-12.825,-38.409,Recôncavo,RPGA do Recôncavo Norte,0.0,0.0,0.0,0.0,2.8,0.2,0.0,0.0,20.2,0.0,0.0,0.2,4.8,0.8,22.0,10.2,1.2,0.2,0.2,0.4,6.2,0.2,0.2,3.4,0.4,0.4,0.2,0.0,0.0,0.0,0.0,74.21
PC Fazenda Jurema,51346050,Rafael Jambeiro,Rafael Jambeiro (PC Fazenda Jurema) - 51346050,-12.488,-39.698,Recôncavo,RPGA do Rio Paraguaçu,0.0,0.0,0.0,0.0,0.0,0.0,0.0,0.0,0.0,0.0,0.0,0.0,0.0,0.0,0.0,34.6,0.6,1.0,0.0,0.0,0.4,0.4,0.0,0.0,2.6,2.2,0.2,0.2,0.0,0.0,0.0,42.21
PC Argoim,51351000,Rafael Jambeiro,Rafael Jambeiro (PC Argoim) - 51351000,-12.587,-39.522,Recôncavo,RPGA do Rio Paraguaçu,0.0,0.0,0.0,0.0,0.0,0.0,0.0,0.0,0.0,0.0,0.0,0.0,0.0,0.0,2.2,17.8,1.0,1.6,0.0,0.0,0.2,0.0,0.2,0.0,0.4,3.2,0.0,0.0,0.0,0.0,0.0,26.6
PC Rio Paratigi,51370000,Santo Estevão,Santo Estevão (PC Rio Paratigi) - 51370000,-12.515,-39.383,Recôncavo,RPGA do Rio Paraguaçu,0.0,0.0,0.4,0.0,0.0,0.0,0.0,0.0,0.0,0.0,0.0,0.0,0.0,0.0,1.6,20.4,2.4,3.2,0.0,0.0,0.0,1.2,0.0,0.0,2.2,0.8,0.2,0.0,0.0,0.0,0.0,32.4
Antônio Cardoso,290170001C,Antônio Cardoso,Antônio Cardoso - 290170001C,-12.351,-39.165,Recôncavo,RPGA do Rio Paraguaçu,0.0,0.0,0.0,0.0,0.0,0.0,0.0,0.0,0.0,0.0,0.0,0.0,0.0,0.0,0.0,0.0,0.0,0.0,0.0,0.0,0.0,0.0,0.0,0.0,0.0,0.0,0.0,0.0,0.0,0.0,0.0,0.0
Abaeté,RN-PR-01,Salvador,Salvador (Abaeté) - RN-PR-01,-12.945,-38.361,Recôncavo,RPGA do Recôncavo Norte,0.0,0.0,0.0,0.0,3.7,0.0,1.1,0.1,0.0,0.0,21.6,6.3,33.4,2.0,13.8,32.7,0.0,0.1,3.1,3.2,0.5,2.4,2.1,0.2,1.1,1.0,0.1,0.3,0.0,0.0,2.8,131.6
Itiruçu,A407,Itiruçu,Itiruçu - A407,-13.526,-40.121,Sudoeste,RPGA do Recôncavo Sul,0.0,0.0,0.0,0.0,1.4,1.8,0.0,0.0,0.0,0.0,0.0,1.0,7.6,0.8,5.2,0.4,1.8,1.0,0.0,4.2,0.0,0.0,0.0,0.0,1.8,4.4,4.4,0.0,0.0,0.0,0.0,35.8
Vitória da Conquista,A414,Vitória da Conquista,Vitória da Conquista - A414,-14.886,-40.801,Sudoeste,RPGA do Rio Pardo,0.0,0.0,0.0,0.0,0.0,0.0,0.0,0.0,0.0,0.0,10.8,0.4,0.0,0.0,6.0,1.4,34.2,0.2,3.0,3.0,0.0,0.0,0.0,0.2,0.6,2.0,1.8,0.0,0.0,0.0,0.0,63.61
Ituaçu,83292,Ituaçu,Ituaçu - 83292,-13.813,-41.3,Sudoeste,RPGA do Rio de Contas,0.0,0.0,0.0,0.0,0.0,0.0,0.0,0.0,0.0,0.0,0.0,0.0,7.2,0.0,0.0,40.2,5.8,0.0,0.0,0.0,0.0,0.0,0.0,0.0,0.0,0.0,0.0,0.0,0.0,0.0,0.0,53.2
Lagoa,291760701A,Jaguaquara,Jaguaquara (Lagoa) - 291760701A,-13.523,-39.969,Sudoeste,RPGA do Recôncavo Sul,0.0,0.0,0.0,0.0,0.0,0.0,0.0,0.0,0.0,0.0,0.0,6.0,4.8,0.6,5.4,1.0,1.4,1.2,0.0,1.2,0.2,0.0,0.0,0.0,0.8,1.4,2.4,0.0,0.0,0.0,0.0,26.4
Entroncamento,291760702A,Jaguaquara,Jaguaquara (Entroncamento) - 291760702A,-13.51,-40.055,Sudoeste,RPGA do Recôncavo Sul,0.0,0.0,0.0,0.0,0.0,0.0,0.0,0.0,0.0,0.0,0.0,15.6,6.0,1.2,6.6,0.2,2.2,0.6,0.0,0.8,0.0,0.0,0.0,0.0,2.2,0.8,1.0,0.0,0.2,0.0,0.0,37.4
Brumado,A433,Brumado,Brumado - A433,-14.182,-41.672,Sudoeste,RPGA do Rio de Contas,0.0,0.0,0.0,0.0,0.0,0.0,0.0,0.0,0.0,0.0,0.0,0.0,0.0,0.0,0.0,4.8,0.0,0.0,0.0,0.0,0.0,0.0,0.0,1.2,0.0,0.0,0.0,0.0,0.0,0.0,0.0,6.0
Itapetinga,A446,Itapetinga,Itapetinga - A446,-15.245,-40.23,Sudoeste,RPGA do Rio Pardo,0.0,0.0,0.0,0.0,0.6,0.4,0.0,0.0,0.0,0.0,0.0,0.0,0.0,0.8,0.2,0.2,0.0,0.0,0.0,0.0,0.0,0.0,0.0,0.2,0.2,0.0,0.0,0.0,0.0,0.0,0.0,2.61
Clerolândia,291640101A,Itapetinga,Itapetinga (Clerolândia) - 291640101A,-15.243,-40.221,Sudoeste,RPGA do Rio Pardo,0.0,0.0,0.0,0.0,0.39,0.41,0.0,0.0,0.0,0.0,0.0,0.0,0.0,1.58,0.0,1.78,1.38,0.0,0.0,0.0,0.0,0.0,0.0,5.7,0.2,1.57,0.79,0.0,0.0,0.0,0.0,13.8
Recreio,293330702A,Vitória da Conquista,Vitória da Conquista (Recreio) - 293330702A,-14.861,-40.841,Sudoeste,RPGA do Rio Pardo,0.0,0.0,0.0,0.0,0.0,0.0,0.0,0.0,0.0,0.0,3.34,0.0,0.0,0.0,2.36,3.35,11.82,0.0,0.0,0.0,0.0,0.0,0.0,0.0,0.0,2.37,0.4,0.0,0.0,0.0,0.0,23.64
Patagônia,293330704A,Vitória da Conquista,Vitória da Conquista (Patagônia) - 293330704A,-14.87,-40.863,Sudoeste,RPGA do Rio Pardo,0.0,0.0,0.0,0.0,0.0,0.0,0.0,0.0,0.0,0.0,0.59,0.0,0.0,0.0,22.69,0.4,3.2,0.0,0.0,0.59,0.0,0.0,0.0,0.0,0.0,0.0,1.38,0.0,0.0,0.0,0.0,28.85
Lomantão,293330703A,Vitória da Conquista,Vitória da Conquista (Lomantão) - 293330703A,-14.87,-40.827,Sudoeste,RPGA do Rio Pardo,0.0,0.0,0.0,0.0,0.0,0.0,0.0,0.0,0.0,0.62,8.66,0.0,0.0,0.0,1.99,2.18,19.03,0.0,0.0,0.99,0.0,0.0,0.0,0.0,0.0,1.39,0.99,0.0,0.0,0.0,0.0,35.86
Anagé,290120501C,Anagé,Anagé - 290120501C,-14.766,-41.138,Sudoeste,RPGA do Rio de Contas,0.0,0.0,0.0,0.0,0.0,0.0,0.0,0.0,0.0,0.0,0.0,0.0,0.0,0.0,0.0,0.0,0.0,0.0,0.0,0.0,0.0,0.0,0.0,0.0,0.0,0.0,0.0,0.0,0.0,0.0,0.0,0.0
Jaguaquara,RS-CL-01,Jaguaquara,Jaguaquara - RS-CL-01,-13.573,-39.941,Sudoeste,RPGA do Recôncavo Sul,0.0,0.0,0.0,0.0,0.25,0.0,0.0,0.0,0.0,0.0,0.0,1.0,2.0,1.75,11.25,4.0,5.5,3.0,2.5,5.75,0.0,0.25,0.0,0.0,2.75,5.5,5.5,0.0,0.0,0.25,0.0,51.25
Vitória da Conquista,PA-CL-01,Vitória da Conquista,Vitória da Conquista - PA-CL-01,-14.886,-40.801,Sudoeste,RPGA do Rio Pardo,0.0,0.0,0.0,0.0,0.0,0.0,0.0,0.0,0.0,0.0,10.25,0.25,0.0,0.0,5.5,1.0,36.0,0.0,2.5,3.0,0.0,0.0,0.0,0.0,0.5,1.5,0.75,0.0,0.0,0.0,0.0,61.25
Itati,LE-CL-03,Itororó,Itororó (Itati) - LE-CL-03,-15.053,-40.023,Sudoeste,RPGA do Leste,0.0,0.0,0.0,0.0,0.0,1.8,0.0,0.0,0.0,0.0,0.0,9.0,0.0,0.2,0.6,0.8,4.0,0.0,0.4,0.0,0.0,0.0,0.0,0.4,1.8,5.2,0.8,0.0,0.0,0.0,0.0,25.0
Nova Canaã,292270601C,Nova Canaã,Nova Canaã - 292270601C,-14.663,-40.275,Sudoeste,RPGA do Rio de Contas,0.0,0.0,0.0,0.0,0.0,0.0,0.0,0.0,0.0,0.0,0.2,0.0,0.0,0.0,2.0,10.0,1.2,0.2,0.0,1.2,0.0,0.0,0.2,0.2,0.0,0.6,0.0,2.6,0.0,0.0,6.4,24.8
Cândido Sales,290670901C,Cândido Sales,Cândido Sales - 290670901C,-15.51,-41.152,Sudoeste,RPGA do Rio Pardo,0.0,0.0,0.0,0.0,0.0,0.0,0.0,0.0,0.0,0.0,0.0,0.0,0.0,0.0,0.0,10.6,0.0,0.0,0.0,0.0,0.0,0.0,0.0,0.0,0.2,0.0,1.8,0.0,0.0,0.0,0.0,12.6
Brumado,290460501C,Brumado,Brumado - 290460501C,-14.264,-41.715,Sudoeste,RPGA do Rio de Contas,0.0,0.0,0.0,0.0,0.0,0.0,0.0,0.0,0.0,0.0,0.0,0.0,0.0,0.0,0.0,0.2,0.0,0.0,0.0,0.0,0.0,0.0,0.0,0.0,0.0,0.0,0.0,0.0,0.0,0.0,0.0,0.2
Itambé,291580901C,Itambé,Itambé - 291580901C,-15.224,-40.63,Sudoeste,RPGA do Rio Pardo,0.0,0.0,0.0,0.0,0.0,0.0,0.0,0.0,0.0,0.0,0.0,0.0,0.0,0.0,0.0,4.0,12.2,0.0,0.8,2.8,0.0,0.0,0.0,0.0,6.2,0.6,0.2,0.0,0.8,0.0,0.0,27.6
Fz Nanci,53880000,Camacã,Camacã (Fz Nanci) - 53880000,-15.581,-39.521,Sul,RPGA do Rio Pardo,3.0,0.0,0.0,0.0,0.8,0.0,0.0,0.0,0.0,8.6,1.2,0.8,3.0,7.0,3.2,10.4,6.4,1.2,1.0,0.0,6.4,0.8,2.0,5.2,3.4,2.8,0.2,1.4,6.0,13.2,3.4,91.41
PCH Cach. da Lixa M,55354000,Jucuruçu,Jucuruçu (PCH Cach. da Lixa M) - 55354000,-17.067,-40.069,Sul,"RPGA dos Rios Peruípe, Itanhém e Jucuruçu",0.0,0.0,0.0,0.0,0.0,0.0,0.0,0.0,0.0,0.0,0.8,0.0,0.0,0.0,1.0,2.8,1.0,0.0,0.0,0.0,0.0,0.0,1.8,1.2,0.8,1.8,0.6,0.0,0.2,0.0,0.0,12.0
PCH Colino II M,55355600,Vereda,Vereda (PCH Colino II M) - 55355600,-17.071,-40.155,Sul,"RPGA dos Rios Peruípe, Itanhém e Jucuruçu",0.0,0.0,0.0,0.0,0.0,0.0,0.0,0.0,0.0,0.0,0.0,0.0,0.0,0.0,16.5,3.5,0.25,0.0,0.25,0.0,0.0,0.0,7.25,5.5,0.25,1.25,0.25,3.0,0.0,3.0,0.0,41.0
Itajuípe,,Itajuípe,Itajuípe,-14.674,-39.377,Sul,RPGA do Leste,0.0,0.2,1.0,0.0,4.6,0.0,0.0,0.0,0.0,1.6,2.4,3.6,4.4,2.4,24.4,15.4,10.4,0.2,5.4,3.2,15.8,2.4,15.4,2.0,2.8,6.2,3.0,1.6,1.0,3.4,2.8,135.61
Barra do Rocha,290310201A,Barra do Rocha,Barra do Rocha - 290310201A,-14.209,-39.599,Sul,RPGA do Rio de Contas,0.0,0.2,0.0,0.0,0.8,0.2,0.0,0.0,0.0,0.0,40.0,3.4,9.8,21.4,12.0,16.4,4.0,11.6,3.4,11.2,0.6,0.4,0.0,3.4,6.0,2.0,2.8,4.6,0.2,1.8,3.0,159.21
Guaratinga,83446,Guaratinga,Guaratinga - 83446,-16.58,-39.78,Sul,"RPGA dos Rios dos Frades, Buranhém e Santo Antônio",0.0,1.5,1.0,0.8,2.1,0.0,0.0,0.0,0.0,1.3,23.3,0.0,0.2,0.0,3.0,3.9,1.2,3.7,0.2,0.0,0.0,0.0,0.8,3.6,1.6,1.1,0.7,0.0,4.4,0.0,0.4,54.81
Centro,290580001A,Camamu,Camamu (Centro) - 290580001A,-13.944,-39.103,Sul,RPGA do Recôncavo Sul,0.0,0.6,0.0,0.0,8.8,0.4,0.0,0.2,0.0,0.4,0.0,5.2,12.4,5.8,1.4,14.8,7.4,2.2,4.4,14.6,0.8,4.8,0.2,3.8,7.6,14.6,3.0,12.2,1.0,4.6,1.0,132.2
Novo Horizonte,291180801A,Guaratinga,Guaratinga (Novo Horizonte) - 291180801A,-16.583,-39.781,Sul,"RPGA dos Rios dos Frades, Buranhém e Santo Antônio",0.0,1.6,1.6,2.4,2.8,0.0,0.0,0.0,0.0,1.2,27.4,0.2,0.2,0.0,3.0,4.6,4.8,0.2,0.0,0.2,0.0,0.0,1.2,5.0,2.2,1.4,0.6,0.0,4.2,0.0,0.0,64.81
Passagem,291490101A,Itacaré,Itacaré (Passagem) - 291490101A,-14.281,-39.003,Sul,RPGA do Rio de Contas,0.0,0.6,6.0,0.4,1.6,0.0,4.2,0.2,0.0,11.8,0.2,14.6,14.8,14.0,2.8,23.6,9.8,3.8,0.2,16.0,3.4,2.0,0.2,8.2,17.8,0.4,8.4,0.2,0.0,0.0,0.0,165.2
Centro,291560101A,Itamaraju,Itamaraju (Centro) - 291560101A,-17.028,-39.535,Sul,"RPGA dos Rios Peruípe, Itanhém e Jucuruçu",0.0,0.0,0.0,0.0,0.0,0.0,0.0,0.0,0.0,0.0,0.0,0.0,0.0,0.0,0.0,1.2,1.2,0.0,0.6,0.0,0.0,0.0,1.2,1.4,0.8,0.2,0.0,0.0,5.6,0.0,0.0,12.2
Pau Brasil,292390201A,Pau Brasil,Pau Brasil - 292390201A,-15.461,-39.652,Sul,RPGA do Rio Pardo,0.0,0.0,0.0,0.0,0.0,0.0,0.0,0.0,0.0,0.6,0.0,0.0,0.0,0.2,0.4,5.0,0.4,4.2,4.4,0.8,0.0,0.0,0.4,10.6,0.8,4.4,1.0,0.2,2.6,1.0,0.2,37.21
Ribeira,292550101A,Prado,Prado (Ribeira) - 292550101A,-17.338,-39.232,Sul,"RPGA dos Rios Peruípe, Itanhém e Jucuruçu",0.0,0.0,0.0,0.0,0.2,0.0,0.0,0.0,0.0,0.0,0.0,0.0,3.0,0.6,7.6,1.6,0.0,0.0,0.2,0.8,8.6,2.8,0.0,0.6,4.2,2.8,0.0,1.0,5.8,0.0,1.2,41.0
Centro,292805901A,Santa Luzia,Santa Luzia (Centro) - 292805901A,-15.43,-39.333,Sul,RPGA do Leste,0.0,0.0,1.6,1.6,0.2,0.0,0.0,0.0,0.0,0.0,12.8,4.8,0.4,14.0,13.0,22.6,1.4,2.4,0.4,0.0,2.2,10.2,6.2,14.0,1.8,3.4,4.8,0.6,6.2,3.8,28.8,157.21
Maraú,A438,Maraú,Maraú - A438,-13.907,-38.972,Sul,RPGA do Recôncavo Sul,0.0,0.0,0.6,0.8,0.4,2.2,0.0,0.0,0.0,0.2,0.0,18.8,1.0,16.2,0.4,11.2,7.0,6.8,3.6,10.4,6.0,0.6,0.0,0.0,15.2,2.2,0.6,0.8,0.6,0.0,4.8,110.4
Mascote,53950000,Mascote,Mascote - 53950000,-15.566,-39.303,Sul,RPGA do Rio Pardo,0.4,0.0,0.6,1.0,0.0,0.0,0.0,0.0,0.0,1.2,4.8,5.8,0.8,12.2,16.0,22.8,0.2,0.0,3.4,0.0,6.0,0.0,14.4,3.0,2.0,1.8,0.8,0.0,0.0,0.0,2.8,100.0
PCH Colino I J,55357000,Jucuruçu,Jucuruçu (PCH Colino I J) - 55357000,-17.082,-40.077,Sul,"RPGA dos Rios Peruípe, Itanhém e Jucuruçu",0.0,0.0,0.0,0.0,0.0,0.0,0.0,0.0,0.0,0.0,0.5,0.25,0.0,0.0,2.75,6.75,3.0,0.25,0.0,0.0,0.0,0.0,7.75,4.75,0.25,3.25,0.0,0.5,0.0,0.0,0.0,30.0
Eunápolis,FB-CL-01,Eunápolis,Eunápolis - FB-CL-01,-16.291,-39.58,Sul,"RPGA dos Rios dos Frades, Buranhém e Santo Antônio",0.0,0.0,0.25,0.5,0.25,0.0,0.0,0.0,0.0,0.0,0.5,0.5,2.25,0.0,2.75,2.25,3.25,0.5,2.75,0.25,0.0,0.0,1.25,11.0,1.25,0.75,2.0,0.25,0.0,0.0,2.5,35.0
Centro,290560201A,Camacan,Camacan (Centro) - 290560201A,-15.422,-39.495,Sul,RPGA do Rio Pardo,0.0,0.0,0.79,0.4,0.8,0.0,0.0,0.0,0.0,4.34,0.0,0.0,1.96,1.79,3.16,5.71,1.0,0.4,2.39,0.4,1.79,1.79,8.94,19.98,8.12,2.2,2.6,1.0,2.38,0.0,0.2,72.14
São João do Panelinha,290560202A,Camacan,Camacan (São João do Panelinha) - 290560202A,-15.375,-39.49,Sul,RPGA do Rio Pardo,0.0,0.0,0.0,0.0,2.4,0.6,0.0,0.0,0.0,3.19,0.0,0.0,0.2,3.76,3.74,4.93,2.55,0.2,0.6,0.39,11.62,1.77,3.16,11.84,6.32,9.08,5.72,0.0,6.11,6.88,0.0,85.06
Centro,290560203A,Camacan,Camacan (Centro) - 290560203A,-15.416,-39.494,Sul,RPGA do Rio Pardo,0.2,0.0,1.57,0.79,1.38,0.0,0.0,0.0,0.0,2.57,0.0,0.0,0.79,2.38,3.57,3.56,1.0,0.99,2.16,0.2,2.76,2.55,10.43,23.88,3.35,4.14,1.78,0.79,4.15,0.0,0.0,74.99
Conquista,291360601A,Ilhéus,Ilhéus (Conquista) - 291360601A,-14.797,-39.046,Sul,RPGA do Leste,0.0,0.0,1.41,0.2,2.56,0.2,0.0,0.0,0.0,3.57,5.15,1.77,1.59,0.0,32.47,20.54,3.57,7.08,0.0,1.01,0.2,1.97,1.97,7.53,4.13,20.49,3.35,4.96,0.2,3.79,0.0,129.71
Malhado,291360602A,Ilhéus,Ilhéus (Malhado) - 291360602A,-14.789,-39.049,Sul,RPGA do Leste,0.2,0.0,0.0,1.78,1.37,0.0,0.0,0.0,0.0,6.5,10.64,6.91,0.59,0.6,38.68,21.28,1.77,8.86,0.4,0.0,0.0,0.79,2.57,6.7,4.56,16.03,2.77,6.71,0.0,0.59,0.62,140.93
São Caetano,291480202A,Itabuna,Itabuna (São Caetano) - 291480202A,-14.806,-39.278,Sul,RPGA do Leste,0.0,0.4,7.71,0.42,0.62,0.0,0.0,0.0,0.0,11.81,0.8,1.02,2.58,2.58,35.01,33.17,4.35,3.16,0.2,5.72,3.58,0.4,4.14,1.97,1.78,10.91,3.74,1.22,0.79,0.82,7.87,146.77
Nova Ferradas,291480203A,Itabuna,Itabuna (Nova Ferradas) - 291480203A,-14.857,-39.347,Sul,RPGA do Leste,0.0,1.38,2.17,0.59,0.2,0.0,0.0,0.0,0.0,46.46,0.2,0.6,0.0,9.86,18.55,21.28,5.33,0.79,0.2,0.0,8.28,0.0,11.64,0.39,5.34,9.05,2.75,3.15,1.58,0.0,3.93,153.73
Planalto I,292110401A,Medeiros Neto,Medeiros Neto (Planalto I) - 292110401A,-17.365,-40.223,Sul,"RPGA dos Rios Peruípe, Itanhém e Jucuruçu",0.0,0.0,0.0,0.0,0.0,0.0,0.0,0.0,0.0,0.0,0.0,0.0,0.0,0.0,4.95,1.22,0.2,0.0,0.0,0.0,0.0,0.0,3.15,1.78,0.0,0.79,0.0,0.0,0.0,0.0,0.0,12.09
Centro,292300102A,Nova Viçosa,Nova Viçosa (Centro) - 292300102A,-17.893,-39.372,Sul,"RPGA dos Rios Peruípe, Itanhém e Jucuruçu",0.0,0.0,0.59,0.2,0.0,0.0,0.0,0.0,0.0,0.0,0.0,0.2,2.56,3.36,15.79,0.0,0.0,0.0,8.88,0.79,0.0,0.59,0.59,0.0,0.0,1.19,0.6,1.37,0.0,0.2,5.38,42.3
Posto da Mata,292300103A,Nova Viçosa,Nova Viçosa (Posto da Mata) - 292300103A,-17.896,-39.37,Sul,"RPGA dos Rios Peruípe, Itanhém e Jucuruçu",0.0,1.38,0.0,0.0,0.0,0.0,0.0,0.0,0.0,0.0,0.0,0.39,3.75,2.16,11.46,0.4,0.0,0.59,8.06,0.99,0.0,0.39,0.2,0.0,0.0,0.79,0.0,0.79,0.0,0.0,3.96,35.31
Areião,292530301A,Porto Seguro,Porto Seguro (Areião) - 292530301A,-16.441,-39.076,Sul,"RPGA dos Rios dos Frades, Buranhém e Santo Antônio",0.0,0.2,0.99,0.4,0.2,0.0,0.0,0.0,0.0,0.0,1.58,0.0,0.0,3.94,14.05,15.76,0.0,0.0,0.0,0.0,0.0,0.0,0.2,1.38,0.0,1.97,0.98,0.0,0.0,0.0,7.47,49.12
Paraguai,292530302A,Porto Seguro,Porto Seguro (Paraguai) - 292530302A,-16.41,-39.08,Sul,"RPGA dos Rios dos Frades, Buranhém e Santo Antônio",0.2,0.0,1.58,0.4,1.19,0.39,0.0,0.0,0.59,0.59,1.58,0.0,0.0,5.32,12.2,14.98,0.0,0.4,0.0,2.96,0.0,0.0,0.79,2.56,0.2,2.77,0.8,0.39,7.91,0.0,5.32,63.12
Trancoso,292530303A,Porto Seguro,Porto Seguro (Trancoso) - 292530303A,-16.595,-39.109,Sul,"RPGA dos Rios dos Frades, Buranhém e Santo Antônio",0.0,2.37,0.2,0.2,0.0,0.0,0.0,0.0,0.0,0.0,0.0,0.0,0.0,10.44,3.35,9.87,0.0,0.6,0.0,0.0,0.0,8.49,1.38,15.15,0.99,10.54,0.0,0.4,6.7,1.38,0.98,73.04
BR367km4,292770501A,Santa Cruz Cabrália,Santa Cruz Cabrália (BR367km4) - 292770501A,-16.321,-39.023,Sul,"RPGA dos Rios dos Frades, Buranhém e Santo Antônio",0.0,0.6,0.0,0.0,0.0,0.0,0.0,0.0,0.0,0.0,0.0,0.0,0.39,0.0,32.7,14.39,6.5,0.0,0.0,13.47,4.14,0.0,1.77,0.0,7.09,0.2,0.79,2.36,3.94,0.0,3.96,92.31
Centro,291480201A,Itabuna,Itabuna (Centro) - 291480201A,-14.79,-39.274,Sul,RPGA do Leste,0.0,0.4,0.0,1.38,0.4,0.0,0.0,0.0,0.0,7.29,1.19,0.99,1.2,3.75,29.68,25.25,1.78,0.2,0.78,9.84,5.11,5.5,4.93,1.19,1.39,13.19,3.93,0.2,0.0,0.0,13.75,133.33
Jusante,54945000,Itapebi,Itapebi (Jusante) - 54945000,-15.949,-39.523,Sul,RPGA do Rio Jequitinhonha,0.4,1.0,0.0,0.2,2.0,0.0,0.0,0.0,0.0,5.8,1.2,4.8,0.0,9.0,8.8,4.2,2.0,1.6,2.0,0.0,0.0,0.0,0.4,0.6,2.6,1.4,2.8,1.4,0.4,6.2,5.2,64.0
Ferradas,53170000,Itabuna,Itabuna (Ferradas) - 53170000,-14.844,-39.331,Sul,RPGA do Leste,0.0,0.2,1.2,0.8,0.2,0.0,0.2,0.0,0.0,40.6,0.2,1.2,1.4,12.0,27.8,19.8,6.2,0.8,0.2,0.6,18.0,0.2,6.2,0.8,2.8,8.0,1.0,2.8,3.8,0.4,4.8,162.21
Brotas de Macaúbas,290450601C,Brotas de Macaúbas,Brotas de Macaúbas - 290450601C,-11.996,-42.624,São Francisco,RPGA dos Rios Paramirim e Santo Onofre,0.0,0.0,0.2,0.0,0.0,0.0,0.0,0.0,0.0,0.0,1.2,1.8,1.4,1.4,0.8,0.8,0.6,0.8,1.0,0.0,0.0,0.0,0.0,0.0,0.0,0.0,0.0,0.0,0.0,0.0,0.0,10.0
Morpará,46360000,Morpará,Morpará - 46360000,-11.558,-43.282,São Francisco,RPGA dos Rios Paramirim e Santo Onofre,0.0,0.0,0.0,0.0,6.2,0.0,0.0,0.0,0.0,0.0,2.4,0.0,44.2,6.8,0.8,0.0,0.0,0.0,0.0,0.0,0.0,0.0,0.0,0.0,0.0,0.0,0.0,0.0,0.0,0.0,0.0,60.4
Bom Jesus da Lapa,83288,Bom Jesus da Lapa,Bom Jesus da Lapa - 83288,-13.251,-43.405,São Francisco,RPGA do Rio Carnaíba de Dentro,0.0,0.0,0.0,0.0,0.2,0.0,0.0,0.0,0.0,62.4,0.7,36.4,30.4,0.0,20.6,0.0,0.0,0.0,0.0,0.0,0.0,0.0,0.0,0.0,0.0,0.0,0.0,0.0,0.0,0.0,0.0,150.7
Santa Rita de Cássia,83076,Santa Rita de Cássia,Santa Rita de Cássia - 83076,-11.017,-44.517,São Francisco,RPGA do Rio Grande,0.0,0.0,0.0,0.0,0.0,0.0,0.0,0.0,0.0,22.0,21.4,0.8,15.0,24.2,1.0,0.8,0.0,0.0,0.0,0.0,0.2,0.0,0.4,0.0,0.0,0.0,1.2,0.0,0.0,0.0,0.0,87.0
Guanambí,A426,Guanambí,Guanambí - A426,-14.208,-42.75,São Francisco,RPGA do Rio Carnaíba de Dentro,0.0,0.0,0.0,0.0,0.0,0.0,0.0,0.0,0.0,16.6,1.4,42.8,0.0,0.0,0.0,0.0,0.0,0.0,0.0,0.0,0.0,0.0,0.0,0.0,0.0,0.0,0.0,0.0,0.0,0.0,0.0,60.8
Faz. Macambira,46675000,Cotegipe,Cotegipe (Faz. Macambira) - 46675000,-11.611,-44.157,São Francisco,RPGA do Rio Grande,0.0,0.0,0.0,1.4,0.0,0.0,0.0,0.0,0.0,12.0,0.2,6.8,8.8,0.0,0.0,5.8,0.2,0.2,0.0,0.0,0.0,0.0,0.0,0.0,0.0,3.2,0.0,0.0,0.0,0.0,0.0,38.61
Santa Maria da Vitória,45910001,Santa Maria da Vitória,Santa Maria da Vitória - 45910001,-13.401,-44.199,São Francisco,"RPGA do Rio Corrente e Riachos do Ramalho, Serra Dourada e Brejo Velho",0.0,0.0,0.0,1.2,0.0,0.0,0.0,0.0,0.0,19.8,49.0,30.6,1.4,0.0,13.6,0.0,0.0,0.0,0.0,0.0,0.0,0.0,0.0,0.0,0.0,0.0,0.0,0.0,0.0,0.0,0.0,115.6
Bom Jesus da Lapa,45480000,Bom Jesus da Lapa,Bom Jesus da Lapa - 45480000,-13.257,-43.435,São Francisco,"RPGA do Rio Corrente e Riachos do Ramalho, Serra Dourada e Brejo Velho",0.0,0.0,0.0,0.0,0.4,0.0,0.0,0.0,0.0,24.2,1.6,12.0,34.6,1.6,2.4,0.0,0.0,0.0,0.0,0.0,0.0,0.0,0.0,0.0,0.0,0.0,0.4,0.0,0.0,0.0,0.0,77.21
Barra,46998000,Barra,Barra - 46998000,-11.093,-43.14,São Francisco,RPGA do Rio Grande,0.0,0.0,0.0,0.0,0.0,0.0,0.0,0.0,0.0,0.4,0.0,0.2,25.2,10.0,0.0,0.0,0.4,0.0,0.0,0.0,0.0,0.0,0.0,0.0,0.0,0.8,0.0,0.0,0.0,0.4,0.0,37.4
Boqueirão,46902000,Mansidão,Mansidão (Boqueirão) - 46902000,-11.345,-43.826,São Francisco,RPGA do Rio Grande,0.0,0.0,0.4,0.0,0.0,0.0,0.0,0.0,0.4,0.4,0.0,2.6,44.6,21.2,0.6,0.8,0.0,0.0,0.0,0.0,0.0,0.0,3.0,0.0,0.0,3.6,0.0,0.0,0.0,0.2,0.0,77.8
Volta da Serra,CD-CL-02,Paratinga,Paratinga (Volta da Serra) - CD-CL-02,-12.576,-43.128,São Francisco,RPGA do Rio Carnaíba de Dentro,0.0,0.0,0.0,5.6,6.0,0.0,0.0,0.0,0.0,0.0,0.0,10.4,30.8,0.0,9.8,0.0,4.0,0.0,0.0,0.0,0.0,0.0,0.0,0.0,0.4,0.0,0.0,2.8,0.0,0.0,0.0,69.8
Boquira,290410001C,Boquira,Boquira - 290410001C,-12.81,-42.718,São Francisco,RPGA dos Rios Paramirim e Santo Onofre,0.0,0.0,0.0,0.0,0.0,0.0,0.0,0.0,0.0,0.0,0.0,0.0,0.2,18.0,11.4,0.0,0.0,0.0,0.0,0.0,0.0,0.0,0.0,0.0,2.4,3.2,0.0,0.0,0.0,0.0,0.0,35.2
Fazenda Água Quente,VJ-FR-01,Gentio do Ouro,Gentio do Ouro (Fazenda Água Quente) - VJ-FR-01,-11.55,-42.338,São Francisco,RPGA dos Rios Verde e Jacaré,0.0,0.0,0.0,0.0,0.0,0.0,0.0,0.0,0.0,0.0,0.2,0.0,8.4,21.8,0.0,0.0,0.0,0.0,0.0,0.0,0.0,0.0,0.0,0.0,0.0,0.0,0.0,0.0,0.0,0.0,0.0,30.4
