nome_estacao,codigo,municipio,estacao,latitude,longitude,regiao,rpga,01_05_11,02_05_11,03_05_11,04_05_11,05_05_11,06_05_11,07_05_11,08_05_11,09_05_11,10_05_11,11_05_11,12_05_11,13_05_11,14_05_11,15_05_11,16_05_11,17_05_11,18_05_11,19_05_11,20_05_11,21_05_11,22_05_11,23_05_11,24_05_11,25_05_11,26_05_11,27_05_11,28_05_11,29_05_11,30_05_11,31_05_11,total
Boa Vista do Tupim,EBDA,Boa Vista do Tupim,Boa Vista do Tupim - EBDA,-12.651332,-40.60111,Chapada Diamantina,RPGA do Rio Paraguaçu,0.0,0.0,0.0,0.0,0.0,0.0,0.0,0.0,0.0,0.0,0.0,0.0,0.0,0.0,0.0,0.0,0.0,0.0,0.0,0.0,0.0,0.0,0.0,0.0,0.0,0.0,0.0,0.0,0.0,0.0,0.0,0.0
Iaçu,EBDA,Iaçu,Iaçu - EBDA,-12.768002,-40.217768,Chapada Diamantina,RPGA do Rio Paraguaçu,0.0,0.0,0.0,0.0,0.0,0.0,0.0,0.0,0.0,0.0,0.0,0.0,0.0,0.0,0.0,0.0,0.0,0.0,0.0,0.0,0.0,0.0,0.0,0.0,0.0,0.0,0.0,0.0,0.0,0.0,0.0,0.0
Itaberaba,EBDA,Itaberaba,Itaberaba - EBDA,-12.534663,-40.301101,Chapada Diamantina,RPGA do Rio Paraguaçu,0.0,0.0,0.0,0.0,0.0,0.0,0.0,0.0,0.0,0.0,0.0,0.0,0.0,0.0,0.0,0.0,0.0,0.0,0.0,0.0,0.0,0.0,0.0,0.0,0.0,0.0,0.0,0.0,0.0,0.0,0.0,0.0
Itaetê,EBDA,Itaetê,Itaetê - EBDA,-12.984669,-40.984455,Chapada Diamantina,RPGA do Rio Paraguaçu,0.0,0.0,0.0,0.0,0.0,0.0,0.0,0.0,0.0,0.0,0.0,0.0,0.0,0.0,0.0,0.0,0.0,0.0,0.0,0.0,0.0,0.0,0.0,0.0,0.0,0.0,0.0,0.0,0.0,0.0,0.0,0.0
Marcionílio Souza,EBDA,Marcionílio Souza,Marcionílio Souza - EBDA,-13.001338,-40.534443,Chapada Diamantina,RPGA do Rio Paraguaçu,0.0,0.0,0.0,0.0,0.0,0.0,0.0,0.0,0.0,0.0,0.0,0.0,0.0,0.0,0.0,0.0,0.0,0.0,0.0,0.0,0.0,0.0,0.0,0.0,0.0,0.0,0.0,0.0,0.0,0.0,0.0,0.0
Ruy Barbosa,EBDA,Ruy Barbosa,Ruy Barbosa - EBDA,-12.284657,-40.501107,Chapada Diamantina,RPGA do Rio Paraguaçu,0.0,0.0,0.0,0.0,0.0,7.0,0.0,8.0,8.0,8.0,8.0,0.0,0.0,0.0,0.0,0.0,0.0,0.0,0.0,0.0,0.0,0.0,0.0,0.0,0.0,0.0,0.0,0.0,0.0,0.0,0.0,39.0
Utinga,EBDA,Utinga,Utinga - EBDA,-12.08465,-41.101122,Chapada Diamantina,RPGA do Rio Paraguaçu,0.0,35.0,0.0,0.0,2.5,0.0,0.0,0.0,0.0,0.0,0.0,0.0,0.0,0.0,0.0,0.0,0.0,0.0,0.0,0.0,0.0,0.0,0.0,0.0,0.0,0.0,0.0,0.0,0.0,0.0,0.0,37.5
Barra da Estiva,EBDA,Barra da Estiva,Barra da Estiva - EBDA,-13.63468,-41.334467,Chapada Diamantina,RPGA do Rio de Contas,1.2,0.0,0.0,0.0,0.7,0.0,2.8,0.2,0.0,0.4,0.0,0.0,0.1,0.0,0.0,0.0,0.0,1.0,1.8,5.4,0.0,2.3,6.8,1.5,0.0,0.0,0.0,0.0,0.0,0.0,0.0,24.2
Baixa Grande,EBDA,Baixa Grande,Baixa Grande - EBDA,-11.951317,-40.167762,Chapada Diamantina,RPGA do Rio Paraguaçu,0.0,0.0,0.0,0.0,0.0,0.0,0.0,0.0,0.0,0.0,0.0,0.0,0.0,0.0,0.0,0.0,0.0,0.0,0.0,0.0,0.0,0.0,0.0,0.0,0.0,0.0,0.0,0.0,0.0,0.0,0.0,0.0
Mairi,EBDA,Mairi,Mairi - EBDA,-11.717981,-40.151095,Chapada Diamantina,RPGA do Rio Paraguaçu,0.0,0.0,0.0,0.0,8.1,0.0,0.0,0.0,0.0,0.0,0.0,0.0,0.0,0.0,0.0,0.0,0.0,0.0,0.0,6.5,0.0,0.0,0.0,12.0,0.0,0.0,0.0,0.0,0.0,0.0,0.0,26.6
Morro do Chapéu,EBDA,Morro do Chapéu,Morro do Chapéu - EBDA,-11.551305,-41.151119,Chapada Diamantina,RPGA do Rio Paraguaçu,0.2,0.0,12.2,1.6,2.3,1.4,0.0,6.9,0.0,0.0,0.0,0.0,0.0,0.0,0.2,0.0,0.0,0.0,2.0,0.0,0.7,0.7,0.1,0.7,0.7,0.6,0.0,0.0,0.0,0.0,0.0,30.3
Mundo Novo,EBDA,Mundo Novo,Mundo Novo - EBDA,-11.851314,-40.46777,Chapada Diamantina,RPGA do Rio Paraguaçu,0.0,0.0,0.0,12.5,7.5,0.0,0.0,0.0,0.0,0.0,0.0,0.0,0.0,0.0,0.0,0.0,0.0,0.0,0.0,0.0,0.0,0.0,0.0,0.0,0.0,0.0,0.0,0.0,0.0,0.0,0.0,20.0
Piritiba,EBDA,Piritiba,Piritiba - EBDA,-11.751314,-40.551104,Chapada Diamantina,RPGA do Rio Paraguaçu,0.0,4.0,0.0,0.0,0.0,0.0,0.0,2.0,0.0,0.0,0.0,0.0,0.0,0.0,0.0,0.0,0.0,0.0,0.0,26.0,0.0,0.0,0.0,0.0,0.0,13.0,0.0,0.0,0.0,0.0,0.0,45.0
Itaberaba,A408,Itaberaba,Itaberaba - A408,-12.524062,-40.299714,Chapada Diamantina,RPGA do Rio Paraguaçu,0.0,0.0,1.0,0.0,0.2,0.6,2.0,1.6,0.0,0.0,0.0,0.0,0.0,0.0,0.0,0.0,0.0,0.2,0.0,0.0,0.6,7.6,1.2,0.6,0.0,0.0,0.0,0.0,0.0,0.0,0.0,15.6
Barra do Mendes,EBDA,Barra do Mendes,Barra do Mendes - EBDA,-11.817975,-42.06781,Chapada Diamantina,RPGA dos Rios Verde e Jacaré,0.0,0.0,0.0,0.0,0.0,0.0,5.0,0.0,0.0,0.0,0.0,0.0,0.0,0.0,0.0,0.0,0.0,0.0,0.0,0.0,0.0,0.0,0.0,0.0,0.0,0.0,0.0,0.0,0.0,0.0,0.0,5.0
Cafarnaum,EBDA,Cafarnaum,Cafarnaum - EBDA,-11.684641,-41.484462,Chapada Diamantina,RPGA dos Rios Verde e Jacaré,0.0,0.0,0.0,0.0,0.0,0.0,0.0,0.0,0.0,0.0,0.0,0.0,0.0,0.0,0.0,0.0,0.0,0.0,0.0,0.0,0.0,0.0,0.0,0.0,0.0,0.0,0.0,0.0,0.0,0.0,0.0,0.0
Canarana,EBDA,Canarana,Canarana - EBDA,-11.684641,-41.751137,Chapada Diamantina,RPGA dos Rios Verde e Jacaré,0.0,2.0,0.0,0.0,0.0,0.0,0.0,0.0,0.0,0.0,0.0,0.0,0.0,0.0,0.0,0.0,0.0,0.0,0.0,0.0,0.0,0.0,0.0,0.0,0.0,0.0,0.0,0.0,0.0,0.0,0.0,2.0
Andaraí,EBDA,Andaraí,Andaraí - EBDA,-12.801332,-41.317795,Chapada Diamantina,RPGA do Rio Paraguaçu,0.0,0.0,0.0,0.0,0.0,0.0,0.0,0.0,0.0,0.0,0.0,0.0,0.0,0.0,0.0,0.0,0.0,0.0,0.0,0.0,0.0,0.0,0.0,0.0,0.0,0.0,0.0,0.0,0.0,0.0,0.0,0.0
Iraquara,EBDA,Iraquara,Iraquara - EBDA,-12.234651,-41.617801,Chapada Diamantina,RPGA do Rio Paraguaçu,0.0,0.0,0.0,0.0,0.0,0.0,0.0,0.0,0.0,0.0,0.0,0.0,0.0,0.0,0.0,0.0,0.0,0.0,0.0,0.0,0.0,0.0,0.0,0.0,0.0,0.0,0.0,0.0,0.0,0.0,0.0,0.0
Mucugê,EBDA,Mucugê,Mucugê - EBDA,-13.001335,-41.367798,Chapada Diamantina,RPGA do Rio Paraguaçu,0.0,0.0,5.2,4.0,7.8,0.0,0.0,0.0,0.0,0.0,0.0,0.0,0.0,0.0,0.0,5.8,0.0,1.7,2.2,0.7,0.2,0.0,2.6,0.0,0.0,0.0,0.0,0.0,0.0,0.0,0.0,30.2
Piatã,EBDA,Piatã,Piatã - EBDA,-13.201338,-41.751143,Chapada Diamantina,RPGA do Rio de Contas,0.0,14.4,0.0,0.0,0.0,0.0,0.0,0.0,0.0,0.0,0.0,0.0,0.0,0.0,0.0,0.0,0.0,0.0,0.0,0.0,0.0,0.0,0.0,0.0,0.0,0.0,0.0,0.0,0.0,0.0,0.0,14.4
Seabra,EBDA,Seabra,Seabra - EBDA,-12.417987,-41.767806,Chapada Diamantina,RPGA do Rio Paraguaçu,0.0,0.0,0.0,0.0,0.0,0.0,0.0,0.0,0.0,0.0,0.0,0.0,0.0,0.0,0.0,0.0,0.0,0.0,0.0,0.0,0.0,0.0,0.0,0.0,0.0,0.0,0.0,0.0,0.0,0.0,0.0,0.0
Livramento do Brumado,EBDA,Livramento do Brumado,Livramento do Brumado - EBDA,-13.651344,-41.834479,Chapada Diamantina,RPGA do Rio de Contas,0.0,0.0,0.0,0.0,0.0,0.0,0.0,0.0,0.0,0.0,0.0,0.0,0.0,0.0,0.0,0.0,0.0,0.0,0.0,0.0,0.0,0.0,0.0,0.0,0.0,0.0,0.0,0.0,0.0,0.0,0.0,0.0
Itaberaba,83244,Itaberaba,Itaberaba - 83244,-12.516667,-40.283333,Chapada Diamantina,RPGA do Rio Paraguaçu,0.0,0.0,0.7,0.0,0.0,0.6,1.8,1.1,0.0,0.0,0.0,0.0,0.1,0.0,0.0,0.0,0.0,0.0,0.0,0.0,0.7,6.4,0.6,0.4,0.0,0.0,0.0,0.0,0.0,0.0,0.0,12.4
Lençóis,83242,Lençóis,Lençóis - 83242,-12.5575,-41.388889,Chapada Diamantina,RPGA do Rio Paraguaçu,1.9,0.1,1.8,13.6,0.2,0.1,6.8,23.1,0.1,0.2,0.4,33.3,0.3,0.0,0.0,0.1,0.0,1.1,0.6,5.2,0.0,0.1,0.3,0.9,0.2,0.0,0.0,0.0,0.0,0.0,0.0,90.4
Morro do Chapéu,83184,Morro do Chapéu,Morro do Chapéu - 83184,-11.216667,-41.216667,Chapada Diamantina,RPGA do Rio Salitre,0.0,0.0,12.0,1.6,0.1,1.0,1.4,3.7,0.0,0.0,0.0,0.0,0.3,0.4,0.0,0.0,0.0,0.1,1.5,1.0,0.8,0.2,0.7,0.6,0.5,0.0,0.0,0.0,0.0,0.0,0.0,25.9
Piatã,A430,Piatã,Piatã - A430,-13.155681,-41.774125,Chapada Diamantina,RPGA do Rio de Contas,0.0,0.4,0.0,14.4,1.0,0.2,2.8,0.0,0.0,0.0,0.0,0.0,0.2,1.2,0.0,0.0,0.0,0.0,0.2,2.4,1.4,0.8,8.0,3.8,1.4,0.0,0.0,0.0,0.0,0.0,0.0,38.2
São Félix do Coribe,EBDA,São Félix do Coribe,São Félix do Coribe - EBDA,-13.401899,-41.19585,Chapada Diamantina,RPGA do Rio Paraguaçu,0.0,0.0,0.0,0.0,0.0,0.0,0.0,0.0,0.0,0.0,0.0,0.0,0.0,0.0,0.0,0.0,0.0,3.6,0.0,0.0,0.0,0.0,0.0,0.0,0.0,0.0,0.0,0.0,0.0,0.0,0.0,3.6
Nova Vista,EBDA,Andaraí,Andaraí (Nova Vista) - EBDA,-12.151323,-40.267765,Chapada Diamantina,RPGA do Rio Paraguaçu,0.0,0.0,0.0,0.0,0.0,0.0,0.0,0.0,0.0,0.0,0.0,0.0,0.0,0.0,0.0,0.0,0.0,0.0,0.0,0.0,0.0,0.0,0.0,0.0,0.0,0.0,0.0,0.0,0.0,0.0,0.0,0.0
Ubiraitá,EBDA,Andaraí,Andaraí (Ubiraitá) - EBDA,-12.684663,-41.051122,Chapada Diamantina,RPGA do Rio Paraguaçu,0.0,0.0,0.0,0.0,0.0,0.0,0.0,0.0,0.0,0.0,0.0,0.0,0.0,0.0,0.0,0.0,0.0,0.0,0.0,0.0,0.0,0.0,0.0,0.0,0.0,0.0,0.0,0.0,0.0,0.0,0.0,0.0
Lençóis,A425,Lençóis,Lençóis - A425,-12.557854,-41.388808,Chapada Diamantina,RPGA do Rio Paraguaçu,1.6,0.2,0.4,15.0,0.2,0.0,5.0,23.4,0.0,0.0,0.2,32.4,0.2,0.0,0.0,0.0,0.0,0.8,0.6,4.2,0.0,0.2,0.0,1.0,0.0,0.0,0.0,0.0,0.0,0.0,0.0,85.4
Lagoa Bonita,PG-PR-15,Iacú,Iacú (Lagoa Bonita) - PG-PR-15,-12.931506,-40.226468,Chapada Diamantina,RPGA do Rio Paraguaçu,11.25,3.5,0.25,1.75,0.0,0.0,0.75,2.75,0.0,0.0,0.0,0.0,0.0,0.0,0.0,0.0,0.0,0.0,0.0,0.0,0.0,0.0,0.0,0.0,0.0,0.0,0.0,0.0,0.0,0.0,0.0,20.25
João Amaro,PG-PR-16,Iaçu,Iaçu (João Amaro) - PG-PR-16,-12.800391,-40.363139,Chapada Diamantina,RPGA do Rio Paraguaçu,3.25,0.0,0.0,1.0,0.0,0.0,0.0,2.0,0.0,0.0,0.0,0.0,0.0,0.0,0.0,0.0,0.0,0.0,0.0,0.0,0.0,0.75,0.25,0.0,0.0,0.0,0.0,0.0,0.0,0.0,0.0,7.25
Afrânio Peixoto,PG-PR-21,Iraquara,Iraquara (Afrânio Peixoto) - PG-PR-21,-12.260093,-41.445952,Chapada Diamantina,RPGA do Rio Paraguaçu,0.75,0.75,0.75,5.25,3.25,1.0,5.25,10.75,0.0,0.0,0.0,0.0,0.25,0.0,0.0,0.0,0.0,0.25,0.0,2.5,1.5,0.0,5.0,11.5,0.75,0.0,0.0,0.0,0.0,0.0,0.0,49.5
Wagner,PG-PR-22,Wagner,Wagner - PG-PR-22,-12.289538,-41.161774,Chapada Diamantina,RPGA do Rio Paraguaçu,1.5,0.0,0.5,0.25,0.0,0.25,1.0,4.0,0.0,0.0,0.0,0.0,0.0,0.0,0.0,0.0,0.0,0.0,0.0,0.75,0.75,0.0,0.0,0.25,0.0,0.0,0.0,0.25,0.25,0.0,0.0,9.75
Utinga,PG-PR-23,Utinga,Utinga - PG-PR-23,-12.030089,-41.058714,Chapada Diamantina,RPGA do Rio Paraguaçu,0.25,0.0,2.75,0.25,1.5,0.5,1.75,0.5,0.0,0.0,0.0,0.0,0.0,0.0,0.0,0.0,0.0,0.0,0.0,0.25,0.25,1.0,0.25,0.75,0.0,0.0,0.0,0.0,0.0,0.0,0.0,10.0
Guiné,PG-PR-24,Mucugê,Mucugê (Guiné) - PG-PR-24,-12.771772,-41.540679,Chapada Diamantina,RPGA do Rio Paraguaçu,0.0,0.25,0.0,0.25,0.5,0.0,0.0,0.75,0.0,0.0,0.0,0.0,0.5,0.0,0.0,0.0,0.0,0.0,0.0,0.0,0.5,0.0,0.5,0.0,0.0,0.0,0.0,0.0,0.0,0.0,0.0,3.25
Iramaia,PG-PR-25,Iramaia,Iramaia - PG-PR-25,-13.290122,-40.962607,Chapada Diamantina,RPGA do Rio Paraguaçu,0.0,0.0,0.0,0.0,0.0,0.0,0.5,0.25,0.0,0.0,0.0,0.0,0.0,0.25,0.0,0.0,0.0,0.0,0.0,0.0,0.0,0.0,0.0,0.0,0.0,0.0,0.0,0.0,0.0,0.0,0.0,1.0
Cascavel,PG-PR-27,Mucugê,Mucugê (Cascavel) - PG-PR-27,-13.285954,-41.287619,Chapada Diamantina,RPGA do Rio Paraguaçu,0.0,1.25,3.5,1.0,1.75,0.0,1.5,0.0,0.0,0.0,0.0,0.0,0.25,1.25,0.0,0.0,0.0,0.0,0.0,0.5,0.25,0.0,3.75,0.0,0.0,0.0,0.0,0.0,0.0,0.0,0.0,15.0
Mulungu do Morro,,Mulungu do Morro,Mulungu do Morro,-11.980363,-41.619012,Chapada Diamantina,RPGA do Rio Paraguaçu,0.0,0.0,0.0,0.0,0.0,0.0,0.25,0.0,0.0,0.0,0.0,0.0,0.0,0.0,0.0,0.0,0.0,0.0,0.0,0.0,0.0,0.0,0.0,0.0,0.0,0.0,0.0,0.0,0.0,0.0,0.0,0.25
Barro Alto,,Barro Alto,Barro Alto,-11.769188,-41.909464,Chapada Diamantina,RPGA dos Rios Verde e Jacaré,0.0,0.0,0.0,0.0,0.0,0.0,0.0,0.0,0.0,0.0,0.0,0.0,0.0,0.0,0.0,0.0,0.0,0.2,0.0,22.8,0.4,0.0,0.0,0.0,0.0,0.0,0.0,0.0,0.0,0.0,0.0,23.4
Barra dos Mendes,,Barra dos Mendes,Barra dos Mendes,-11.805077,-42.05708,Chapada Diamantina,RPGA dos Rios Verde e Jacaré,0.0,0.0,0.0,0.25,0.0,0.0,0.0,2.25,0.0,0.0,0.0,0.0,0.0,0.0,0.0,0.0,0.0,0.0,0.0,0.0,0.0,0.0,0.0,0.0,0.0,0.0,0.0,0.0,0.0,0.0,0.0,2.5
Olho D'Água do Francisco,,Olho D'Água do Francisco,Olho D'Água do Francisco,-12.307034,-42.079028,Chapada Diamantina,RPGA dos Rios Verde e Jacaré,0.0,0.0,0.0,0.25,0.25,0.0,0.0,0.75,0.0,0.0,0.0,0.0,0.0,0.0,0.0,0.0,0.0,0.0,0.0,1.8,0.2,0.2,0.0,0.0,0.0,0.0,0.0,0.0,0.0,0.0,0.0,3.45
América Dourada,,América Dourada,América Dourada,-11.464848,-41.442615,Chapada Diamantina,RPGA dos Rios Verde e Jacaré,0.0,0.0,2.25,0.0,0.0,0.0,0.0,0.25,0.0,0.0,0.0,0.0,0.0,0.0,0.0,0.0,0.0,0.0,0.0,0.0,0.0,0.0,0.0,0.0,0.0,0.0,0.0,0.0,0.0,0.0,0.0,2.5
Ibiaporã,PG-CL-01,Mundo Novo,Mundo Novo (Ibiaporã) - PG-CL-01,-12.05379,-40.83722,Chapada Diamantina,RPGA do Rio Paraguaçu,0.25,1.0,1.5,0.25,0.75,3.0,1.5,0.0,0.0,0.0,0.0,0.0,0.0,0.0,0.0,0.0,0.0,0.0,0.25,3.75,0.5,1.5,3.75,4.75,0.0,0.0,0.0,0.0,0.25,0.0,0.0,23.0
Marcionílio Souza,PG-CL-03,Marcionílio Souza,Marcionílio Souza - PG-CL-03,-13.00021,-40.537783,Chapada Diamantina,RPGA do Rio Paraguaçu,0.25,0.75,0.0,0.0,0.0,0.0,2.0,7.75,0.0,0.0,0.0,0.0,0.0,0.0,0.0,0.0,0.0,0.0,0.0,0.0,0.0,1.75,0.0,0.75,0.0,0.0,0.0,0.0,0.0,0.0,0.0,13.25
Seabra,PG-PR-01,Seabra,Seabra - PG-PR-01,-12.428149,-41.770409,Chapada Diamantina,RPGA do Rio Paraguaçu,0.0,0.0,0.0,0.0,0.25,0.0,0.25,4.5,0.0,0.0,0.0,0.75,0.0,0.0,0.0,0.0,0.0,0.0,0.0,0.25,0.0,0.0,0.0,0.25,0.0,0.0,0.0,0.0,0.0,0.0,0.0,6.25
Iraquara,PG-PR-02,Iraquara,Iraquara - PG-PR-02,-12.255093,-41.61679,Chapada Diamantina,RPGA do Rio Paraguaçu,0.0,0.25,0.0,6.5,0.25,0.25,2.25,7.0,0.25,0.0,0.0,1.0,0.0,0.0,0.0,0.0,0.0,0.0,0.0,0.0,0.0,0.0,0.0,0.25,0.0,0.0,0.0,0.0,0.0,0.0,0.0,18.0
Piritiba,PG-PR-07,Piritiba,Piritiba - PG-PR-07,-11.733137,-40.562306,Chapada Diamantina,RPGA do Rio Paraguaçu,1.75,0.0,9.0,0.75,2.0,1.0,1.5,0.25,0.0,0.0,0.0,0.25,0.5,0.75,0.25,0.0,0.0,1.75,0.25,0.25,0.25,1.25,1.0,1.25,0.0,0.0,0.0,0.0,0.0,0.0,0.0,24.0
Tapiramutá,PG-PR-09,Tapiramutá,Tapiramutá - PG-PR-09,-11.838502,-40.791761,Chapada Diamantina,RPGA do Rio Paraguaçu,3.25,0.0,2.25,0.25,3.75,2.25,3.5,4.0,0.0,0.0,0.0,0.0,0.75,0.25,0.0,0.0,0.0,0.25,4.75,3.0,1.0,1.0,3.5,4.0,0.25,0.0,0.0,0.0,0.0,0.0,0.0,38.0
Piatã,CO-CL-04,Piatã,Piatã - CO-CL-04,-13.164166,-41.770833,Chapada Diamantina,RPGA do Rio de Contas,0.0,0.25,0.0,2.0,0.25,0.0,2.0,0.0,0.0,0.0,0.0,0.0,0.0,1.0,0.0,0.0,0.0,0.0,0.0,1.5,0.0,0.25,1.25,0.5,0.0,0.0,0.0,0.0,0.0,0.0,0.0,9.0
Souto Soares,PG-CL-04,Souto Soares,Souto Soares - PG-CL-04,-12.08538,-41.64815,Chapada Diamantina,RPGA do Rio Paraguaçu,25.0,0.0,1.5,2.5,1.5,0.0,2.0,1.75,0.0,0.0,0.0,0.0,0.0,0.0,0.0,0.0,0.0,0.0,0.0,0.0,0.0,0.0,0.0,2.25,0.5,0.0,0.0,0.0,0.0,0.0,0.0,37.0
Palmeiras,EBDA,Palmeiras,Palmeiras - EBDA,-12.46799,-41.617801,Chapada Diamantina,RPGA do Rio Paraguaçu,0.0,0.0,0.0,0.0,0.0,0.0,0.0,0.0,0.0,0.0,0.0,12.0,2.0,0.0,0.0,0.0,0.0,0.0,0.0,0.0,0.0,0.0,0.0,0.0,0.0,0.0,0.0,0.0,0.0,0.0,0.0,14.0
Jeremoabo,EBDA,Jeremoabo,Jeremoabo - EBDA,-10.067951,-38.351041,Nordeste,RPGA do Rio Vaza-Barris,2.5,2.6,17.5,5.1,1.2,0.0,0.0,0.0,0.0,0.0,0.0,0.0,0.0,0.0,0.0,0.0,0.0,0.7,2.0,0.0,0.0,0.0,3.2,14.8,0.8,0.7,0.0,0.0,0.0,0.0,0.0,51.11
Coronel João Sá,EBDA,Coronel João Sá,Coronel João Sá - EBDA,-10.284624,-37.917698,Nordeste,RPGA do Rio Vaza-Barris,0.0,0.0,0.0,0.0,4.3,0.0,0.0,0.0,0.0,0.0,4.2,0.0,0.0,0.0,0.0,0.0,0.0,0.0,4.5,2.7,3.2,0.0,2.8,6.0,11.5,3.4,0.0,0.0,0.0,0.0,0.0,42.6
Abaré,EBDA,Abaré,Abaré - EBDA,-8.71792,-39.117725,Nordeste,RPGA dos Rios Macururé e Curaçá,0.0,0.0,83.0,0.0,21.0,0.0,0.0,0.0,0.0,0.0,0.0,0.0,0.0,0.0,0.0,0.0,0.0,0.0,0.0,0.0,0.0,0.0,0.0,13.0,0.0,0.0,0.0,0.0,0.0,0.0,0.0,117.0
Chorrochó,EBDA,Chorrochó,Chorrochó - EBDA,-8.984593,-39.101059,Nordeste,RPGA dos Rios Macururé e Curaçá,0.0,0.0,0.0,0.0,28.2,0.0,0.0,0.0,0.0,0.0,0.0,0.0,0.0,0.0,0.0,0.0,0.0,0.0,0.0,0.0,0.0,0.0,0.0,0.0,0.0,0.0,0.0,0.0,0.0,0.0,0.0,28.2
Rodelas,EBDA,Rodelas,Rodelas - EBDA,-8.83459,-38.751049,Nordeste,RPGA dos Rios Macururé e Curaçá,0.0,0.0,16.6,2.5,36.4,0.0,0.0,0.0,0.0,0.0,0.0,0.0,0.0,0.0,0.0,0.0,0.0,0.0,0.0,0.0,0.0,0.0,0.0,0.0,0.0,0.0,0.0,0.0,0.0,0.0,0.0,55.5
Curaçá,EBDA,Curaçá,Curaçá - EBDA,-8.98459,-39.90108,Nordeste,RPGA dos Rios Macururé e Curaçá,0.0,0.0,0.0,0.0,0.0,0.0,50.5,0.0,0.0,0.0,0.0,0.0,0.0,0.0,0.0,0.0,0.0,27.5,0.0,0.0,0.0,0.0,0.0,0.0,0.0,0.0,0.0,0.0,0.0,0.0,0.0,78.0
Jacobina,EBDA,Jacobina,Jacobina - EBDA,-11.167968,-40.501101,Nordeste,RPGA do Rio Itapicuru,0.0,0.0,0.0,0.0,0.0,0.0,0.0,0.0,0.0,0.0,0.0,0.0,0.0,0.0,0.0,0.0,0.0,0.0,0.0,0.0,0.0,0.0,0.0,0.0,0.0,0.0,0.0,0.0,0.0,0.0,0.0,0.0
Banzaê,EBDA,Banzaê,Banzaê - EBDA,-10.584629,-38.617717,Nordeste,RPGA do Rio Itapicuru,2.2,2.3,12.2,2.3,0.0,2.5,0.0,0.0,0.0,0.0,0.0,0.0,0.0,0.0,0.0,0.0,0.0,0.0,4.0,0.0,6.3,4.2,8.1,28.5,0.0,0.0,0.0,0.0,0.0,0.0,9.5,82.1
Miguel Calmon,EBDA,Miguel Calmon,Miguel Calmon - EBDA,-11.417972,-40.584438,Nordeste,RPGA do Rio Itapicuru,0.0,0.0,0.0,2.5,1.0,0.0,0.0,0.0,0.0,0.0,0.0,0.0,0.0,0.0,0.0,0.0,0.0,0.0,1.5,1.6,1.6,2.7,0.1,3.3,0.0,0.0,0.0,0.0,0.0,0.0,0.0,14.3
Saúde,EBDA,Saúde,Saúde - EBDA,-10.934629,-40.417765,Nordeste,RPGA do Rio Itapicuru,7.8,22.2,0.0,0.0,24.5,0.0,0.0,0.0,0.0,0.0,0.0,0.0,0.0,0.0,0.0,0.0,0.0,0.0,0.0,26.0,0.0,0.0,0.0,0.0,0.0,13.0,0.0,0.0,0.0,0.0,0.0,93.5
Paulo Afonso,A411,Paulo Afonso,Paulo Afonso - A411,-9.379325,-38.227424,Nordeste,RPGA dos Rios Macururé e Curaçá,3.2,1.4,4.0,8.0,8.8,1.6,0.8,0.0,0.4,0.0,4.6,0.2,0.0,0.0,0.0,0.0,0.0,0.0,2.4,13.4,1.6,0.0,5.0,0.8,5.8,0.4,0.6,0.0,0.0,0.0,0.0,63.0
Cipó,83192,Cipó,Cipó - 83192,-11.083333,-38.516667,Nordeste,RPGA do Rio Itapicuru,0.4,0.4,0.4,6.9,1.4,1.8,0.1,0.0,0.0,0.0,0.4,0.3,0.0,0.0,0.0,0.0,0.0,0.0,3.0,1.0,0.4,0.6,2.9,6.9,8.1,0.0,0.0,0.0,0.0,0.0,0.0,35.0
Jacobina,83186,Jacobina,Jacobina - 83186,-11.172778,-40.534167,Nordeste,RPGA do Rio Itapicuru,1.4,0.0,6.8,3.4,2.0,0.5,0.0,0.0,0.0,0.0,0.0,0.6,0.0,0.4,0.0,0.0,0.0,0.0,1.8,5.1,1.3,0.7,1.3,13.4,7.4,0.0,0.0,0.0,0.0,0.0,4.8,50.9
Monte Santo,83090,Monte Santo,Monte Santo - 83090,-10.4425,-39.331111,Nordeste,RPGA do Rio Itapicuru,0.0,0.0,4.5,13.7,2.4,2.2,0.1,0.0,0.0,0.0,0.8,0.1,0.9,0.0,0.0,0.0,0.0,0.0,2.0,1.8,3.0,0.2,2.2,12.4,10.4,0.0,0.0,0.0,0.0,0.0,0.0,56.7
Paulo Afonso,82986,Paulo Afonso,Paulo Afonso - 82986,-9.379325,-38.227424,Nordeste,RPGA dos Rios Macururé e Curaçá,2.3,1.1,3.1,7.4,7.2,1.4,0.5,0.0,0.0,0.0,4.1,0.0,0.0,0.0,0.0,0.0,0.0,0.0,1.4,12.5,0.6,0.0,4.1,0.6,5.1,0.0,0.0,0.0,0.0,0.0,0.0,51.41
Senhor do Bonfim,83088,Senhor do Bonfim,Senhor do Bonfim - 83088,-10.490649,-40.100044,Nordeste,RPGA do Rio Itapicuru,0.8,0.0,12.6,22.6,14.2,0.0,0.0,1.4,0.0,0.0,10.0,1.3,0.0,0.1,0.0,0.0,0.0,2.5,10.7,10.6,1.8,0.5,0.4,13.0,10.5,0.2,0.0,0.0,0.0,0.0,0.0,113.2
Serrinha,83190,Serrinha,Serrinha - 83190,-11.633333,-38.966667,Nordeste,RPGA do Recôncavo Norte,1.7,1.6,1.6,2.4,5.9,0.0,0.0,0.0,0.0,0.0,3.5,6.5,0.1,0.3,0.0,0.0,0.0,0.0,2.6,4.9,0.1,1.8,1.2,9.7,2.8,0.0,0.1,0.0,0.0,0.0,0.0,46.81
Conde,A431,Conde,Conde - A431,-12.03622,-37.68322,Nordeste,RPGA do Rio Itapicuru,20.6,8.2,4.2,10.6,8.8,1.8,0.2,0.0,0.2,0.0,0.2,0.0,0.4,0.4,1.0,1.4,0.8,8.0,7.4,2.8,3.0,1.4,40.0,39.8,25.8,0.2,0.2,0.0,0.0,0.0,0.2,187.6
Uauá,A435,Uauá,Uauá - A435,-9.833617,-39.495631,Nordeste,RPGA do Rio Vaza-Barris,0.0,0.0,0.0,7.8,2.2,0.0,0.2,0.0,0.0,0.0,0.0,0.0,0.0,0.0,0.0,0.0,0.0,0.0,0.0,0.0,0.0,0.2,0.0,2.8,1.2,0.4,0.0,0.0,0.0,0.0,0.0,14.8
Euclides da Cunha,A442,Euclides da Cunha,Euclides da Cunha - A442,-10.537233,-38.996605,Nordeste,RPGA do Rio Itapicuru,0.0,0.4,2.2,12.0,5.6,2.0,0.0,0.0,0.0,0.0,0.2,2.0,1.6,0.2,0.0,0.0,0.0,0.0,7.0,2.2,4.2,0.0,2.4,16.8,22.8,0.4,0.0,0.0,0.0,0.0,0.0,82.01
Queimadas,A436,Queimadas,Queimadas - A436,-10.984645,-39.617009,Nordeste,RPGA do Rio Itapicuru,0.0,0.0,1.2,3.8,9.0,0.0,0.0,0.0,0.0,0.0,4.4,1.6,0.0,0.0,0.0,0.0,0.0,0.0,3.8,4.0,0.0,0.8,0.0,4.6,3.8,2.8,0.0,0.0,0.0,0.0,0.0,39.8
Jacobina,A440,Jacobina,Jacobina - A440,-11.205136,-40.464979,Nordeste,RPGA do Rio Itapicuru,0.0,0.0,0.0,0.0,0.0,0.0,0.0,0.0,0.0,0.0,0.0,0.0,0.0,0.0,0.0,0.0,0.0,0.0,0.0,0.0,0.0,0.0,0.0,0.0,0.0,0.0,0.0,0.0,0.0,0.0,0.0,0.0
Serrinha,A441,Serrinha,Serrinha - A441,-11.664586,-39.022946,Nordeste,RPGA do Rio Paraguaçu,3.2,1.2,0.8,2.0,4.2,0.0,0.0,0.0,0.0,0.0,3.0,6.0,0.0,0.4,0.0,0.0,0.0,0.0,2.4,4.8,0.2,2.0,0.8,21.6,2.4,0.0,0.2,0.0,0.0,0.0,0.0,55.2
Riachão do Jacuípe_EBDA,,Riachão do Jacuípe_EBDA,Riachão do Jacuípe_EBDA,-11.801317,-39.384408,Nordeste,RPGA do Rio Paraguaçu,0.0,0.0,0.0,0.0,0.0,0.0,0.0,0.0,0.0,0.0,0.0,0.0,0.0,0.0,0.0,0.0,0.0,0.0,0.0,0.0,14.0,0.0,10.0,2.5,0.0,0.0,0.0,0.0,0.0,0.0,0.0,26.5
Santa Bárbara,EBDA,Santa Bárbara,Santa Bárbara - EBDA,-11.984657,-38.984398,Nordeste,RPGA do Recôncavo Norte,0.0,0.0,0.0,0.0,0.0,0.0,0.0,0.0,0.0,0.0,0.0,0.0,0.0,0.0,0.0,0.0,0.0,0.0,0.0,0.0,0.0,0.0,24.0,0.0,0.0,0.0,0.0,0.0,0.0,0.0,0.0,24.0
Senhor do Bonfim,A428,Senhor do Bonfim,Senhor do Bonfim - A428,-10.443072,-40.148244,Nordeste,RPGA do Rio Itapicuru,0.8,0.0,12.0,20.0,11.6,0.2,0.2,1.4,0.0,0.0,8.6,1.2,0.0,0.2,0.0,0.0,0.0,2.2,9.2,8.4,1.8,0.6,0.4,10.6,9.4,0.2,0.0,0.0,0.0,0.0,0.0,99.01
Canudos,EBDA - EBDA,Canudos,Canudos - EBDA - EBDA,-9.897945,-39.027448,Nordeste,RPGA do Rio Vaza-Barris,0.0,0.0,0.0,28.0,0.0,0.0,0.0,0.0,0.0,0.0,0.0,0.0,0.0,0.0,0.0,0.0,0.0,0.0,5.0,3.0,0.0,0.0,0.0,8.0,0.0,0.0,0.0,0.0,0.0,0.0,0.0,44.0
Caém,EBDA,Caém,Caém - EBDA,-11.091855,-40.436378,Nordeste,RPGA do Rio Itapicuru,0.75,5.25,16.25,0.25,0.5,0.0,0.75,0.0,0.0,0.0,2.75,2.5,0.0,0.0,0.0,0.0,0.0,2.5,9.25,8.75,4.75,0.5,2.25,19.0,0.75,0.25,0.0,0.0,0.0,0.0,4.25,81.25
Capela do Alto Alegre,EBDA,Capela do Alto Alegre,Capela do Alto Alegre - EBDA,-11.669369,-39.838864,Nordeste,RPGA do Rio Paraguaçu,0.0,0.0,0.0,0.0,0.0,0.0,0.0,0.0,0.0,0.0,5.0,0.0,5.0,0.0,0.0,0.0,0.0,2.0,1.0,2.0,8.0,0.0,3.0,9.0,0.0,0.0,0.0,0.0,0.0,0.0,0.0,35.0
Ipirá,PG-CL-02,Ipirá,Ipirá - PG-CL-02,-12.14986,-39.76454,Nordeste,RPGA do Rio Paraguaçu,0.0,0.75,0.25,0.0,1.75,1.0,1.0,0.25,0.25,0.0,0.75,0.0,0.5,0.25,0.0,0.0,0.0,1.25,0.0,0.25,2.5,1.5,2.75,10.75,0.25,0.0,0.0,0.0,0.0,0.0,0.0,26.0
Serrinha,RN-CL-02,Serrinha,Serrinha - RN-CL-02,-11.648333,-38.982777,Nordeste,RPGA do Recôncavo Norte,0.5,0.5,0.25,0.0,2.0,0.25,0.0,0.0,0.0,0.0,1.0,3.25,0.0,1.25,0.0,0.0,0.0,0.0,2.75,4.75,1.0,4.25,0.5,20.5,3.25,0.0,0.0,0.0,0.0,0.0,0.0,46.0
Valente,PG-PR-04,Valente,Valente - PG-PR-04,-11.40119,-39.458099,Nordeste,RPGA do Rio Paraguaçu,0.75,0.0,3.25,0.0,0.5,0.0,0.0,0.0,0.0,0.0,0.75,0.0,0.0,0.0,0.0,0.0,0.0,0.0,3.5,5.25,1.25,2.25,0.25,17.25,2.25,0.0,0.0,0.0,0.0,0.0,0.0,37.25
Tucano,EBDA,Tucano,Tucano - EBDA,-10.971302,-38.781056,Nordeste,RPGA do Rio Itapicuru,0.0,0.0,5.0,14.0,2.5,0.0,0.0,0.0,0.0,0.0,0.0,0.0,0.0,0.0,0.0,0.0,0.0,0.0,0.0,0.0,0.0,2.5,10.0,12.0,0.0,0.0,0.0,0.0,0.0,0.0,0.0,46.0
Itapeipu,IT-PR-34,Jacobina,Jacobina (Itapeipu) - IT-PR-34,-11.315629,-40.356742,Nordeste,RPGA do Rio Itapicuru,4.0,0.0,3.75,1.5,0.75,0.0,1.75,2.0,0.0,0.0,2.0,2.75,0.25,2.5,0.0,0.0,0.0,0.0,2.0,8.0,2.75,0.0,0.5,13.75,4.75,0.0,0.0,0.0,0.0,0.0,3.5,56.5
Caém,IT-PR-35,Caém,Caém - IT-PR-35,-11.093399,-40.437579,Nordeste,RPGA do Rio Itapicuru,2.75,0.5,10.5,10.5,0.75,0.0,0.0,0.75,0.0,0.0,0.0,5.25,0.0,0.0,0.0,0.0,0.0,2.5,2.0,15.25,1.75,3.75,1.75,12.0,8.75,0.25,0.0,0.0,0.0,0.0,4.0,83.0
Tombador Araújo,IT-PR-36,Jacobina,Jacobina (Tombador Araújo) - IT-PR-36,-11.168677,-40.670642,Nordeste,RPGA do Rio Itapicuru,0.5,0.0,8.75,5.5,1.5,1.0,0.0,0.5,0.0,0.0,0.75,0.75,0.75,0.0,0.0,0.0,0.0,0.0,2.0,2.5,1.5,1.25,1.25,4.5,2.5,0.0,0.0,0.0,0.0,0.0,4.25,39.75
Carrapichel,IT-PR-37,Senhor do Bonfim,Senhor do Bonfim (Carrapichel) - IT-PR-37,-10.388101,-40.220067,Nordeste,RPGA do Rio Itapicuru,0.0,0.0,7.5,7.75,11.75,0.0,0.0,0.0,0.0,0.0,0.0,0.0,0.0,0.0,0.0,0.0,0.0,0.0,0.0,0.0,0.0,0.0,0.0,0.0,0.0,0.0,0.0,0.0,0.0,0.0,0.0,27.0
Conceição do Coité,IT-PR-14,Conceição do Coité,Conceição do Coité - IT-PR-14,-11.526752,-39.313095,Nordeste,RPGA do Rio Itapicuru,0.0,0.0,0.5,1.25,0.0,0.0,0.0,0.0,0.75,0.0,0.25,0.25,0.0,0.25,0.25,0.0,0.0,0.0,0.75,0.5,0.75,0.0,0.5,9.5,1.25,0.0,0.0,0.0,0.0,0.0,0.0,16.75
Riacho da Onça,IT-PR-15,Queimadas,Queimadas (Riacho da Onça) - IT-PR-15,-11.24424,-39.790055,Nordeste,RPGA do Rio Itapicuru,0.0,0.0,0.75,1.25,0.0,0.0,0.0,0.0,0.0,0.0,4.75,0.25,0.0,0.75,0.0,0.0,0.0,0.0,0.25,1.5,0.75,0.25,0.25,7.0,0.25,0.0,0.0,0.0,0.0,0.0,0.25,18.25
Santaluz,IT-PR-17,Santaluz,Santaluz - IT-PR-17,-11.24831,-39.37563,Nordeste,RPGA do Rio Itapicuru,0.0,0.5,0.0,0.75,0.5,0.0,0.0,0.0,0.0,0.0,0.25,0.0,0.0,0.0,0.0,0.0,0.0,0.0,0.75,2.0,0.25,1.0,0.0,6.25,3.75,0.0,0.0,0.0,0.0,0.0,0.0,16.0
Fazenda Boa Vista,IT-PR-18,Uauá,Uauá (Fazenda Boa Vista) - IT-PR-18,-10.05893,-39.706158,Nordeste,RPGA do Rio Itapicuru,0.0,0.0,4.75,14.75,0.25,0.0,0.0,0.0,0.0,0.0,0.0,0.0,0.0,0.0,0.0,0.0,0.0,0.0,0.0,0.0,0.0,0.25,0.0,6.0,5.75,0.5,0.0,0.0,0.0,0.0,0.0,32.25
Cansanção,IT-PR-20,Cansanção,Cansanção - IT-PR-20,-10.702836,-39.543932,Nordeste,RPGA do Rio Itapicuru,0.25,0.0,0.0,3.0,1.0,0.0,0.0,0.0,0.0,0.0,0.5,0.0,0.0,0.0,0.0,0.0,0.0,0.25,3.5,0.75,0.25,0.0,0.75,8.5,6.25,0.0,0.0,0.0,0.0,0.0,0.0,25.0
Nordestina,IT-PR-22,Nordestina,Nordestina - IT-PR-22,-10.826728,-39.437543,Nordeste,RPGA do Rio Itapicuru,0.5,0.0,2.25,2.5,1.5,0.0,0.0,0.0,0.0,0.0,4.25,0.25,0.0,0.0,0.0,0.0,0.0,0.25,5.25,1.25,1.0,1.5,2.0,18.5,8.75,2.0,0.0,0.0,0.0,0.0,0.0,51.75
Açude Monteiro,IT-PR-23,Nordestina,Nordestina (Açude Monteiro) - IT-PR-23,-10.77645,-39.559491,Nordeste,RPGA do Rio Itapicuru,0.5,0.0,1.75,0.5,0.75,0.0,0.0,0.0,0.0,0.0,2.0,0.5,0.0,0.0,0.0,0.0,0.0,0.0,1.75,2.5,0.75,0.25,2.25,10.0,5.25,0.0,0.0,0.0,0.0,0.0,0.0,28.75
Pedra Vermelha,IT-PR-24,Monte Santo,Monte Santo (Pedra Vermelha) - IT-PR-24,-10.454497,-39.559488,Nordeste,RPGA do Rio Itapicuru,0.0,0.0,0.0,10.5,0.25,0.25,0.0,0.0,0.0,0.0,0.25,0.0,0.0,0.0,0.0,0.0,0.0,0.0,1.0,0.0,1.0,0.0,1.25,7.0,8.5,0.0,0.0,0.0,0.0,0.0,0.0,30.0
Conde,IT-PR-31,Conde,Conde - IT-PR-31,-11.813434,-37.616927,Nordeste,RPGA do Rio Itapicuru,15.25,5.5,2.75,7.25,5.5,1.0,0.25,0.0,0.0,0.0,0.0,0.0,0.75,0.0,0.5,1.0,1.0,5.0,5.5,1.5,2.25,0.75,30.75,30.0,21.25,0.0,0.0,0.0,0.0,0.0,0.0,137.75
Aribicé,IT-PR-02,Euclides da Cunha,Euclides da Cunha (Aribicé) - IT-PR-02,-10.557835,-38.793352,Nordeste,RPGA do Rio Itapicuru,0.25,0.25,1.5,9.75,3.75,2.0,0.0,0.0,0.0,0.0,3.75,0.0,2.0,0.0,0.0,0.0,0.0,0.0,0.0,0.25,1.75,0.25,2.75,9.25,24.25,0.0,0.0,0.0,0.0,0.0,0.0,61.75
Maria Preta,IT-PR-03,Tucano,Tucano (Maria Preta) - IT-PR-03,-10.835065,-38.935857,Nordeste,RPGA do Rio Itapicuru,0.0,0.0,2.0,11.25,1.25,0.75,0.0,0.0,0.0,0.0,1.0,0.0,0.0,1.75,0.0,0.0,0.0,0.0,1.0,0.25,0.25,0.25,1.25,8.25,10.5,0.0,0.0,0.0,0.0,0.0,0.0,39.75
Ribeira do Pombal,IT-PR-04,Ribeira do Pombal,Ribeira do Pombal - IT-PR-04,-10.823399,-38.545844,Nordeste,RPGA do Rio Itapicuru,7.0,0.25,0.0,4.75,5.0,0.75,0.0,0.0,0.0,0.0,0.0,1.0,0.25,0.0,0.0,0.0,0.0,0.0,3.75,3.25,3.0,0.25,3.5,4.25,25.5,0.0,0.0,0.0,0.0,0.0,0.0,62.5
BR 116 E. Cunha / Tucano,IT-PR-05,Quijingue,Quijingue (BR 116 E. Cunha / Tucano) - IT-PR-05,-10.7105,-38.9227,Nordeste,RPGA do Rio Itapicuru,0.0,0.0,0.5,6.25,0.25,0.25,0.0,0.0,0.0,0.0,0.0,0.0,0.75,0.25,0.0,0.0,0.75,0.0,1.25,0.0,0.75,0.0,1.25,15.5,10.0,0.0,0.0,0.0,0.0,0.0,0.0,37.75
Fazenda Santo Antônio,IT-PR-06,Euclides da Cunha,Euclides da Cunha (Fazenda Santo Antônio) - IT-PR-06,-10.405331,-39.045582,Nordeste,RPGA do Rio Itapicuru,0.0,0.0,0.0,16.25,2.5,0.25,0.0,0.0,0.0,0.0,0.0,0.75,1.0,0.0,0.0,0.0,0.0,0.0,3.5,1.0,3.25,0.25,2.25,9.25,11.75,0.0,0.0,0.0,0.0,0.0,0.0,52.0
Crisópolis,IT-PR-08,Crisópolis,Crisópolis - IT-PR-08,-11.510923,-38.120832,Nordeste,RPGA do Rio Itapicuru,0.0,0.75,3.5,6.5,4.25,0.5,0.25,0.0,0.0,0.0,1.75,0.5,0.0,0.0,0.0,0.0,0.0,1.0,9.25,4.25,1.0,1.5,6.5,9.75,9.5,0.0,0.0,0.0,0.0,0.0,0.0,60.75
Estação Experimental,IT-PR-10,Nova Soure,Nova Soure (Estação Experimental) - IT-PR-10,-11.3083,-38.5361,Nordeste,RPGA do Rio Itapicuru,0.0,0.25,1.0,1.25,3.25,1.0,0.0,0.0,0.0,0.0,0.5,0.5,0.0,0.0,0.0,0.0,0.0,0.0,3.75,0.25,0.5,0.25,1.0,12.25,16.5,0.0,0.0,0.0,0.0,0.0,0.0,42.25
Olindina,IT-PR-11,Olindina,Olindina - IT-PR-11,-11.343693,-38.318892,Nordeste,RPGA do Rio Itapicuru,0.0,0.25,0.5,7.75,4.75,0.5,0.0,0.0,0.0,0.0,0.25,0.0,0.0,0.0,0.0,0.0,0.0,0.0,3.5,1.25,0.75,0.25,3.0,5.0,26.0,0.0,0.0,0.0,0.0,0.0,0.0,53.75
Boa Hora,IT-PR-13,Ribeira do Amparo,Ribeira do Amparo (Boa Hora) - IT-PR-13,-10.965,-38.5234,Nordeste,RPGA do Rio Itapicuru,2.25,0.5,1.0,3.25,3.75,0.25,0.0,0.0,0.0,0.0,0.25,0.0,1.75,0.0,0.0,0.0,0.0,0.0,8.0,6.0,2.0,0.5,4.0,16.5,24.25,0.0,0.0,0.0,0.0,0.0,0.0,74.25
Tanquinho,EBDA,Tanquinho,Tanquinho - EBDA,-11.96799,-39.101068,Nordeste,RPGA do Rio Paraguaçu,0.0,0.0,0.0,0.0,0.0,0.0,0.0,8.2,0.0,0.0,0.0,0.0,8.5,8.5,0.0,0.0,0.0,7.6,0.0,5.5,0.0,0.0,14.0,0.0,0.0,0.0,0.0,0.0,0.0,0.0,0.0,52.3
Candeal,EBDA,Candeal,Candeal - EBDA,-11.80132,-39.117735,Nordeste,RPGA do Rio Paraguaçu,0.0,0.0,0.0,0.0,0.0,0.0,0.0,0.0,0.0,0.0,0.0,0.0,0.0,0.0,0.0,0.0,0.0,0.0,0.0,0.0,0.0,0.0,6.9,0.0,0.0,0.0,0.0,0.0,0.0,0.0,0.0,6.9
Ribeira do Pombal,EBDA,Ribeira do Pombal,Ribeira do Pombal - EBDA,-10.834635,-38.534383,Nordeste,RPGA do Rio Itapicuru,0.0,0.0,5.7,5.6,0.0,0.0,0.0,0.0,0.0,0.0,0.0,0.0,0.0,0.0,0.0,0.0,0.0,0.0,8.8,0.0,0.0,7.3,5.3,28.4,0.0,0.0,0.0,0.0,0.0,0.0,3.8,64.9
Cipó,EBDA,Cipó,Cipó - EBDA,-11.101305,-38.517717,Nordeste,RPGA do Rio Itapicuru,0.0,0.0,8.3,2.0,0.0,0.0,0.0,0.0,0.0,0.0,0.0,0.0,0.0,0.0,0.0,0.0,0.0,6.1,2.0,0.0,0.0,2.5,12.0,18.5,0.0,0.0,0.0,0.0,0.0,0.0,5.0,56.4
Olindina_EBDA,EBDA,Olindina_EBDA,Olindina_EBDA - EBDA,-11.351311,-38.33438,Nordeste,RPGA do Rio Itapicuru,0.0,0.0,5.5,4.5,0.0,0.0,0.0,0.0,0.0,0.0,0.0,0.0,0.0,0.0,0.0,0.0,0.0,10.0,1.5,0.0,0.0,4.0,7.5,23.5,0.0,0.0,0.0,0.0,0.0,0.0,0.0,56.5
Antas,EBDA,Antas,Antas - EBDA,-10.401293,-38.334375,Nordeste,RPGA do Rio Vaza-Barris,10.0,0.0,0.0,17.5,0.0,0.0,0.0,0.0,0.0,0.0,0.0,0.0,0.0,0.0,0.0,0.0,0.0,15.0,0.0,0.0,0.0,18.0,12.5,45.0,0.0,0.0,0.0,0.0,0.0,0.0,0.0,118.0
Paripiranga,EBDA,Paripiranga,Paripiranga - EBDA,-10.684633,-37.851032,Nordeste,RPGA do Rio Vaza-Barris,0.0,0.0,12.8,0.0,18.3,0.0,0.0,0.0,0.0,0.0,0.0,0.0,0.0,0.0,0.0,0.0,0.0,7.7,0.0,0.0,12.0,15.0,31.4,50.0,0.0,0.0,0.0,0.0,0.0,0.0,0.0,147.21
Nova Soure,EBDA,Nova Soure,Nova Soure - EBDA,-11.251311,-38.484383,Nordeste,RPGA do Rio Itapicuru,0.0,2.0,3.8,4.8,1.9,0.0,0.0,0.0,1.3,0.0,0.0,0.0,0.0,0.0,0.0,0.0,0.0,5.5,0.0,0.0,0.0,4.2,10.0,12.2,0.0,0.0,0.0,0.0,0.0,0.0,0.0,45.7
Ribeira do Amparo,EBDA,Ribeira do Amparo,Ribeira do Amparo - EBDA,-11.034638,-38.43438,Nordeste,RPGA do Rio Itapicuru,0.0,0.0,12.2,8.5,0.0,0.0,0.0,0.0,0.0,0.0,0.0,3.0,0.0,0.0,0.0,0.0,0.0,0.0,0.0,4.0,0.0,4.7,17.7,16.2,0.0,0.0,0.0,0.0,0.0,0.0,3.0,69.3
Heliópolis,EBDA,Heliópolis,Heliópolis - EBDA,-10.667965,-38.284375,Nordeste,RPGA do Rio Real,0.0,0.0,0.0,0.0,0.0,0.0,0.0,0.0,0.0,0.0,0.0,0.0,0.0,0.0,0.0,0.0,0.0,7.7,2.7,0.0,7.0,0.0,11.1,53.0,0.0,0.0,0.0,0.0,0.0,0.0,8.3,89.8
Cícero Dantas,EBDA,Cícero Dantas,Cícero Dantas - EBDA,-10.584629,-38.384377,Nordeste,RPGA do Rio Real,20.0,3.0,2.5,4.0,0.0,0.0,0.0,0.0,0.0,0.0,0.0,0.0,0.0,0.0,0.0,0.0,0.0,10.0,6.0,8.0,0.0,10.0,25.0,60.0,0.0,0.0,0.0,0.0,0.0,0.0,15.0,163.5
Sítio do Quinto,EBDA,Sítio do Quinto,Sítio do Quinto - EBDA,-10.367959,-38.201038,Nordeste,RPGA do Rio Vaza-Barris,4.5,3.5,8.8,0.0,0.0,0.0,0.0,0.0,0.0,0.0,0.0,0.0,0.0,0.0,0.0,0.0,0.0,2.0,5.7,0.0,12.7,8.5,20.2,32.3,0.0,0.0,0.0,0.0,3.5,0.0,0.0,101.7
Pedro Alexandre,EBDA,Pedro Alexandre,Pedro Alexandre - EBDA,-10.017951,-37.884362,Nordeste,RPGA do Rio Vaza-Barris,4.7,0.0,0.0,1.0,2.0,0.0,0.0,0.0,0.0,0.0,0.0,0.0,0.0,0.0,0.0,0.0,0.0,6.6,0.0,0.0,0.0,3.3,8.2,5.8,5.3,0.0,0.0,0.0,0.0,0.0,0.0,36.9
Adustina,EBDA,Adustina,Adustina - EBDA,-10.534629,-38.117704,Nordeste,RPGA do Rio Vaza-Barris,1.8,0.0,2.7,0.0,2.7,0.0,0.0,0.0,0.0,0.0,0.0,0.0,0.0,0.0,0.0,0.0,0.0,7.8,2.8,0.0,0.0,12.2,15.5,55.6,0.0,0.0,0.0,0.0,0.0,0.0,0.0,101.1
Uauá,EBDA,Uauá,Uauá - EBDA,-9.834609,-39.484404,Nordeste,RPGA do Rio Vaza-Barris,0.0,0.0,3.2,0.8,0.0,0.0,0.0,0.0,0.0,1.8,0.0,0.0,0.0,0.0,0.0,0.0,0.0,0.0,0.0,0.0,0.0,0.0,0.0,0.0,0.0,0.0,0.0,0.0,0.0,0.0,0.0,5.8
Araci,EBDA,Araci,Araci - EBDA,-11.334644,-38.951062,Nordeste,RPGA do Rio Itapicuru,0.0,2.0,0.0,3.5,0.0,0.0,0.0,0.0,0.0,0.0,5.0,3.0,0.0,0.0,0.0,0.0,0.0,1.5,2.0,1.5,0.0,13.0,0.0,0.0,0.0,0.0,0.0,0.0,0.0,0.0,0.0,31.5
Paulo Afonso,EBDA,Paulo Afonso,Paulo Afonso - EBDA,-9.401269,-38.217702,Nordeste,RPGA dos Rios Macururé e Curaçá,2.3,1.1,3.1,7.4,7.2,1.4,0.5,0.0,0.0,0.0,4.1,0.0,0.0,0.0,0.0,0.0,0.0,0.0,1.4,12.5,0.2,0.0,4.1,0.6,5.1,0.0,0.0,0.0,0.0,0.0,0.0,51.01
Santa Brígida,EBDA,Santa Brígida,Santa Brígida - EBDA,-9.734611,-38.134368,Nordeste,RPGA do Riacho do Tará,0.0,0.0,0.0,0.0,0.0,0.0,0.0,0.0,0.0,0.0,0.0,0.0,0.0,0.0,0.0,0.0,0.0,29.0,0.0,0.0,0.0,14.9,0.0,33.2,0.0,0.0,0.0,0.0,0.0,0.0,0.0,77.1
Casa Nova,EBDA,Casa Nova,Casa Nova - EBDA,-9.08459,-40.617764,Norte,RPGA do Lago de Sobradinho,0.0,0.0,0.0,0.0,9.0,0.0,0.0,0.0,0.0,0.0,0.0,0.0,0.0,0.0,0.0,0.0,0.0,0.0,0.0,0.0,0.0,0.0,0.0,0.0,0.0,0.0,0.0,0.0,0.0,0.0,0.0,9.0
Remanso,EBDA,Remanso,Remanso - EBDA,-9.601263,-42.08447,Norte,RPGA do Lago de Sobradinho,0.0,0.0,0.0,0.0,0.0,0.0,0.0,0.0,0.0,0.0,0.0,0.0,0.0,0.0,0.0,0.0,0.0,0.0,0.0,0.0,0.0,0.0,0.0,0.0,0.0,0.0,0.0,0.0,0.0,0.0,0.0,0.0
Sento Sé,EBDA,Sento Sé,Sento Sé - EBDA,-9.734599,-41.851131,Norte,RPGA do Lago de Sobradinho,0.0,0.0,0.0,11.0,0.0,0.0,0.0,0.0,0.0,0.0,0.0,0.0,0.0,0.0,0.0,0.0,0.0,0.0,0.0,0.0,0.0,0.0,0.0,0.0,0.0,0.0,0.0,0.0,0.0,0.0,0.0,11.0
Juazeiro -EBDA,,Juazeiro -EBDA,Juazeiro -EBDA,-9.41793,-40.501095,Norte,RPGA dos Rios Macururé e Curaçá,0.0,0.4,0.9,0.0,2.3,0.0,0.0,0.0,0.0,0.0,0.0,0.0,0.0,0.0,0.0,0.0,0.0,3.9,0.0,0.0,0.0,0.0,0.0,0.0,0.0,0.0,0.0,0.0,0.0,0.0,0.0,7.5
Sobradinho,EBDA,Sobradinho,Sobradinho - EBDA,-9.334594,-40.81777,Norte,RPGA do Lago de Sobradinho,0.0,0.0,4.0,7.5,6.0,0.0,0.0,0.0,0.0,0.0,0.0,0.0,0.0,0.0,0.0,0.0,2.0,0.0,0.0,0.0,0.0,0.0,0.0,0.0,0.0,0.0,0.0,0.0,0.0,0.0,0.0,19.5
Taquarendi,EBDA,Taquarendi,Taquarendi - EBDA,-10.834626,-40.701104,Norte,RPGA do Rio Salitre,0.0,0.0,0.0,0.0,0.0,0.0,0.0,0.0,0.0,0.0,0.0,0.0,0.0,0.0,0.0,0.0,5.6,0.0,0.0,0.0,0.0,0.0,10.8,0.0,0.0,0.0,0.0,0.0,0.0,0.0,0.0,16.4
Central,EBDA,Central,Central - EBDA,-11.151293,-42.11781,Norte,RPGA dos Rios Verde e Jacaré,0.0,0.0,0.0,0.0,0.0,0.0,0.0,0.0,0.0,0.0,0.0,0.0,0.0,0.0,0.0,0.0,0.0,0.0,0.0,0.0,0.0,0.0,0.0,0.0,0.0,0.0,0.0,0.0,0.0,0.0,0.0,0.0
Ibipeba,EBDA,Ibipeba,Ibipeba - EBDA,-11.634638,-42.034476,Norte,RPGA dos Rios Verde e Jacaré,0.0,0.0,0.0,0.0,0.0,0.0,0.0,0.0,0.0,0.0,0.0,0.0,0.0,0.0,0.0,0.0,0.0,0.0,0.0,0.0,0.0,0.0,0.0,0.0,0.0,0.0,0.0,0.0,0.0,0.0,0.0,0.0
Ibititá,EBDA,Ibititá,Ibititá - EBDA,-11.523108,-41.976085,Norte,RPGA dos Rios Verde e Jacaré,0.0,0.0,0.0,0.0,0.0,0.0,0.0,0.0,0.0,0.0,0.0,0.0,0.0,0.0,0.0,0.0,0.0,0.0,0.0,0.0,0.0,0.0,0.0,0.0,0.0,0.0,0.0,0.0,0.0,0.0,0.0,0.0
Irecê,EBDA,Irecê,Irecê - EBDA,-11.317966,-41.867804,Norte,RPGA dos Rios Verde e Jacaré,0.0,0.0,0.0,0.0,0.0,6.0,0.0,6.0,0.0,0.0,0.0,0.0,0.0,0.0,0.0,0.0,0.0,0.0,0.0,0.0,0.0,0.0,0.0,0.0,0.0,0.0,0.0,0.0,0.0,0.0,0.0,12.0
João Dourado,EBDA,João Dourado,João Dourado - EBDA,-11.334633,-41.651131,Norte,RPGA dos Rios Verde e Jacaré,0.0,0.0,0.0,0.0,0.0,0.0,0.0,0.0,0.0,0.0,0.0,0.0,0.0,0.0,0.0,0.0,0.0,0.0,0.0,0.0,0.0,0.0,0.0,0.0,0.0,0.0,0.0,0.0,0.0,0.0,0.0,0.0
Jussara,EBDA,Jussara,Jussara - EBDA,-11.051296,-40.96778,Norte,RPGA do Rio Salitre,0.0,0.0,0.0,0.0,0.0,0.0,2.0,0.0,0.0,0.0,0.0,0.0,0.0,0.0,0.0,0.0,0.0,0.0,0.0,0.0,0.0,0.0,0.0,0.0,0.0,0.0,0.0,0.0,0.0,0.0,0.0,2.0
Lapão,EBDA,Lapão,Lapão - EBDA,-11.367966,-41.817803,Norte,RPGA dos Rios Verde e Jacaré,0.0,0.0,2.8,0.0,0.0,0.0,2.0,0.0,0.0,0.0,0.0,0.0,0.0,0.0,0.0,0.0,0.0,0.0,0.0,0.0,0.0,0.0,0.0,0.0,0.0,0.0,0.0,0.0,0.0,0.0,0.0,4.8
Presidente Dutra,EBDA,Presidente Dutra,Presidente Dutra - EBDA,-11.284632,-41.651131,Norte,RPGA dos Rios Verde e Jacaré,0.0,0.0,0.0,0.0,0.0,0.0,0.0,0.0,0.0,0.0,0.0,0.0,0.0,0.0,0.0,0.0,0.0,0.0,0.0,0.0,0.0,0.0,0.0,0.0,0.0,0.0,0.0,0.0,0.0,0.0,0.0,0.0
Uibaí,EBDA,Uibaí,Uibaí - EBDA,-11.334632,-42.134477,Norte,RPGA dos Rios Verde e Jacaré,0.0,0.0,0.0,0.0,0.0,0.0,0.0,0.0,0.0,0.0,0.0,0.0,0.0,0.0,0.0,0.0,0.0,0.0,0.0,0.0,0.0,0.0,0.0,0.0,0.0,0.0,0.0,0.0,0.0,0.0,0.0,0.0
Irecê,83182,Irecê,Irecê - 83182,-11.3,-41.866667,Norte,RPGA dos Rios Verde e Jacaré,0.0,0.0,0.0,0.6,0.0,0.0,0.0,5.4,0.0,0.0,0.0,0.0,0.0,0.0,0.0,0.0,0.0,0.0,0.0,0.0,0.0,0.0,0.0,0.0,0.0,0.0,0.0,0.0,0.0,0.0,0.0,6.0
Remanso,82979,Remanso,Remanso - 82979,-9.633333,-42.1,Norte,RPGA do Lago de Sobradinho,0.0,0.0,0.0,3.2,0.0,0.0,0.0,0.0,0.0,0.0,0.0,0.0,0.0,0.0,0.0,0.0,0.0,0.0,0.0,0.0,0.0,0.0,0.0,0.0,0.0,0.0,0.0,0.0,0.0,0.0,0.0,3.2
Delfino,A443,Umburanas,Umburanas (Delfino) - A443,-10.45492,-41.206996,Norte,RPGA do Rio Salitre,0.0,0.0,0.2,6.4,0.0,0.0,0.0,0.6,0.0,0.0,0.0,0.0,0.0,0.0,0.0,0.0,0.0,0.0,0.0,0.8,1.4,0.4,0.8,0.8,0.2,0.0,0.0,0.0,0.0,0.0,0.2,11.8
Remanso,A423,Remanso,Remanso - A423,-9.625693,-42.077214,Norte,RPGA do Lago de Sobradinho,0.0,0.0,0.0,4.2,0.0,0.0,0.0,0.0,0.0,0.0,0.0,0.0,0.0,0.0,0.0,0.0,0.0,0.0,0.0,0.0,0.0,0.0,0.0,0.0,0.0,0.0,0.0,0.0,0.0,0.0,0.0,4.2
Irecê,A424,Irecê,Irecê - A424,-11.328998,-41.864504,Norte,RPGA dos Rios Verde e Jacaré,0.0,0.0,0.0,0.0,0.0,0.0,0.0,1.4,0.0,0.0,0.0,0.0,0.0,0.0,0.0,0.0,0.0,0.0,0.0,0.0,0.0,0.0,0.0,0.0,0.0,0.0,0.0,0.0,0.0,0.0,0.0,1.4
Juazeiro,UEP - EMBRAPA -EBDA - EBDA,Juazeiro,Juazeiro - UEP - EMBRAPA -EBDA - EBDA,-9.41293,-40.499706,Norte,RPGA dos Rios Macururé e Curaçá,0.0,0.4,0.9,0.0,2.3,0.0,0.0,0.0,0.0,0.0,0.0,0.0,0.0,0.0,0.0,0.0,0.0,3.9,0.0,0.0,0.0,0.0,0.0,0.0,0.0,0.0,0.0,0.0,0.0,0.0,0.0,7.5
Juazeiro,Est. Exp. Caraíbas - EBDA,Juazeiro,Juazeiro - Est. Exp. Caraíbas - EBDA,-9.418208,-40.510817,Norte,RPGA dos Rios Macururé e Curaçá,0.0,0.0,0.0,0.0,0.0,0.0,0.0,0.0,0.0,0.0,0.0,0.0,0.0,0.0,0.0,0.0,0.0,0.0,0.0,0.0,0.0,0.0,0.0,0.0,0.0,0.0,0.0,0.0,0.0,0.0,0.0,0.0
Ibitibá,,Ibitibá,Ibitibá,-11.551736,-41.968187,Norte,RPGA dos Rios Verde e Jacaré,0.0,0.0,0.0,0.5,0.0,0.0,0.0,0.0,0.0,0.0,0.0,0.0,0.0,0.0,0.0,0.0,0.0,0.0,0.25,0.0,0.0,0.0,0.0,0.0,0.0,0.0,0.0,0.0,0.0,0.0,0.0,0.75
Jussara,Arrecife,Jussara,Jussara - Arrecife,-11.065335,-41.974853,Norte,RPGA dos Rios Verde e Jacaré,0.0,0.0,0.0,0.0,0.0,0.0,0.0,1.0,0.0,0.0,0.0,0.0,0.0,0.0,0.0,26.0,0.0,0.0,0.0,0.0,0.0,0.0,0.0,0.0,0.0,0.0,0.0,0.0,0.0,0.0,0.0,27.0
Ibipeba,,Ibipeba,Ibipeba,-11.673962,-42.010413,Norte,RPGA dos Rios Verde e Jacaré,0.0,0.0,0.0,1.0,0.0,0.0,0.0,0.75,0.0,0.0,0.0,0.0,0.0,0.0,0.0,0.0,0.0,0.0,0.0,0.0,0.0,0.0,0.0,0.0,0.0,0.0,0.0,0.0,0.0,0.0,0.0,1.75
Central,,Central,Central,-11.135391,-42.093468,Norte,RPGA dos Rios Verde e Jacaré,0.0,0.0,0.0,0.0,0.0,0.0,0.0,2.5,0.0,0.0,0.0,0.0,0.0,0.0,0.0,0.0,0.0,0.0,0.0,0.0,0.0,0.0,0.0,0.0,0.0,0.0,0.0,0.0,0.0,0.0,0.0,2.5
Uibai,,Uibai,Uibai,-11.294784,-42.14208,Norte,RPGA dos Rios Verde e Jacaré,0.0,0.0,0.0,0.0,0.0,0.0,0.0,16.0,0.0,0.0,0.0,0.0,0.0,0.0,0.0,0.0,0.0,0.0,0.0,0.0,0.0,0.0,0.0,0.0,0.0,0.0,0.0,0.0,0.0,0.0,0.0,16.0
Irecê,VJ-CL-01,Irecê,Irecê - VJ-CL-01,-11.289166,-41.894166,Norte,RPGA dos Rios Verde e Jacaré,0.0,0.0,0.0,1.0,0.0,0.0,1.0,5.5,0.0,0.0,0.0,0.0,0.0,0.0,0.0,0.0,0.0,0.0,0.0,0.0,0.0,0.0,0.0,0.0,0.0,0.0,0.0,0.0,0.0,0.0,0.0,7.5
Santa Rosa,SM-PR-01,Jaguarari,Jaguarari (Santa Rosa) - SM-PR-01,-10.098374,-39.869774,Norte,RPGA dos Rios Macururé e Curaçá,0.25,0.0,14.75,4.25,0.25,0.75,0.0,0.0,0.0,0.0,0.0,0.0,0.0,0.0,0.0,0.0,0.0,0.0,0.5,0.0,0.25,0.25,0.25,5.75,3.75,0.25,0.0,0.0,0.0,0.0,0.0,31.25
Campo Formoso,IT-PR-27,Campo Formoso,Campo Formoso - IT-PR-27,-10.510327,-40.332849,Norte,RPGA do Rio Itapicuru,2.5,0.25,14.0,17.75,13.0,0.0,0.0,0.25,0.0,0.0,2.75,0.75,0.0,0.0,0.0,0.0,0.0,0.0,0.0,0.0,0.0,0.0,0.0,0.0,0.0,0.0,0.0,0.0,0.0,0.0,0.0,51.25
América Dourada,EBDA,América Dourada,América Dourada - EBDA,-11.384635,-41.584464,Norte,RPGA dos Rios Verde e Jacaré,0.0,0.0,0.0,0.0,0.0,0.0,0.0,0.0,0.0,0.0,0.0,0.0,0.0,0.0,0.0,0.0,0.0,0.0,0.0,0.0,0.0,0.0,0.0,0.0,0.0,0.0,0.0,0.0,0.0,0.0,0.0,0.0
Taquarendi,,Taquarendi,Taquarendi,-10.893669,-40.687028,Norte,RPGA do Rio Salitre,0.25,0.25,13.0,0.75,0.0,0.25,0.0,0.0,0.0,0.0,0.0,0.75,0.0,0.0,0.0,0.0,0.0,2.75,0.0,0.0,0.0,1.5,0.0,0.25,0.25,0.0,0.0,0.0,0.0,0.0,0.0,20.0
São Gabriel,EBDA,São Gabriel,São Gabriel - EBDA,-11.134629,-41.867803,Norte,RPGA dos Rios Verde e Jacaré,0.0,0.0,0.0,0.0,0.0,0.0,11.0,0.0,0.0,0.0,0.0,0.0,0.0,0.0,0.0,0.0,0.0,0.0,0.0,0.0,0.0,0.0,0.0,0.0,0.0,0.0,0.0,0.0,0.0,0.0,0.0,11.0
Fazenda Vila Verde,,Fazenda Vila Verde,Fazenda Vila Verde,-12.032839,-46.054434,Oeste,RPGA do Rio Grande,0.0,0.0,0.0,0.0,0.0,0.0,0.0,0.0,0.0,0.0,0.0,0.0,0.0,0.0,0.0,0.0,0.0,0.0,0.0,18.6,0.8,0.0,0.0,0.0,0.0,0.0,0.0,0.0,0.0,0.0,0.0,19.41
Fazenda Poletto,GR-PR-11,Luiz Eduardo Magalhães,Luiz Eduardo Magalhães (Fazenda Poletto) - GR-PR-11,-12.07145,-45.896097,Oeste,RPGA do Rio Grande,0.0,0.0,0.0,0.0,0.0,0.0,0.0,0.0,0.0,0.0,0.0,0.0,0.0,0.0,0.0,0.0,0.0,0.0,0.0,18.6,0.8,0.0,0.0,0.0,0.0,0.0,0.0,0.0,0.0,0.0,0.0,19.41
Fazenda Novo Horizonte,GR-PR-13,Barreiras,Barreiras (Fazenda Novo Horizonte) - GR-PR-13,-12.064787,-45.560529,Oeste,RPGA do Rio Grande,0.0,0.0,0.0,0.0,0.0,0.0,0.0,0.0,0.0,0.0,0.0,0.0,0.0,0.0,0.0,0.0,0.0,0.0,1.2,5.6,0.8,0.0,0.0,0.0,0.0,0.0,0.0,0.0,0.0,0.0,0.0,7.6
Fazenda Dona Izeta,GR-PR-15,Barreiras,Barreiras (Fazenda Dona Izeta) - GR-PR-15,-12.073399,-45.490807,Oeste,RPGA do Rio Grande,0.0,0.0,0.0,0.0,0.0,0.0,0.0,0.0,0.0,0.0,0.0,0.0,0.0,0.0,0.0,0.0,0.0,0.0,1.0,11.2,0.2,0.0,0.0,0.0,0.0,0.0,0.0,0.0,0.0,0.0,0.0,12.4
Limoeiro,GR-PR-18,Barreiras,Barreiras (Limoeiro) - GR-PR-18,-12.293403,-45.544421,Oeste,RPGA do Rio Grande,0.0,0.0,0.0,0.0,0.0,0.0,0.0,0.0,0.0,0.0,0.0,0.0,0.0,0.0,0.0,0.0,0.0,0.0,0.0,0.2,0.0,0.0,0.0,0.0,0.0,0.0,0.0,0.0,0.0,0.0,0.0,0.2
Fazenda Rio Brilhante,,Fazenda Rio Brilhante,Fazenda Rio Brilhante,-12.802859,-45.729985,Oeste,RPGA do Rio Grande,0.0,0.0,0.0,0.0,0.0,0.0,0.0,0.0,0.0,0.0,0.0,0.0,0.0,0.0,0.0,0.0,0.0,0.0,23.8,9.6,0.2,0.0,0.0,0.0,0.0,0.0,0.0,0.0,0.0,0.0,0.0,33.6
Fazenda Buritis,,Fazenda Buritis,Fazenda Buritis,-12.643967,-45.453029,Oeste,RPGA do Rio Grande,0.0,0.0,0.0,0.0,0.0,0.0,0.0,0.0,0.0,0.0,0.0,0.0,0.0,0.0,0.0,0.0,0.0,0.0,3.4,0.8,19.8,0.2,0.0,0.0,0.0,0.0,0.0,0.0,0.0,0.0,0.0,24.2
Fazenda Catarinense,,Fazenda Catarinense,Fazenda Catarinense,-13.286201,-46.028331,Oeste,RPGA do Rio Grande,0.0,0.0,0.0,0.0,0.0,0.0,0.0,0.0,0.0,0.0,0.0,0.0,0.0,0.0,0.0,0.0,0.0,0.0,0.0,23.2,0.0,0.0,0.0,0.0,0.0,0.0,0.0,0.0,0.0,0.0,0.0,23.2
Arrojolândia,,Arrojolândia,Arrojolândia,-13.741772,-45.466093,Oeste,"RPGA do Rio Corrente e Riachos do Ramalho, Serra Dourada e Brejo Velho",0.0,0.0,0.0,0.0,0.0,0.0,0.0,0.0,0.0,0.0,0.0,0.0,0.0,0.0,0.0,0.0,0.0,0.0,1.2,0.2,0.2,0.0,0.0,0.0,0.0,0.0,0.0,0.0,0.0,0.0,0.0,1.6
Rosário,CT-PR-03,Correntina,Correntina (Rosário) - CT-PR-03,-13.940105,-46.188064,Oeste,"RPGA do Rio Corrente e Riachos do Ramalho, Serra Dourada e Brejo Velho",0.0,0.0,0.0,0.0,0.0,0.0,0.0,0.0,0.0,0.0,0.0,0.0,0.0,0.0,0.0,0.0,0.0,0.0,6.6,3.2,0.8,0.0,0.0,0.0,0.0,0.0,0.0,0.0,0.0,0.0,0.0,10.61
Fazenda Nova Esperança,,Fazenda Nova Esperança,Fazenda Nova Esperança,-13.987891,-45.389148,Oeste,"RPGA do Rio Corrente e Riachos do Ramalho, Serra Dourada e Brejo Velho",0.0,0.0,0.0,0.0,0.0,0.0,0.0,0.0,0.0,0.0,0.0,0.0,0.0,0.0,0.0,0.0,0.0,0.0,0.2,0.0,0.2,0.0,0.0,0.0,0.0,0.0,0.0,0.0,0.0,0.0,0.0,0.4
Fazenda Cachoeirinha,,Fazenda Cachoeirinha,Fazenda Cachoeirinha,-14.389284,-45.840279,Oeste,"RPGA do Rio Corrente e Riachos do Ramalho, Serra Dourada e Brejo Velho",0.0,0.0,0.0,0.0,0.0,0.0,0.0,0.0,0.0,0.0,0.0,0.0,0.0,0.0,0.0,0.0,0.0,0.0,0.8,8.0,1.8,0.0,0.0,0.0,0.0,0.0,0.0,0.0,0.0,0.0,0.0,10.61
Projeto Alto Formoso,,Projeto Alto Formoso,Projeto Alto Formoso,-14.260954,-45.27887,Oeste,"RPGA do Rio Corrente e Riachos do Ramalho, Serra Dourada e Brejo Velho",0.0,0.0,0.0,0.0,0.0,0.0,0.0,0.0,0.0,0.0,0.0,0.0,0.0,0.0,0.0,0.0,0.0,0.0,0.0,0.0,0.0,0.0,0.0,0.0,0.0,0.0,0.0,0.0,0.0,0.0,0.0,0.0
Ponte do Itaguari,CA-PR-02,Cocos,Cocos (Ponte do Itaguari) - CA-PR-02,-14.234011,-44.626902,Oeste,RPGA do Rio Carinhanha,0.0,0.0,0.0,0.0,0.0,0.0,0.0,0.0,0.0,0.0,0.0,0.0,0.0,0.0,0.0,0.0,0.0,0.0,0.0,1.8,0.2,0.2,0.0,0.0,0.0,0.0,0.0,0.0,0.0,0.0,0.0,2.2
Barreiras,83236,Barreiras,Barreiras - 83236,-12.155556,-45.007778,Oeste,RPGA do Rio Grande,0.0,0.0,0.0,0.0,0.0,0.0,0.0,0.0,0.0,0.0,0.0,0.0,0.0,0.0,0.0,0.0,0.0,0.0,0.0,0.3,1.4,0.0,0.0,0.0,0.0,0.0,0.0,0.0,0.0,0.0,0.0,1.7
Correntina,83286,Correntina,Correntina - 83286,-13.332222,-44.617222,Oeste,"RPGA do Rio Corrente e Riachos do Ramalho, Serra Dourada e Brejo Velho",0.0,0.0,0.0,0.0,0.0,0.0,0.0,0.0,0.0,0.0,0.0,0.0,0.0,0.0,0.0,0.0,0.0,0.0,0.4,0.0,0.0,0.0,0.0,0.0,0.0,0.0,0.0,0.0,0.0,0.0,0.0,0.4
Form. Rio Preto,46550000,Barreiras,Barreiras (Form. Rio Preto) - 46550000,-11.154444,-45.009166,Oeste,RPGA do Rio Grande,0.0,0.0,0.0,0.0,0.0,0.0,0.0,0.0,0.0,0.0,0.0,0.0,0.0,0.0,0.0,0.0,0.0,0.0,0.0,0.2,1.2,0.0,0.0,0.0,0.0,0.0,0.0,0.0,0.0,0.0,0.0,1.4
Barreiras,A402,Barreiras,Barreiras - A402,-12.124715,-45.027049,Oeste,RPGA do Rio Grande,0.0,0.2,0.0,0.0,0.0,0.0,0.0,0.0,0.0,0.0,0.0,0.0,0.0,0.0,0.0,0.0,0.0,0.0,0.0,0.2,0.0,0.0,0.0,0.0,0.0,0.0,0.0,0.0,0.0,0.0,0.0,0.4
Luís Eduardo Magalhães,A404,Luís Eduardo Magalhães,Luís Eduardo Magalhães - A404,-12.152394,-45.829745,Oeste,RPGA do Rio Grande,0.0,0.0,0.0,0.0,0.0,0.0,0.0,0.0,0.0,0.0,0.0,0.0,0.0,0.0,0.0,0.0,0.0,0.0,2.2,1.2,0.0,0.0,0.0,0.0,0.0,0.0,0.0,0.0,0.0,0.0,0.0,3.41
São Desidério,R. Velha - GR-CL-01,São Desidério,São Desidério - R. Velha - GR-CL-01,-12.898055,-46.157222,Oeste,RPGA do Rio Grande,33.5,0.0,0.0,0.0,0.0,0.0,0.0,0.0,0.0,0.0,0.0,0.0,0.0,0.0,0.0,0.0,0.0,0.0,5.0,0.0,0.5,0.0,0.0,0.0,0.0,0.0,0.0,0.0,0.0,0.0,0.0,39.0
Fazenda Santa Rita de Cássia,,Fazenda Santa Rita de Cássia,Fazenda Santa Rita de Cássia,-11.625053,-45.645252,Oeste,RPGA do Rio Grande,0.0,0.0,0.0,0.0,0.0,0.0,0.0,0.0,0.0,0.0,0.0,0.0,0.0,0.0,0.0,0.0,0.0,0.2,0.2,22.0,0.0,0.0,0.0,0.0,0.0,0.0,0.0,0.0,0.0,0.0,0.0,22.4
Santa Inês,EBDA,Santa Inês,Santa Inês - EBDA,-13.28468,-39.834426,Recôncavo,RPGA do Recôncavo Sul,0.0,0.0,0.0,0.0,0.0,8.0,1.0,0.0,0.0,0.0,0.0,0.0,0.0,0.0,0.0,0.0,3.0,0.0,1.0,2.0,0.0,2.0,0.0,0.0,0.0,0.0,0.0,0.0,0.0,0.0,0.0,17.0
Argoim,Rafael Jambeiro,Argoim,Argoim - Rafael Jambeiro,-12.551332,-39.531083,Recôncavo,RPGA do Rio Paraguaçu,1.0,0.0,5.0,0.0,1.0,0.0,9.0,2.0,0.0,0.0,0.0,1.0,0.0,0.0,0.0,0.0,0.0,1.0,3.0,0.0,0.0,0.0,2.0,7.0,0.0,0.0,0.0,0.0,0.0,0.0,0.0,32.0
J. Zoológico,A401,Salvador,Salvador (J. Zoológico) - A401,-13.005515,-38.50576,Recôncavo,RPGA do Recôncavo Norte,34.2,0.8,10.0,1.2,9.0,3.4,32.0,0.0,1.8,1.4,8.4,16.8,13.4,14.4,4.0,22.2,0.2,23.8,84.8,18.0,2.2,2.0,8.4,4.4,0.2,0.8,0.4,0.0,1.2,1.2,2.4,323.0
Cruz das Almas,A406,Cruz das Almas,Cruz das Almas - A406,-12.675422,-39.08958,Recôncavo,RPGA do Rio Paraguaçu,11.2,1.0,3.4,0.6,6.4,9.8,17.6,0.0,5.0,0.0,13.0,3.6,0.4,0.0,1.4,0.6,0.0,10.0,10.4,4.2,5.4,11.6,4.2,9.8,0.0,0.2,0.2,0.2,0.2,0.2,1.6,132.2
Salvador,Canabrava,Salvador,Salvador - Canabrava,-12.924122,-38.429942,Recôncavo,RPGA do Recôncavo Norte,57.0,21.8,2.0,4.4,4.6,2.2,29.6,5.0,4.0,0.1,10.6,16.9,10.0,12.3,38.2,40.8,0.0,17.5,27.1,15.4,4.8,5.1,3.7,30.5,2.8,0.6,0.0,0.0,0.0,0.0,0.8,367.81
Salvador,Inema -Monte Serrat,Salvador,Salvador - Inema -Monte Serrat,-12.930789,-38.517167,Recôncavo,RPGA do Recôncavo Norte,3.3,0.9,1.4,2.6,8.7,1.4,30.7,0.0,0.0,6.7,5.7,21.0,5.2,6.4,3.3,73.5,0.0,17.0,54.5,27.1,2.2,1.0,12.2,40.3,0.0,6.4,0.5,0.0,0.0,0.0,1.1,333.1
Salvador,19 BC,Salvador,Salvador - 19 BC,-12.961069,-38.461056,Recôncavo,RPGA do Recôncavo Norte,22.2,7.1,4.7,3.3,14.4,4.3,4.4,3.2,5.5,4.0,6.6,7.1,27.7,9.1,20.1,51.1,5.5,22.3,63.7,22.2,5.5,3.2,33.7,30.9,25.2,17.1,4.1,2.5,1.1,2.0,3.3,437.1
Salvador,Base Naval/SSN,Salvador,Salvador - Base Naval/SSN,-12.796341,-38.489389,Recôncavo,RPGA do Recôncavo Norte,9.8,0.7,9.0,0.8,5.3,1.3,4.3,0.0,3.3,5.7,1.7,22.5,0.3,4.1,21.5,18.8,0.0,10.3,31.6,5.8,3.0,1.4,3.5,20.7,6.1,0.6,0.0,23.0,0.0,0.0,3.0,218.1
Salvador,Ilha Amarela,Salvador,Salvador - Ilha Amarela,-12.891344,-38.470778,Recôncavo,RPGA do Recôncavo Norte,23.3,0.8,2.0,0.4,8.6,2.3,25.2,0.0,5.7,13.5,1.8,15.2,0.0,6.1,65.7,11.0,0.0,17.7,24.3,35.1,4.4,0.8,11.9,44.6,4.1,5.7,0.0,0.0,0.0,0.0,0.6,330.8
Feira de Santana,A413,Feira de Santana,Feira de Santana - A413,-12.1962,-38.967384,Recôncavo,RPGA do Recôncavo Norte,2.0,0.4,0.2,0.0,0.0,0.8,0.0,0.0,0.8,0.0,0.2,2.2,3.0,6.0,0.0,0.0,0.0,0.0,4.4,4.6,3.4,1.2,0.4,0.8,2.8,0.2,0.2,0.0,0.2,0.0,1.0,34.81
Alagoinhas,83249,Alagoinhas,Alagoinhas - 83249,-12.148333,-38.425556,Recôncavo,RPGA do Recôncavo Norte,11.3,3.0,6.8,0.7,3.3,2.5,0.2,1.0,0.0,0.0,4.2,2.5,3.1,5.9,0.0,0.0,1.7,0.0,10.2,6.3,1.3,2.6,5.3,37.2,6.0,0.7,0.0,0.0,0.0,0.0,0.0,115.8
Camaçari,83226,Camaçari,Camaçari - 83226,-12.701619,-38.334661,Recôncavo,RPGA do Recôncavo Norte,35.0,2.2,0.6,8.0,0.2,1.0,1.6,3.6,10.6,0.0,6.6,6.4,5.0,11.4,2.2,0.4,0.0,2.4,3.2,21.2,4.6,0.0,0.8,4.6,0.2,4.0,1.8,0.0,0.0,2.4,0.4,140.41
Cruz das Almas,83222,Cruz das Almas,Cruz das Almas - 83222,-12.666667,-39.083333,Recôncavo,RPGA do Rio Paraguaçu,10.4,0.8,2.0,0.7,7.0,10.6,19.5,0.0,5.8,0.0,14.0,3.8,0.2,0.0,1.4,0.4,0.0,10.9,11.2,3.8,6.0,9.1,4.3,11.1,0.0,0.2,0.0,0.1,0.1,0.0,1.6,135.0
Feira de Santana,83221,Feira de Santana,Feira de Santana - 83221,-12.196111,-38.967222,Recôncavo,RPGA do Recôncavo Norte,2.3,0.0,0.2,0.0,0.0,0.6,0.0,0.0,1.1,0.0,0.0,0.4,2.5,5.9,0.0,0.0,0.0,0.0,5.0,4.2,3.4,1.2,0.3,7.1,0.0,0.0,0.1,0.0,0.0,0.0,0.8,35.1
Santo Estêvão,EBDA,Santo Estêvão,Santo Estêvão - EBDA,-12.434665,-39.251074,Recôncavo,RPGA do Rio Paraguaçu,0.0,0.3,1.3,0.0,0.5,7.0,1.6,2.0,0.0,11.4,6.1,1.0,0.2,0.2,0.0,0.0,2.5,12.8,0.0,4.6,3.5,5.5,16.0,0.0,0.0,0.0,0.0,0.0,0.0,0.0,0.0,76.5
Amargosa,A434,Amargosa,Amargosa - A434,-13.009468,-39.616881,Recôncavo,RPGA do Recôncavo Sul,1.0,1.0,22.8,0.6,9.6,6.2,18.6,3.4,0.0,0.0,0.0,0.0,1.4,0.0,0.0,0.2,0.0,0.2,0.2,0.4,1.0,0.2,2.2,0.6,0.2,0.0,0.2,0.0,0.2,0.2,0.0,70.41
São Sebastião do Passé,EBDA,São Sebastião do Passé,São Sebastião do Passé - EBDA,-12.518004,-38.501056,Recôncavo,RPGA do Recôncavo Norte,0.0,25.0,0.0,0.0,0.0,0.0,0.0,62.0,12.8,23.7,0.0,0.0,9.7,9.7,0.0,0.0,9.8,33.3,16.0,0.0,0.0,10.0,16.5,1.3,0.0,0.0,0.0,0.0,0.0,0.0,0.0,229.8
Feira de Santana,Fz.C. Mocó - EBDA,Feira de Santana,Feira de Santana - Fz.C. Mocó - EBDA,-12.267996,-38.967732,Recôncavo,RPGA do Rio Paraguaçu,0.0,16.0,0.0,0.0,0.0,16.0,0.0,0.0,0.0,0.0,0.0,0.0,0.0,0.0,0.0,0.0,0.0,0.0,0.0,0.0,0.0,4.5,10.0,0.0,0.0,0.0,0.0,0.0,0.0,0.0,0.0,46.5
Conceição da Feira,EBDA,Conceição da Feira,Conceição da Feira - EBDA,-12.501335,-39.001068,Recôncavo,RPGA do Recôncavo Norte,0.0,0.0,3.0,0.0,0.0,1.5,10.0,0.5,0.0,1.0,5.0,1.5,0.0,0.0,0.0,0.0,0.0,0.0,0.0,12.5,4.0,3.0,12.5,0.0,0.0,0.0,0.0,0.0,0.0,1.0,0.0,55.5
Valença,A444,Valença,Valença - A444,-13.34361,-39.12667,Recôncavo,RPGA do Recôncavo Sul,18.8,2.8,25.4,2.4,15.0,5.6,20.8,7.4,4.0,0.0,0.0,8.2,0.0,0.2,0.0,0.0,0.0,1.6,4.2,5.8,11.6,0.8,18.6,10.0,2.0,0.0,0.0,0.0,0.0,0.0,0.4,165.61
Mata de São João,ETA - Embasa,Mata de São João,Mata de São João - ETA - Embasa,-12.394946,-37.934649,Recôncavo,RPGA do Recôncavo Norte,19.5,10.2,7.0,0.0,5.9,0.2,0.0,0.6,0.0,0.0,22.4,0.7,1.9,15.9,3.5,3.0,0.0,1.5,0.9,0.2,0.0,4.8,10.9,0.0,0.0,40.0,0.0,0.0,0.0,0.0,0.0,149.11
Salvador,Itapuã (PCD-PLU),Salvador,Salvador - Itapuã (PCD-PLU),-12.932907,-38.362237,Recôncavo,RPGA do Recôncavo Norte,7.8,1.6,7.4,3.4,3.0,0.0,9.2,0.0,8.0,4.4,38.0,27.8,0.4,3.6,28.4,18.4,0.2,6.4,15.2,11.8,6.2,0.4,6.0,74.4,1.2,0.2,0.0,0.0,0.0,0.0,3.4,286.8
Candeias,EMBASA,Candeias,Candeias - EMBASA,-12.663561,-38.533,Recôncavo,RPGA do Recôncavo Norte,0.0,0.0,1.9,4.0,4.5,5.2,6.2,16.1,18.0,15.6,3.2,9.1,8.7,15.7,3.1,1.1,0.0,9.5,30.8,25.1,4.2,0.7,5.3,12.6,0.3,0.0,0.6,0.0,0.0,0.0,2.9,204.4
Dias D´Ávila,EMBASA,Dias D´Ávila,Dias D´Ávila - EMBASA,-12.620505,-38.315217,Recôncavo,RPGA do Recôncavo Norte,48.0,6.3,8.5,1.3,2.5,0.3,0.0,4.8,5.2,1.3,12.3,13.8,47.0,9.5,0.0,0.0,0.0,61.3,26.0,13.3,6.5,0.0,3.4,15.3,6.5,0.0,0.0,1.5,0.0,0.0,1.8,296.4
São Sebastião do Passé-EMBASA,,São Sebastião do Passé-EMBASA,São Sebastião do Passé-EMBASA,-12.517449,-38.492165,Recôncavo,RPGA do Recôncavo Norte,0.0,0.0,0.0,0.0,4.1,0.7,0.7,0.0,0.0,2.6,4.1,5.6,6.9,8.1,1.5,0.0,0.0,3.9,22.7,13.2,3.1,0.0,8.3,16.7,2.1,0.0,0.0,0.0,0.0,0.0,2.5,106.8
Joanes II,322,Simões Filho,Simões Filho (Joanes II) - 322,-12.674147,-38.376254,Recôncavo,RPGA do Recôncavo Norte,20.5,0.0,2.1,2.1,6.1,2.3,4.1,3.5,3.2,1.1,4.1,8.2,8.0,3.5,6.4,3.7,0.0,5.2,56.2,11.0,5.6,0.0,2.5,16.6,2.9,0.0,0.0,0.0,0.0,0.0,3.0,181.9
Santa Helena,323,Camaçari,Camaçari (Santa Helena) - 323,-12.56202,-38.1606,Recôncavo,RPGA do Recôncavo Norte,2.1,2.1,9.4,1.2,5.6,1.0,1.9,11.4,1.5,9.9,31.8,2.4,8.7,3.8,4.5,0.7,0.0,32.5,34.9,25.1,16.3,1.0,1.9,14.7,36.2,1.6,0.2,0.0,0.0,0.0,1.8,264.21
Ondina,83229,Salvador,Salvador (Ondina) - 83229,-13.005278,-38.505833,Recôncavo,RPGA do Recôncavo Norte,32.7,0.6,9.1,1.0,8.4,3.2,29.6,0.0,1.4,1.0,8.0,15.7,11.9,13.8,3.6,21.3,0.0,22.5,82.4,17.0,2.2,1.8,7.5,4.2,0.0,0.7,0.5,0.0,1.0,1.0,2.1,304.21
Salvador,Itapuã - RN-CL-01,Salvador,Salvador - Itapuã - RN-CL-01,-12.931388,-38.361111,Recôncavo,RPGA do Recôncavo Norte,13.1,4.5,2.3,1.7,7.3,1.4,8.8,2.4,5.2,3.4,21.7,26.5,9.3,10.1,10.1,40.6,1.8,11.2,30.6,14.9,3.6,2.4,1.6,44.4,10.7,5.7,2.0,0.8,0.4,0.7,4.8,304.0
Muritiba,PG-PR-12,Muritiba,Muritiba - PG-PR-12,-12.617895,-39.005591,Recôncavo,RPGA do Rio Paraguaçu,5.75,0.75,0.0,0.75,1.5,2.25,18.5,0.25,1.5,1.5,13.75,6.0,0.25,4.5,1.75,0.0,0.0,2.25,7.75,12.75,2.75,0.25,4.0,18.0,0.5,0.25,0.0,0.0,0.0,0.0,0.0,107.5
Amargosa,EBDA,Amargosa,Amargosa - EBDA,-13.034677,-39.601086,Recôncavo,RPGA do Recôncavo Sul,0.0,25.2,0.5,0.5,6.9,10.0,5.0,6.0,0.0,0.0,0.0,0.0,1.7,0.0,0.0,0.0,0.0,0.0,0.0,0.0,0.0,3.4,1.0,0.0,0.0,0.0,0.0,0.0,0.0,0.0,0.0,60.2
Coração de Maria,EBDA,Coração de Maria,Coração de Maria - EBDA,-12.234663,-38.751059,Recôncavo,RPGA do Recôncavo Norte,0.0,0.0,0.0,0.0,0.0,4.4,2.0,2.0,0.0,0.0,0.0,0.0,0.0,0.0,0.0,0.0,0.0,0.0,4.4,3.0,4.0,1.5,22.0,2.7,0.0,0.0,0.0,0.0,0.0,0.0,0.0,46.0
Irará,EBDA,Irará,Irará - EBDA,-12.034659,-38.767726,Recôncavo,RPGA do Recôncavo Norte,0.0,0.0,0.0,8.0,0.0,0.0,3.5,3.0,0.0,4.0,7.5,2.0,2.0,4.5,0.0,0.0,0.0,5.0,7.5,3.0,8.5,5.0,22.0,4.0,0.0,0.0,0.0,0.0,0.0,0.0,0.0,89.5
Santo Amaro,EBDA,Santo Amaro,Santo Amaro - EBDA,-12.551335,-38.701059,Recôncavo,RPGA do Recôncavo Norte,0.0,0.0,4.0,9.4,0.0,1.4,2.3,2.2,13.6,0.0,0.0,0.0,0.0,0.0,0.0,0.0,0.0,0.0,8.0,3.4,7.0,4.4,2.7,11.0,0.0,0.0,0.0,0.0,0.0,0.0,0.0,69.4
Conceição de Jacuípe,EBDA,Conceição de Jacuípe,Conceição de Jacuípe - EBDA,-12.317998,-38.767728,Recôncavo,RPGA do Recôncavo Norte,0.0,0.0,0.0,2.5,0.0,0.0,0.0,8.0,0.0,0.0,5.2,0.0,0.0,12.5,0.0,0.0,0.0,8.0,4.2,8.0,0.0,2.5,12.5,0.0,0.0,0.0,0.0,0.0,0.0,0.0,0.0,63.41
Itaparica,EBDA,Itaparica,Itaparica - EBDA,-12.884677,-38.684395,Recôncavo,RPGA do Recôncavo Sul,1.2,3.9,2.6,6.8,5.0,58.4,0.0,24.3,1.5,19.2,38.2,1.3,3.2,6.3,18.6,0.0,9.4,49.5,28.3,8.4,2.7,5.5,4.8,0.0,0.0,0.0,0.0,0.0,0.0,0.0,1.0,300.1
Muritiba,EBDA,Muritiba,Muritiba - EBDA,-12.618004,-38.984401,Recôncavo,RPGA do Rio Paraguaçu,2.5,0.0,0.0,0.0,0.0,22.5,5.0,2.5,0.0,2.5,22.5,0.0,7.5,7.5,2.5,0.0,2.5,12.5,17.5,7.5,0.0,5.0,25.0,2.5,0.0,0.0,0.0,0.0,0.0,0.0,0.0,147.5
Santo Antônio de Jesus,EBDA,Santo Antônio de Jesus,Santo Antônio de Jesus - EBDA,-12.96801,-39.267744,Recôncavo,RPGA do Recôncavo Sul,0.0,0.0,0.0,0.0,0.0,0.0,0.0,5.0,0.0,0.0,0.0,0.0,0.0,0.0,0.0,0.0,0.0,0.0,0.0,0.0,8.8,0.0,20.0,0.0,20.0,0.0,0.0,0.0,12.5,0.0,0.0,66.3
Ubaíra,EBDA,Ubaíra,Ubaíra - EBDA,-13.268014,-39.667756,Recôncavo,RPGA do Recôncavo Sul,0.0,13.0,2.0,2.7,2.0,26.5,2.5,0.0,0.0,0.0,0.0,0.0,0.0,0.0,0.0,0.0,0.0,0.0,1.0,0.0,1.0,1.0,0.0,0.0,0.0,0.0,0.0,0.0,0.0,0.0,0.0,51.7
Castro Alves,EBDA,Castro Alves,Castro Alves - EBDA,-12.751338,-39.434413,Recôncavo,RPGA do Rio Paraguaçu,0.0,0.0,0.0,0.0,3.0,4.0,6.0,4.0,0.0,0.0,0.0,2.5,0.0,0.0,0.0,0.0,0.0,0.0,0.0,0.0,0.0,0.0,0.0,0.0,0.0,0.0,0.0,0.0,0.0,0.0,0.0,19.5
Cruz das Almas,EBDA,Cruz das Almas,Cruz das Almas - EBDA,-12.668004,-39.101071,Recôncavo,RPGA do Rio Paraguaçu,1.0,0.0,1.0,5.0,9.5,17.5,4.0,6.5,0.0,10.0,6.5,0.0,0.0,2.0,1.0,7.5,2.0,12.0,12.0,4.0,7.0,8.0,12.5,0.0,0.0,0.0,0.0,0.0,0.0,0.0,0.0,129.0
Conceição do Almeida,EBDA,Conceição do Almeida,Conceição do Almeida - EBDA,-12.768005,-39.16774,Recôncavo,RPGA do Recôncavo Sul,6.0,0.0,12.5,0.0,7.5,2.0,21.0,2.5,20.0,0.0,5.0,11.0,2.0,0.0,7.5,4.0,0.0,27.5,22.5,3.5,8.0,2.0,15.0,17.5,1.5,2.5,0.0,0.0,0.0,0.0,0.0,201.0
Alagoinhas,EBDA,Alagoinhas,Alagoinhas - EBDA,-12.134662,-38.434384,Recôncavo,RPGA do Recôncavo Norte,11.3,3.0,6.8,0.7,3.3,2.5,0.2,1.0,0.0,0.0,4.2,2.5,3.1,5.9,0.0,0.0,1.7,0.0,10.2,6.3,1.3,2.6,5.3,37.2,6.0,0.7,0.0,0.0,0.0,0.0,0.0,115.8
Aramari,EBDA,Aramari,Aramari - EBDA,-12.08466,-38.501053,Recôncavo,RPGA do Recôncavo Norte,2.0,4.4,0.0,10.8,1.1,0.0,0.0,0.0,0.0,2.8,2.2,1.0,7.0,0.0,1.0,0.0,2.0,8.1,7.3,4.8,71.0,10.0,0.0,0.0,0.0,0.0,0.0,0.0,0.0,0.0,0.0,135.5
Catu,EBDA,Catu,Catu - EBDA,-12.351333,-38.384384,Recôncavo,RPGA do Recôncavo Norte,20.0,0.0,5.0,5.5,0.0,10.5,0.0,12.5,0.0,0.0,5.0,0.0,12.5,10.5,0.0,0.0,0.0,17.5,10.0,12.0,7.0,10.5,12.5,0.0,0.0,0.0,0.0,0.0,0.0,0.0,0.0,151.0
Salvador,CIA,Salvador,Salvador - CIA,-12.865789,-38.365219,Recôncavo,RPGA do Recôncavo Norte,8.0,5.0,0.0,0.0,5.0,0.0,11.0,4.0,4.0,4.0,45.0,45.0,0.0,11.0,0.0,30.0,0.0,4.0,10.0,13.0,0.0,4.0,6.0,42.0,4.0,0.0,0.0,0.0,0.0,0.0,10.0,265.0
Feira de Santana,EBDA,Feira de Santana,Feira de Santana - EBDA,-12.268274,-38.96801,Recôncavo,RPGA do Rio Paraguaçu,7.6,0.0,0.0,0.0,0.0,0.0,0.0,0.0,0.0,5.3,2.7,2.2,0.0,0.0,0.0,0.0,5.5,7.1,4.9,2.6,0.0,4.0,7.7,0.3,0.0,0.0,0.0,0.0,0.0,0.0,0.0,49.9
Abaeté,RN-PR-01,Salvador,Salvador (Abaeté) - RN-PR-01,-12.945407,-38.361404,Recôncavo,RPGA do Recôncavo Norte,9.2,1.3,2.2,2.1,2.4,0.0,11.0,0.0,6.0,2.2,13.4,27.3,0.3,4.2,47.1,9.0,0.0,7.4,18.0,9.4,5.2,0.0,4.1,60.2,3.0,0.0,2.0,0.0,0.0,0.0,1.2,248.2
Rio Seco,EBDA,Amélia Rodrigues,Amélia Rodrigues (Rio Seco) - EBDA,-12.400777,-38.758839,Recôncavo,RPGA do Recôncavo Norte,0.0,28.0,0.0,0.0,0.0,0.0,0.0,6.0,0.0,0.0,0.0,0.0,22.0,2.0,0.0,0.0,0.0,0.0,8.0,8.0,1.0,4.0,11.0,0.0,0.0,0.0,0.0,0.0,0.0,0.0,0.0,90.0
Espinheira,,Espinheira,Espinheira,-14.283478,-41.75792,Sudoeste,RPGA do Rio de Contas,0.0,0.0,0.0,0.0,0.0,0.0,0.0,0.0,0.0,0.0,0.0,0.0,0.0,0.0,0.0,0.0,0.0,0.0,0.0,0.0,0.0,0.0,0.0,0.0,0.0,0.0,0.0,0.0,0.0,0.0,0.0,0.0
Maracás,EBDA,Maracás,Maracás - EBDA,-13.43468,-40.434443,Sudoeste,RPGA do Rio de Contas,5.0,39.2,0.0,0.0,0.0,0.0,0.0,0.0,11.3,0.0,0.0,0.0,0.0,0.0,0.0,0.0,0.0,0.0,0.0,0.0,0.0,3.2,0.0,0.0,0.0,0.0,0.0,0.0,0.0,0.0,0.0,58.7
Anagé,EBDA,Anagé,Anagé - EBDA,-14.618034,-41.134467,Sudoeste,RPGA do Rio de Contas,0.0,0.5,0.0,0.0,0.0,0.0,0.0,0.0,0.0,0.0,0.0,0.0,0.0,0.0,0.0,0.0,0.0,0.0,0.0,6.5,0.0,0.0,0.0,0.25,0.0,0.0,0.0,0.0,0.0,0.0,0.0,7.25
Cândido Sales,EBDA,Cândido Sales,Cândido Sales - EBDA,-15.501383,-41.234473,Sudoeste,RPGA do Rio Pardo,0.0,0.6,0.0,0.0,1.4,2.1,0.0,0.0,0.0,0.0,0.0,0.0,0.0,0.0,0.0,0.0,0.0,2.1,0.0,0.0,0.0,0.0,0.0,2.5,0.0,0.0,0.0,0.0,0.0,0.0,0.0,8.7
Itiruçu,A407,Itiruçu,Itiruçu - A407,-13.52629,-40.12055,Sudoeste,RPGA do Recôncavo Sul,8.6,2.0,6.6,0.4,5.8,2.8,7.2,8.0,0.0,0.0,0.2,0.0,1.0,0.0,0.2,0.0,0.0,0.0,1.4,3.0,3.8,0.2,8.8,4.4,0.0,0.0,0.2,0.0,0.0,0.0,0.0,64.61
Vitória da Conquista,A414,Vitória da Conquista,Vitória da Conquista - A414,-14.886428,-40.80133,Sudoeste,RPGA do Rio Pardo,0.2,0.2,3.6,2.2,4.0,0.6,0.0,0.0,0.0,0.2,0.0,0.0,0.4,0.0,0.0,0.0,0.0,0.0,0.0,5.8,0.0,0.2,3.4,1.2,0.0,0.0,0.0,0.2,0.0,0.0,0.0,22.2
Condeúba,EBDA,Condeúba,Condeúba - EBDA,-14.884701,-41.984489,Sudoeste,RPGA do Rio de Contas,0.0,0.0,0.0,0.0,0.0,0.0,0.0,0.0,0.0,0.0,0.0,0.0,0.0,0.0,0.0,0.0,0.0,0.0,0.0,0.0,0.0,0.0,0.0,0.0,0.0,0.0,0.0,0.0,0.0,0.0,0.0,0.0
Brumado,EBDA,Brumado,Brumado - EBDA,-14.201356,-41.651143,Sudoeste,RPGA do Rio de Contas,0.0,0.0,0.0,0.0,0.0,0.0,0.0,0.0,0.0,0.0,0.0,0.0,0.0,0.0,0.0,0.0,0.0,0.0,0.0,8.8,0.0,0.0,0.0,0.0,0.0,0.0,0.0,0.0,0.0,0.0,0.0,8.8
Ituaçu,83292,Ituaçu,Ituaçu - 83292,-13.812778,-41.3,Sudoeste,RPGA do Rio de Contas,0.0,0.0,0.0,0.0,0.0,0.0,0.0,0.0,0.0,0.0,0.0,0.0,6.1,0.0,0.0,0.0,0.0,0.0,0.0,1.3,0.0,0.0,0.0,0.0,0.0,0.0,0.0,0.0,0.0,0.0,0.0,7.4
Vitória da Conquista,83344,Vitória da Conquista,Vitória da Conquista - 83344,-14.883333,-40.8,Sudoeste,RPGA do Rio Pardo,0.3,0.3,3.4,1.8,4.0,0.4,0.0,0.0,0.0,0.0,0.0,0.0,0.2,0.0,0.0,0.0,0.0,0.0,0.0,5.8,0.0,0.2,3.5,1.2,0.0,0.0,0.0,0.0,0.0,0.0,0.0,21.1
Jaguaquara,83295,Ituruçu,Ituruçu (Jaguaquara) - 83295,-13.527828,-40.119752,Sudoeste,RPGA do Recôncavo Sul,8.0,1.8,5.9,0.0,5.6,2.6,7.3,7.5,0.0,0.0,0.0,0.0,0.7,0.0,0.0,0.0,0.0,0.0,1.2,3.1,3.6,0.0,8.6,3.7,0.0,0.0,0.0,0.0,0.0,0.0,0.0,59.61
Brumado,A433,Brumado,Brumado - A433,-14.181886,-41.672281,Sudoeste,RPGA do Rio de Contas,0.0,0.0,0.0,0.0,0.0,0.0,0.0,0.0,0.0,0.0,0.0,0.0,0.4,0.4,0.0,0.0,0.0,0.0,0.0,4.4,0.0,0.0,0.8,0.4,0.0,0.0,0.0,0.0,0.0,0.0,0.0,6.4
Jequié,EBDA,Jequié,Jequié - EBDA,-13.851356,-40.084435,Sudoeste,RPGA do Rio de Contas,0.0,5.0,0.0,0.0,0.0,0.0,0.0,0.0,0.0,0.0,0.0,0.0,0.0,0.0,0.0,0.0,0.0,0.0,0.0,0.0,0.0,12.2,0.0,0.0,0.0,0.0,0.0,0.0,0.0,0.0,0.0,17.2
Ipiaú,A445,Ipiaú,Ipiaú - A445,-14.171304,-39.692502,Sudoeste,RPGA do Rio de Contas,3.4,1.4,18.2,0.4,12.6,0.2,12.2,12.4,0.0,1.0,0.4,0.2,3.4,0.4,0.0,2.8,0.2,0.0,0.0,9.4,0.4,0.6,7.6,8.6,0.2,0.2,0.2,0.2,0.0,0.2,0.0,96.81
Itapetinga,A446,Itapetinga,Itapetinga - A446,-15.24462,-40.22955,Sudoeste,RPGA do Rio Pardo,1.8,6.4,7.8,0.0,0.2,0.0,1.8,2.6,0.0,0.0,0.0,0.4,0.2,0.2,0.8,0.0,0.0,0.0,0.0,1.4,0.0,1.8,7.2,3.2,0.2,0.0,0.2,0.0,0.0,0.0,0.2,36.41
Itiruçu,EBDA,Itiruçu,Itiruçu - EBDA,-13.534683,-40.151101,Sudoeste,RPGA do Rio de Contas,10.0,2.5,12.5,0.0,0.0,10.0,0.0,7.5,0.0,0.0,0.0,0.0,0.0,0.0,0.0,0.0,0.0,0.0,0.0,0.0,15.0,0.0,10.0,5.0,0.0,0.0,0.0,0.0,0.0,0.0,0.0,72.5
Ipiaú,EBDA,Ipiaú,Ipiaú - EBDA,-14.134698,-39.734428,Sudoeste,RPGA do Rio de Contas,3.2,4.3,20.9,0.0,5.0,0.2,16.4,6.5,0.0,0.8,0.0,0.0,1.7,0.0,0.0,3.2,0.0,0.0,0.0,6.1,0.0,2.7,4.5,8.4,0.0,0.0,0.0,0.0,0.0,0.0,0.0,83.9
Jaguaquara,EBDA,Jaguaquara,Jaguaquara - EBDA,-13.534684,-39.984431,Sudoeste,RPGA do Recôncavo Sul,2.5,13.0,2.0,1.0,3.5,10.0,4.0,0.0,0.0,1.0,0.0,0.0,0.0,0.0,0.0,0.0,0.0,0.0,2.5,1.0,0.0,1.5,2.0,0.0,0.0,0.0,0.0,0.0,0.0,0.0,0.0,44.0
Anagé,CO-CL-01,Anagé,Anagé - CO-CL-01,-14.618055,-41.149722,Sudoeste,RPGA do Rio de Contas,0.0,0.5,0.0,0.0,0.0,0.0,0.0,0.0,0.0,0.0,0.0,0.0,0.0,0.0,0.0,0.0,0.0,0.0,0.0,6.5,0.0,0.0,0.0,0.25,0.0,0.0,0.0,0.0,0.0,0.0,0.0,7.25
Planaltino,PG-PR-03,Planaltino,Planaltino - PG-PR-03,-13.259292,-40.373976,Sudoeste,RPGA do Recôncavo Sul,0.75,0.75,2.75,0.0,0.25,3.25,4.5,1.25,0.0,0.0,0.0,0.0,0.0,0.0,0.0,0.0,0.0,0.0,0.0,0.0,0.0,0.0,0.25,0.5,0.0,0.0,0.0,0.0,0.0,0.0,0.0,14.25
Jequié,CO-CL-03,Jequié,Jequié - CO-CL-03,-13.873055,-40.071944,Sudoeste,RPGA do Rio de Contas,5.0,0.0,3.0,0.0,0.0,0.0,2.0,0.0,0.25,0.0,0.0,0.0,0.0,0.0,0.0,0.0,0.0,0.0,0.0,3.25,0.0,0.0,0.0,0.0,0.0,0.0,0.0,0.0,0.0,0.0,0.0,13.5
Vitória da Conquista,PA-CL-01,Vitória da Conquista,Vitória da Conquista - PA-CL-01,-14.886111,-40.800833,Sudoeste,RPGA do Rio Pardo,0.0,0.75,2.75,1.5,0.0,0.25,0.0,0.0,0.0,0.0,0.0,0.0,0.0,0.0,0.0,0.0,0.0,0.0,0.0,5.75,0.0,0.0,3.0,1.0,0.0,0.0,0.0,0.0,0.0,0.0,0.0,15.0
Barra do Choça,EBDA,Barra do Choça,Barra do Choça - EBDA,-14.868041,-40.651122,Sudoeste,RPGA do Rio Pardo,20.0,15.0,15.0,0.0,0.0,0.0,0.0,0.0,0.0,10.0,0.0,5.0,0.0,0.0,0.0,0.0,0.0,0.0,0.0,15.0,0.0,0.0,12.0,0.0,0.0,0.0,0.0,0.0,0.0,0.0,0.0,92.0
Fz Nanci,53880000,Camacã,Camacã (Fz Nanci) - 53880000,-15.581395,-39.521095,Sul,RPGA do Rio Pardo,1.0,11.0,13.0,5.0,3.0,0.0,0.0,0.0,0.0,0.0,0.0,0.0,1.0,0.0,0.0,0.0,0.0,0.0,0.0,0.0,2.0,0.0,6.0,6.0,0.0,0.0,0.0,0.0,0.0,0.0,0.0,48.0
Caravelas,A405,Caravelas,Caravelas - A405,-17.739413,-39.258617,Sul,"RPGA dos Rios Peruípe, Itanhém e Jucuruçu",0.0,0.0,0.0,0.0,0.0,0.0,0.0,0.0,0.0,0.0,0.0,0.0,0.0,0.0,0.0,0.0,0.0,0.0,0.0,0.0,0.0,0.0,0.0,0.0,0.0,0.0,0.0,0.0,0.0,0.0,0.0,0.0
Ilhéus,A410,Ilhéus,Ilhéus - A410,-14.658803,-39.181438,Sul,RPGA do Leste,1.6,16.2,24.4,0.4,5.0,4.0,5.4,0.2,0.0,1.0,0.0,0.0,0.0,0.2,3.0,1.4,0.0,0.0,0.0,0.0,0.0,1.2,5.2,9.8,0.0,0.2,0.0,0.8,0.2,0.2,2.0,82.4
Canavieiras,83398,Canavieiras,Canavieiras - 83398,-15.666667,-38.95,Sul,RPGA do Rio Pardo,9.6,25.0,19.7,2.4,0.0,6.9,7.6,3.7,0.0,0.0,0.0,0.0,6.0,3.5,1.2,1.9,0.0,1.3,0.0,0.0,1.4,16.3,10.6,5.1,0.0,0.0,1.9,0.0,0.0,0.0,0.0,124.1
Caravelas,83498,Caravelas,Caravelas - 83498,-17.739167,-39.258333,Sul,"RPGA dos Rios Peruípe, Itanhém e Jucuruçu",0.0,14.8,0.0,10.0,27.4,2.5,0.0,0.0,0.0,0.0,0.0,0.4,0.0,3.4,1.0,0.0,0.2,3.6,1.3,0.0,0.0,3.6,0.0,0.0,0.0,0.0,0.0,6.0,9.4,0.0,0.0,83.61
Guaratinga,83446,Guaratinga,Guaratinga - 83446,-16.58,-39.78,Sul,"RPGA dos Rios dos Frades, Buranhém e Santo Antônio",16.9,0.8,21.2,0.5,0.5,3.4,1.2,0.0,0.0,0.0,0.0,0.0,1.2,0.0,0.0,0.0,0.0,0.0,0.0,0.0,0.0,5.3,1.0,3.0,0.0,0.0,0.0,0.0,0.0,0.0,0.0,55.0
Maraú,A438,Maraú,Maraú - A438,-13.90694,-38.97222,Sul,RPGA do Recôncavo Sul,16.4,13.2,12.2,2.4,2.0,8.2,34.0,14.2,2.4,0.6,0.0,2.4,5.2,0.0,0.4,1.4,0.2,18.2,9.0,17.2,11.0,4.2,40.0,1.8,0.0,0.0,0.2,0.0,0.0,0.2,4.6,221.6
Una,A437,Una,Una - A437,-15.280215,-39.09127,Sul,RPGA do Leste,15.0,67.6,12.8,0.2,4.8,9.4,5.4,0.0,0.0,0.0,0.2,0.0,1.2,0.8,1.0,2.2,3.0,0.4,0.0,1.2,3.2,17.4,25.8,12.6,0.2,0.0,0.2,0.2,0.0,0.2,0.0,185.0
Porto Seguro,A427,Porto Seguro,Porto Seguro - A427,-16.388977,-39.182389,Sul,"RPGA dos Rios dos Frades, Buranhém e Santo Antônio",7.6,8.6,7.6,0.2,0.2,0.0,0.2,0.0,0.0,0.2,0.0,0.4,0.4,0.0,0.4,0.0,0.2,0.2,0.2,0.2,0.2,30.8,27.0,1.0,0.0,0.2,1.4,1.0,0.2,0.2,0.0,88.61
Abrolhos,A422,Caravelas,Caravelas (Abrolhos) - A422,-17.79052,-39.22789,Sul,"RPGA dos Rios Peruípe, Itanhém e Jucuruçu",1.0,20.4,5.6,0.6,0.0,0.0,0.0,0.2,0.0,0.0,0.0,2.8,0.0,0.8,0.0,0.0,0.0,0.0,7.8,0.0,4.0,6.6,0.0,0.0,0.0,1.2,0.0,4.0,0.0,0.0,0.0,55.01
Belmonte,A447,Belmonte,Belmonte - A447,-16.08487,-39.21726,Sul,"RPGA dos Rios dos Frades, Buranhém e Santo Antônio",4.4,4.4,18.0,0.0,0.0,0.0,0.2,0.4,0.2,0.0,0.0,0.0,5.6,0.0,0.0,0.0,0.0,0.0,0.4,0.0,0.4,7.8,5.6,1.0,0.2,0.0,0.2,3.2,0.2,0.0,0.0,52.2
Eunápolis,FB-CL-01,Eunápolis,Eunápolis - FB-CL-01,-16.290555,-39.579722,Sul,"RPGA dos Rios dos Frades, Buranhém e Santo Antônio",8.0,11.0,15.0,1.5,0.25,0.0,0.0,0.0,0.0,0.0,0.0,0.0,0.0,0.0,0.0,0.0,0.0,2.25,0.75,0.0,0.0,3.75,6.25,9.25,0.25,0.0,0.25,0.0,0.0,0.0,0.0,58.5
CPLAC,LE-CL-01,Ilhéus,Ilhéus (CPLAC) - LE-CL-01,-14.80184,-39.181444,Sul,RPGA do Leste,15.5,10.75,82.0,0.25,2.25,1.0,3.0,2.5,0.0,1.0,0.0,0.0,0.0,0.0,0.0,3.0,0.0,0.0,0.0,1.0,0.0,2.5,4.5,8.25,0.25,0.0,0.0,2.0,0.0,0.0,0.5,140.25
Teixeira de Freitas,PJ-CL-01,Teixeira de Freitas,Teixeira de Freitas - PJ-CL-01,-17.575555,-39.732777,Sul,"RPGA dos Rios Peruípe, Itanhém e Jucuruçu",0.5,15.25,0.0,8.5,14.0,0.25,0.0,0.0,0.0,0.0,0.0,0.0,0.0,0.0,0.0,0.0,0.0,0.0,0.0,0.0,0.0,3.25,0.75,2.0,0.0,0.0,0.0,0.0,0.0,0.0,0.0,44.5
SEDE,EBDA,Angical,Angical (SEDE) - EBDA,-12.001302,-44.684543,São Francisco,RPGA do Rio Grande,0.0,0.0,0.0,0.0,0.0,0.0,0.0,0.0,0.0,0.0,0.0,0.0,0.0,0.0,0.0,0.0,0.0,0.0,0.0,0.0,0.0,0.0,0.0,0.0,0.0,0.0,0.0,0.0,0.0,0.0,0.0,0.0
SEDE,EBDA,Baianópolis,Baianópolis (SEDE) - EBDA,-12.301308,-44.53454,São Francisco,RPGA do Rio Grande,0.0,0.0,0.0,0.0,0.0,0.0,0.0,0.0,0.0,0.0,0.0,0.0,0.0,0.0,0.0,0.0,0.0,12.0,0.0,17.0,0.0,0.0,0.0,0.0,0.0,0.0,0.0,0.0,0.0,0.0,0.0,29.0
Bom Jesus da Lapa,EBDA,Bom Jesus da Lapa,Bom Jesus da Lapa - EBDA,-13.251329,-43.417851,São Francisco,RPGA do Rio Carnaíba de Dentro,0.0,0.0,0.0,0.0,0.0,0.0,0.0,0.0,0.0,0.0,0.0,0.0,0.0,0.0,0.0,0.0,0.0,0.0,0.0,0.0,0.0,0.0,0.0,0.0,0.0,0.0,0.0,0.0,0.0,0.0,0.0,0.0
Carinhanha,EBDA,Carinhanha,Carinhanha - EBDA,-14.301347,-43.767864,São Francisco,"RPGA do Rio Corrente e Riachos do Ramalho, Serra Dourada e Brejo Velho",0.0,0.0,0.0,0.0,0.0,0.0,0.0,0.0,0.0,0.0,0.0,0.0,0.0,0.0,0.0,0.0,0.0,0.0,0.0,0.0,0.0,0.0,0.0,0.0,0.0,0.0,0.0,0.0,0.0,0.0,0.0,0.0
Ibotirama,EBDA,Ibotirama,Ibotirama - EBDA,-12.184644,-43.21784,São Francisco,RPGA dos Rios Paramirim e Santo Onofre,0.0,0.0,0.0,0.0,0.0,0.0,0.0,0.0,0.0,0.0,0.0,0.0,0.0,0.0,0.0,0.0,0.0,0.0,0.0,0.0,0.0,0.0,0.0,0.0,0.0,0.0,0.0,0.0,0.0,0.0,0.0,0.0
Paratinga,EBDA,Paratinga,Paratinga - EBDA,-12.684653,-43.184509,São Francisco,RPGA do Rio Carnaíba de Dentro,0.0,0.0,0.0,0.0,0.0,0.0,0.0,0.0,0.0,0.0,0.0,0.0,0.0,0.0,0.0,0.0,0.0,0.0,0.0,0.0,0.0,0.0,0.0,0.0,0.0,0.0,0.0,0.0,0.0,0.0,0.0,0.0
Riacho de Santana,EBDA,Riacho de Santana,Riacho de Santana - EBDA,-13.601338,-42.934507,São Francisco,RPGA do Rio Carnaíba de Dentro,0.0,0.0,0.0,0.0,0.0,0.0,0.0,0.0,0.0,0.0,0.0,0.0,0.0,0.0,0.0,0.0,0.0,0.0,0.0,0.0,0.0,0.0,0.0,0.0,0.0,0.0,0.0,0.0,0.0,0.0,0.0,0.0
Serra do Ramalho,EBDA,Serra do Ramalho,Serra do Ramalho - EBDA,-13.618002,-43.567857,São Francisco,"RPGA do Rio Corrente e Riachos do Ramalho, Serra Dourada e Brejo Velho",0.0,0.0,0.0,0.0,0.0,0.0,0.0,0.0,0.0,0.0,0.0,0.0,0.0,0.0,0.0,0.0,0.0,0.0,0.0,0.0,0.0,0.0,0.0,0.0,0.0,0.0,0.0,0.0,0.0,0.0,0.0,0.0
Santa Maria da Vitória,CT-PR-07,Santa Maria da Vitória,Santa Maria da Vitória - CT-PR-07,-13.384662,-44.184537,São Francisco,"RPGA do Rio Corrente e Riachos do Ramalho, Serra Dourada e Brejo Velho",0.0,0.0,0.0,0.0,0.0,0.0,0.0,0.0,0.0,0.0,0.0,0.0,0.0,0.0,0.0,0.0,0.0,3.0,7.0,1.8,0.0,0.0,0.0,0.0,0.0,0.0,0.0,0.0,0.0,0.0,0.0,11.8
Coribe,EBDA,Coribe,Coribe - EBDA,-13.834669,-44.451212,São Francisco,"RPGA do Rio Corrente e Riachos do Ramalho, Serra Dourada e Brejo Velho",0.0,0.0,0.0,0.0,0.0,0.0,0.0,0.0,0.0,0.0,0.0,0.0,0.0,0.0,0.0,0.0,0.0,0.0,0.0,0.0,0.0,0.0,0.0,0.0,0.0,0.0,0.0,0.0,0.0,0.0,0.0,0.0
Santana,EBDA,Santana,Santana - EBDA,-12.984656,-44.0512,São Francisco,"RPGA do Rio Corrente e Riachos do Ramalho, Serra Dourada e Brejo Velho",0.0,0.0,0.0,0.0,0.0,0.0,0.0,0.0,0.0,0.0,0.0,0.0,0.0,0.0,0.0,0.0,0.0,0.5,0.0,0.0,0.0,0.0,0.0,0.0,0.0,0.0,0.0,0.0,0.0,0.0,0.0,0.5
Iuiú,EBDA,Iuiú,Iuiú - EBDA,-14.40135,-43.551194,São Francisco,RPGA do Rio Carnaíba de Dentro,0.0,0.0,0.0,0.0,0.0,0.0,0.0,0.0,0.0,0.0,0.0,0.0,0.0,0.0,0.0,0.0,0.0,0.0,0.0,0.0,0.0,0.0,0.0,0.0,0.0,0.0,0.0,0.0,0.0,0.0,0.0,0.0
Malhada,EBDA,Malhada,Malhada - EBDA,-14.334683,-43.767866,São Francisco,RPGA do Rio Carnaíba de Dentro,0.0,0.0,0.0,0.0,0.0,0.0,0.0,0.0,0.0,0.0,0.0,0.0,0.0,0.0,0.0,0.0,0.0,0.0,0.0,0.0,0.0,0.0,0.0,0.0,0.0,0.0,0.0,0.0,0.0,0.0,0.0,0.0
Sebastião Laranjeiras,EBDA,Sebastião Laranjeiras,Sebastião Laranjeiras - EBDA,-14.534689,-42.967846,São Francisco,RPGA do Rio Verde Grande,0.0,0.0,0.0,0.0,0.0,0.0,0.0,0.0,0.0,0.0,0.0,0.0,0.0,0.0,0.0,0.0,0.0,0.0,0.0,0.0,0.0,0.0,0.0,0.0,0.0,0.0,0.0,0.0,0.0,0.0,0.0,0.0
Morpará,46360000,Morpará,Morpará - 46360000,-11.5583,-43.2825,São Francisco,RPGA dos Rios Paramirim e Santo Onofre,0.0,0.0,0.0,0.0,0.0,0.0,0.0,0.0,0.0,0.0,0.0,0.0,0.0,0.0,0.0,0.0,0.0,0.0,0.0,1.0,0.0,0.0,0.0,0.0,0.0,0.0,0.0,0.0,0.0,0.0,0.0,1.0
Barra,EBDA,Barra,Barra - EBDA,-11.084623,-43.151167,São Francisco,RPGA do Rio Grande,0.0,0.0,0.0,0.0,0.0,0.0,0.0,0.0,0.0,0.0,0.0,0.0,0.0,0.0,0.0,0.0,0.0,0.0,0.0,0.0,0.0,0.0,0.0,0.0,0.0,0.0,0.0,0.0,0.0,0.0,0.0,0.0
Gentio do Ouro,EBDA,Gentio do Ouro,Gentio do Ouro - EBDA,-11.417965,-42.501152,São Francisco,RPGA dos Rios Verde e Jacaré,3.0,0.0,0.0,0.0,0.0,0.0,10.5,0.0,0.0,0.0,0.0,0.0,0.0,0.0,0.0,0.0,0.0,0.0,0.0,0.0,0.0,0.0,0.0,0.0,0.0,0.0,0.0,0.0,0.0,0.0,0.0,13.5
Santa Rita de Cássia,A415,Santa Rita de Cássia,Santa Rita de Cássia - A415,-11.002768,-44.524965,São Francisco,RPGA do Rio Grande,0.0,0.0,0.0,1.0,0.0,0.0,0.0,0.2,0.0,0.0,0.0,0.0,0.0,0.0,0.0,0.0,0.0,0.0,0.8,0.8,0.0,0.0,0.0,0.8,0.0,0.0,0.0,0.0,0.0,0.0,0.0,3.6
Bom Jesus da Lapa,A418,Bom Jesus da Lapa,Bom Jesus da Lapa - A418,-13.251094,-43.405365,São Francisco,RPGA do Rio Carnaíba de Dentro,0.0,0.0,4.2,4.4,0.0,0.0,0.0,0.0,0.0,0.0,0.0,0.0,0.0,0.0,0.0,0.0,0.0,0.0,1.2,0.2,0.4,0.0,0.0,0.0,0.0,0.0,0.0,0.0,0.0,0.0,0.0,10.4
Xique-Xique,EBDA,Xique-Xique,Xique-Xique - EBDA,-10.817951,-42.717822,São Francisco,RPGA dos Rios Paramirim e Santo Onofre,0.0,0.0,0.0,0.0,0.0,0.0,0.0,0.0,0.0,0.0,0.0,0.0,0.0,0.0,0.0,0.0,3.0,0.0,0.0,0.0,0.0,0.0,0.0,0.0,0.0,0.0,0.0,0.0,0.0,0.0,0.0,3.0
Brotas de Macaúbas,EBDA,Brotas de Macaúbas,Brotas de Macaúbas - EBDA,-12.001308,-42.617825,São Francisco,RPGA dos Rios Paramirim e Santo Onofre,0.0,0.0,0.0,0.0,0.0,0.0,0.0,0.0,0.0,0.0,0.0,0.0,0.0,0.0,0.0,0.0,0.0,0.0,0.0,0.0,0.0,0.0,0.0,0.0,0.0,0.0,0.0,0.0,0.0,0.0,0.0,0.0
Oliveira dos Brejinhos,EBDA,Oliveira dos Brejinhos,Oliveira dos Brejinhos - EBDA,-12.301314,-42.8845,São Francisco,RPGA dos Rios Paramirim e Santo Onofre,0.0,0.0,0.0,0.0,0.0,0.0,0.0,0.0,0.0,0.0,0.0,0.0,0.0,0.0,0.0,0.0,0.0,0.0,0.0,0.0,0.0,0.0,0.0,0.0,0.0,0.0,0.0,0.0,0.0,0.0,0.0,0.0
Barra,83179,Barra,Barra - 83179,-11.083333,-43.166667,São Francisco,RPGA do Rio Grande,0.0,0.0,0.0,0.0,0.0,0.0,0.0,0.0,0.0,0.0,0.0,0.0,0.0,0.0,0.0,0.0,0.0,0.0,0.0,0.0,0.0,0.0,0.0,0.0,0.0,0.0,0.0,0.0,0.0,0.0,0.0,0.0
Caetité,EBDA,Caetité,Caetité - EBDA,-14.068017,-42.484498,São Francisco,RPGA do Rio de Contas,0.0,0.0,0.0,0.0,0.0,0.0,0.0,0.0,0.0,0.0,0.0,0.0,0.0,0.0,0.0,0.0,0.0,0.0,0.0,0.0,0.0,0.0,0.0,0.0,0.0,0.0,0.0,0.0,0.0,0.0,0.0,0.0
Bom Jesus da Lapa,83288,Bom Jesus da Lapa,Bom Jesus da Lapa - 83288,-13.251389,-43.405278,São Francisco,RPGA do Rio Carnaíba de Dentro,0.0,0.0,4.2,4.6,0.0,0.0,0.0,0.0,0.0,0.0,0.0,0.0,0.0,0.0,0.0,0.0,0.0,0.0,0.9,0.0,0.4,0.0,0.0,0.0,0.0,0.0,0.0,0.0,0.0,0.0,0.0,10.11
Urandi,EBDA,Urandi,Urandi - EBDA,-14.768029,-42.651173,São Francisco,RPGA do Rio Verde Grande,0.0,0.0,0.0,0.0,0.0,0.0,0.0,0.0,0.0,0.0,0.0,0.0,0.0,0.0,0.0,0.0,0.0,0.0,0.0,0.0,0.0,0.0,0.0,0.0,0.0,0.0,0.0,0.0,0.0,0.0,0.0,0.0
Caetité,83339,Caetité,Caetité - 83339,-14.066667,-42.483333,São Francisco,RPGA do Rio de Contas,0.0,0.0,0.0,0.0,0.0,0.0,0.0,0.0,0.0,0.0,0.0,0.0,0.0,1.2,0.0,0.0,0.0,0.0,0.0,2.4,0.0,0.0,1.8,1.4,0.0,0.0,0.0,0.0,0.0,0.0,0.0,6.8
Paramirim,EBDA,Paramirim,Paramirim - EBDA,-13.434672,-42.234489,São Francisco,RPGA dos Rios Paramirim e Santo Onofre,0.0,0.0,0.0,0.0,0.0,0.0,0.0,0.0,0.0,0.0,0.0,0.0,0.0,0.0,0.0,0.0,0.0,0.0,0.0,0.0,0.0,0.0,0.0,0.0,0.0,0.0,0.0,0.0,0.0,0.0,0.0,0.0
Guanambí,EBDA,Guanambí,Guanambí - EBDA,-14.218017,-42.76784,São Francisco,RPGA do Rio Carnaíba de Dentro,0.0,0.0,0.0,0.0,0.0,0.0,0.0,0.0,0.0,0.0,0.0,0.0,0.0,0.0,0.0,0.0,0.0,0.0,0.0,0.0,0.0,0.0,0.0,0.0,0.0,0.0,0.0,0.0,0.0,0.0,0.0,0.0
Macaúbas,EBDA,Macaúbas,Macaúbas - EBDA,-13.017996,-42.684498,São Francisco,RPGA dos Rios Paramirim e Santo Onofre,0.0,0.0,0.0,0.0,0.0,0.0,0.0,0.0,0.0,0.0,0.0,0.0,0.0,0.0,0.0,0.0,0.0,0.0,0.0,0.0,0.0,0.0,0.0,0.0,0.0,0.0,0.0,0.0,0.0,0.0,0.0,0.0
Carinhanha,83408,Carinhanha,Carinhanha - 83408,-14.283333,-43.766667,São Francisco,"RPGA do Rio Corrente e Riachos do Ramalho, Serra Dourada e Brejo Velho",0.0,0.0,0.0,0.0,0.0,0.0,0.0,0.0,0.0,0.0,0.0,0.0,0.0,0.0,0.0,0.0,0.0,0.0,0.5,0.0,0.0,0.0,0.0,0.0,0.0,0.0,0.0,0.0,0.0,0.0,0.0,0.5
Palmas do Monte Alto,EBDA,Palmas do Monte Alto,Palmas do Monte Alto - EBDA,-14.268017,-43.167849,São Francisco,RPGA do Rio Carnaíba de Dentro,0.0,0.0,0.0,0.0,0.0,0.0,0.0,0.0,0.0,0.0,0.0,0.0,0.0,0.0,0.0,0.0,0.0,0.0,0.0,0.0,0.0,0.0,0.0,0.0,0.0,0.0,0.0,0.0,0.0,0.0,0.0,0.0
Santa Rita de Cássia,83076,Santa Rita de Cássia,Santa Rita de Cássia - 83076,-11.016667,-44.516667,São Francisco,RPGA do Rio Grande,0.0,0.0,0.0,1.0,0.0,0.0,0.0,0.3,0.0,0.0,0.0,0.0,0.0,0.0,0.0,0.0,0.0,0.0,0.8,0.7,0.0,0.0,0.0,0.7,0.0,0.0,0.0,0.0,0.0,0.0,0.0,3.5
Guanambí,A426,Guanambí,Guanambí - A426,-14.208123,-42.749647,São Francisco,RPGA do Rio Carnaíba de Dentro,0.0,0.0,0.0,0.0,0.0,0.0,0.0,0.0,0.0,0.0,0.0,0.0,0.0,0.0,0.0,0.0,0.0,0.0,0.6,2.4,0.0,0.0,0.0,0.0,0.0,0.0,0.0,0.0,0.0,0.0,0.0,3.0
Buritirama,A432,Buritirama,Buritirama - A432,-10.722925,-43.651203,São Francisco,RPGA do Rio Grande,0.0,0.0,0.0,0.8,0.0,0.0,0.0,0.0,0.0,0.0,0.0,0.0,0.0,0.0,0.0,0.0,0.0,0.0,0.0,0.0,0.0,0.0,0.0,0.0,0.0,0.0,0.0,0.0,0.0,0.0,0.0,0.8
Barra,A429,Barra,Barra - A429,-11.084858,-43.138998,São Francisco,RPGA do Rio Grande,0.0,0.0,0.0,0.0,0.0,0.0,0.0,0.0,0.0,0.0,0.0,0.0,0.0,0.0,0.0,0.0,0.0,0.0,0.0,0.0,0.0,0.0,0.0,0.0,0.0,0.0,0.0,0.0,0.0,0.0,0.0,0.0
Feira da Mata,EBDA,Feira da Mata,Feira da Mata - EBDA,-14.218288,-44.268154,São Francisco,RPGA do Rio Carinhanha,0.0,0.0,0.0,0.0,0.0,0.0,0.0,0.0,0.0,0.0,0.0,0.0,0.0,0.0,0.0,0.0,0.0,0.0,0.0,0.0,0.0,0.0,0.0,0.0,0.0,0.0,0.0,0.0,0.0,0.0,0.0,0.0
Canápolis,EBDA,Canápolis,Canápolis - EBDA,-13.06799,-44.201203,São Francisco,"RPGA do Rio Corrente e Riachos do Ramalho, Serra Dourada e Brejo Velho",0.0,0.0,0.0,0.0,0.0,0.0,0.0,0.0,0.0,0.0,0.0,0.0,0.0,0.0,0.0,0.0,0.0,0.0,0.0,0.0,0.0,0.0,0.0,0.0,0.0,0.0,0.0,0.0,0.0,0.0,0.0,0.0
Brejolândia,EBDA,Brejolândia,Brejolândia - EBDA,-12.384644,-43.967861,São Francisco,"RPGA do Rio Corrente e Riachos do Ramalho, Serra Dourada e Brejo Velho",0.0,0.0,0.0,0.0,0.0,0.0,0.0,0.0,0.0,0.0,0.0,0.0,0.0,0.0,0.0,0.0,0.0,29.6,0.0,0.0,0.0,0.0,0.0,0.0,0.0,0.0,0.0,0.0,0.0,0.0,0.0,29.6
Boquira,EBDA,Boquira,Boquira - EBDA,-12.801323,-42.801167,São Francisco,RPGA dos Rios Paramirim e Santo Onofre,0.0,0.0,0.0,0.0,0.0,0.0,0.0,0.0,0.0,0.0,0.0,0.0,0.0,0.0,0.0,0.0,0.0,0.0,0.0,0.0,0.0,0.0,0.0,0.0,0.0,0.0,0.0,0.0,0.0,0.0,0.0,0.0
Botuporã,EBDA,Botuporã,Botuporã - EBDA,-13.301335,-42.551164,São Francisco,RPGA dos Rios Paramirim e Santo Onofre,0.0,0.0,0.0,0.0,0.0,0.0,0.0,0.0,0.0,0.0,0.0,0.0,0.0,0.0,0.0,0.0,0.0,0.0,0.0,0.0,0.0,0.0,0.0,0.0,0.0,0.0,0.0,0.0,0.0,0.0,0.0,0.0
Caetité,CD-CL-01,Caetité,Caetité - CD-CL-01,-13.96659,-42.60482,São Francisco,RPGA do Rio Carnaíba de Dentro,0.0,0.0,0.0,0.0,0.0,0.0,0.0,0.0,0.0,0.0,0.0,0.0,0.0,0.0,0.0,0.0,0.0,0.0,0.0,0.0,0.0,0.0,0.0,0.0,0.0,0.0,0.0,0.0,0.0,0.0,0.0,0.0
Sítio do Mato,EBDA,Sítio do Mato,Sítio do Mato - EBDA,-13.167995,-43.501185,São Francisco,"RPGA do Rio Corrente e Riachos do Ramalho, Serra Dourada e Brejo Velho",0.0,0.0,0.0,0.0,0.0,0.0,0.0,0.0,0.0,0.0,0.0,0.0,0.0,0.0,0.0,0.0,0.0,0.0,0.0,0.0,0.0,0.0,0.0,0.0,0.0,0.0,0.0,0.0,0.0,0.0,0.0,0.0
Matina,EBDA,Matina,Matina - EBDA,-13.918012,-42.834506,São Francisco,RPGA do Rio Carnaíba de Dentro,0.0,0.0,0.0,0.0,0.0,0.0,0.0,0.0,0.0,0.0,0.0,0.0,0.0,0.0,0.0,0.0,0.0,0.0,0.0,0.0,0.0,0.0,0.0,0.0,0.0,0.0,0.0,0.0,0.0,0.0,0.0,0.0
Igaporã,EBDA,Igaporã,Igaporã - EBDA,-13.701341,-42.75117,São Francisco,RPGA do Rio Carnaíba de Dentro,0.0,0.0,0.0,0.0,0.0,0.0,0.0,0.0,0.0,0.0,0.0,0.0,0.0,0.0,0.0,0.0,0.0,0.0,0.0,0.0,0.0,0.0,0.0,0.0,0.0,0.0,0.0,0.0,0.0,0.0,0.0,0.0
Serra Dourada,EBDA - EBDA,Serra Dourada,Serra Dourada - EBDA - EBDA,-12.751317,-43.951194,São Francisco,"RPGA do Rio Corrente e Riachos do Ramalho, Serra Dourada e Brejo Velho",0.0,0.0,0.0,0.0,0.0,0.0,0.0,0.0,0.0,0.0,0.0,0.0,0.0,0.0,0.0,0.0,0.0,0.0,0.0,0.0,0.0,0.0,0.0,0.0,0.0,0.0,0.0,0.0,0.0,0.0,0.0,0.0
Fazenda Piabanha,,Fazenda Piabanha,Fazenda Piabanha,-14.59737,-42.38433,São Francisco,RPGA do Rio de Contas,0.0,0.0,0.0,0.0,0.0,0.0,0.0,0.0,0.0,0.0,0.0,0.0,0.0,0.0,0.0,0.0,0.0,0.0,0.0,1.0,0.0,0.0,1.25,0.25,0.0,0.0,0.0,0.0,0.0,0.0,0.0,2.5
