nome_estacao,codigo,municipio,estacao,latitude,longitude,regiao,rpga,01_08_14,02_08_14,03_08_14,04_08_14,05_08_14,06_08_14,07_08_14,08_08_14,09_08_14,10_08_14,11_08_14,12_08_14,13_08_14,14_08_14,15_08_14,16_08_14,17_08_14,18_08_14,19_08_14,20_08_14,21_08_14,22_08_14,23_08_14,24_08_14,25_08_14,26_08_14,27_08_14,28_08_14,29_08_14,30_08_14,31_08_14,total
Itaberaba,A408,Itaberaba,Itaberaba - A408,-12.524062,-40.299714,Chapada Diamantina,RPGA do Rio Paraguaçu,1.8,0.2,0.2,0.0,0.0,0.0,0.0,0.0,0.0,0.0,0.0,0.0,0.0,0.0,1.4,1.0,1.0,0.0,0.8,0.0,0.0,0.0,0.4,0.0,0.2,0.0,0.0,0.0,0.0,0.0,0.0,7.0
Macajuba,A412,Macajuba,Macajuba - A412,-12.131694,-40.354222,Chapada Diamantina,RPGA do Rio Paraguaçu,2.8,0.2,0.0,0.0,0.0,0.0,0.0,2.0,0.0,0.8,0.2,0.0,0.0,0.0,8.8,6.8,1.4,3.0,0.8,0.6,1.4,2.0,0.0,0.6,1.4,0.0,0.0,0.0,0.0,0.0,0.0,32.81
Barra do Mendes,EBDA,Barra do Mendes,Barra do Mendes - EBDA,-11.817975,-42.06781,Chapada Diamantina,RPGA dos Rios Verde e Jacaré,0.0,0.0,0.0,0.0,0.0,0.0,0.0,0.0,0.0,0.0,0.0,0.0,0.0,0.0,0.0,0.0,0.0,0.0,0.0,0.0,0.0,0.0,0.0,0.0,0.0,0.0,0.0,0.0,0.0,0.0,0.0,0.0
Cafarnaum,EBDA,Cafarnaum,Cafarnaum - EBDA,-11.684641,-41.484462,Chapada Diamantina,RPGA dos Rios Verde e Jacaré,0.0,0.0,0.0,0.0,0.0,0.0,0.0,0.0,0.0,0.0,0.0,0.0,0.0,0.0,0.0,0.0,0.0,0.0,0.0,0.0,0.0,0.0,0.0,0.0,0.0,0.0,0.0,0.0,0.0,0.0,0.0,0.0
Canarana,EBDA,Canarana,Canarana - EBDA,-11.684641,-41.751137,Chapada Diamantina,RPGA dos Rios Verde e Jacaré,0.0,0.0,0.0,0.0,0.0,0.0,0.0,0.0,0.0,0.0,0.0,0.0,0.0,0.0,0.0,0.0,0.0,0.0,0.0,0.0,0.0,0.0,0.0,0.0,0.0,0.0,0.0,0.0,0.0,0.0,0.0,0.0
Itaberaba,83244,Itaberaba,Itaberaba - 83244,-12.516667,-40.283333,Chapada Diamantina,RPGA do Rio Paraguaçu,1.7,0.1,0.1,0.0,0.0,0.0,0.0,0.0,0.0,0.0,0.0,0.0,0.0,0.0,1.3,0.5,1.1,0.0,0.0,0.0,0.0,0.0,0.5,0.0,0.2,0.0,0.0,0.0,0.0,0.0,0.0,5.51
Lençóis,83242,Lençóis,Lençóis - 83242,-12.5575,-41.388889,Chapada Diamantina,RPGA do Rio Paraguaçu,1.8,0.0,0.0,0.0,0.0,1.0,2.6,0.0,0.0,0.0,0.0,0.0,0.0,0.1,0.4,0.0,4.1,0.1,0.5,4.5,0.0,0.1,0.4,0.0,0.0,0.0,0.0,0.0,0.0,0.0,0.0,15.6
Morro do Chapéu,83184,Morro do Chapéu,Morro do Chapéu - 83184,-11.216667,-41.216667,Chapada Diamantina,RPGA do Rio Salitre,14.7,2.4,0.2,0.0,0.0,0.0,0.1,0.3,0.0,0.2,0.2,0.0,0.0,0.0,2.2,1.4,1.4,2.8,0.1,3.4,0.7,0.2,0.0,0.0,0.0,0.3,0.0,0.0,0.0,0.0,0.1,30.7
Piatã,A430,Piatã,Piatã - A430,-13.155681,-41.774125,Chapada Diamantina,RPGA do Rio de Contas,0.8,0.2,0.0,0.0,0.0,0.0,4.6,0.0,0.0,0.0,0.0,0.0,0.0,0.0,1.2,0.0,3.2,0.2,0.0,3.4,0.6,0.4,0.0,0.0,0.0,0.0,0.0,0.0,0.0,0.0,0.0,14.6
São Félix do Coribe,EBDA,São Félix do Coribe,São Félix do Coribe - EBDA,-13.401899,-41.19585,Chapada Diamantina,RPGA do Rio Paraguaçu,0.0,0.0,0.0,0.0,0.0,0.0,0.0,0.0,0.0,0.0,0.0,0.0,0.0,0.0,0.0,0.0,0.0,0.0,0.0,0.0,0.0,0.0,0.0,0.0,0.0,0.0,0.0,0.0,0.0,0.0,0.0,0.0
Lençóis,A425,Lençóis,Lençóis - A425,-12.557854,-41.388808,Chapada Diamantina,RPGA do Rio Paraguaçu,1.8,0.2,0.0,0.0,0.0,1.0,3.0,0.0,0.0,0.0,0.0,0.0,0.0,0.0,0.6,0.0,4.2,0.2,0.4,4.8,0.0,0.4,0.2,0.0,0.0,0.0,0.0,0.0,0.0,0.0,0.0,16.8
Itaetê,,Itaetê,Itaetê,-12.991944,-40.960833,Chapada Diamantina,RPGA do Rio Paraguaçu,0.0,0.0,0.0,0.0,0.0,0.0,2.6,0.0,0.0,0.0,0.0,0.0,0.0,0.0,1.0,0.2,0.0,0.0,0.0,0.0,0.0,0.0,0.0,0.0,0.0,0.0,0.0,0.0,0.0,0.0,0.0,3.81
Lagoa Bonita,PG-PR-15,Iacú,Iacú (Lagoa Bonita) - PG-PR-15,-12.931506,-40.226468,Chapada Diamantina,RPGA do Rio Paraguaçu,0.0,0.0,0.0,0.0,0.0,0.0,0.25,0.0,0.0,0.0,0.0,0.0,0.0,0.0,0.0,0.0,0.0,0.0,0.0,0.0,0.0,0.0,0.0,0.0,0.0,0.0,0.0,0.0,0.0,0.0,0.0,0.25
João Amaro,PG-PR-16,Iaçu,Iaçu (João Amaro) - PG-PR-16,-12.800391,-40.363139,Chapada Diamantina,RPGA do Rio Paraguaçu,0.0,0.0,0.0,0.0,0.0,0.0,0.0,0.0,0.0,0.0,0.0,0.0,0.0,0.0,0.0,0.0,1.0,0.0,0.0,0.0,0.0,0.0,0.0,0.0,0.0,0.0,0.0,0.0,0.0,0.0,0.0,1.0
Boa Vista Tupim,PG-PR-17,Boa Vista Tupim,Boa Vista Tupim - PG-PR-17,-12.65622,-40.589813,Chapada Diamantina,RPGA do Rio Paraguaçu,0.25,0.0,0.0,0.0,0.0,0.0,0.5,0.0,0.0,0.0,0.0,0.0,0.0,0.0,0.0,0.5,2.0,0.0,0.25,0.0,0.0,0.5,0.0,0.0,0.0,0.0,0.0,0.0,0.0,0.0,0.0,4.0
Ruy Barbosa,PG-PR-18,Ruy Barbosa,Ruy Barbosa - PG-PR-18,-12.285653,-40.513698,Chapada Diamantina,RPGA do Rio Paraguaçu,0.5,0.0,0.75,0.5,0.0,0.25,0.0,0.0,0.25,0.0,0.0,0.0,0.0,0.0,1.0,1.0,2.25,0.0,0.25,0.5,0.0,0.0,0.75,0.0,1.25,0.0,0.25,0.0,0.25,0.0,0.5,10.25
Boninal,PG-PR-19,Boninal,Boninal - PG-PR-19,-12.67656,-41.8464,Chapada Diamantina,RPGA do Rio Paraguaçu,0.0,0.0,0.0,0.0,0.0,0.0,0.0,0.0,0.0,0.0,0.0,0.0,0.0,0.0,0.0,0.0,0.0,0.0,0.0,0.0,0.0,0.0,0.0,0.0,0.0,0.0,0.0,0.0,0.0,0.0,0.0,0.0
Afrânio Peixoto,PG-PR-21,Iraquara,Iraquara (Afrânio Peixoto) - PG-PR-21,-12.260093,-41.445952,Chapada Diamantina,RPGA do Rio Paraguaçu,10.0,2.5,0.0,0.0,0.0,0.0,2.5,0.0,0.0,0.0,0.0,0.0,0.0,0.0,0.0,0.0,10.0,0.0,0.0,2.5,0.0,0.0,0.0,0.0,0.0,0.0,0.0,0.0,0.0,0.0,0.0,27.5
Wagner,PG-PR-22,Wagner,Wagner - PG-PR-22,-12.289538,-41.161774,Chapada Diamantina,RPGA do Rio Paraguaçu,0.5,0.0,0.0,0.0,0.0,0.0,0.0,0.0,0.0,0.0,0.0,0.0,0.0,0.0,0.0,0.0,2.0,0.0,0.0,0.0,0.0,0.0,0.0,0.0,0.0,0.0,0.0,0.0,0.0,0.0,0.0,2.5
Utinga,PG-PR-23,Utinga,Utinga - PG-PR-23,-12.030089,-41.058714,Chapada Diamantina,RPGA do Rio Paraguaçu,3.0,0.25,0.0,0.0,0.0,0.0,0.0,0.0,0.0,0.0,0.0,0.0,0.0,0.0,0.0,0.25,0.25,0.0,0.0,0.25,0.0,1.0,0.5,0.0,0.0,0.0,0.0,0.0,0.0,0.0,0.0,5.5
Guiné,PG-PR-24,Mucugê,Mucugê (Guiné) - PG-PR-24,-12.771772,-41.540679,Chapada Diamantina,RPGA do Rio Paraguaçu,0.0,0.0,0.0,0.0,0.0,0.0,3.75,0.0,0.0,0.0,0.0,0.0,0.0,0.0,1.75,0.0,0.5,0.0,0.0,0.0,0.0,0.0,0.25,0.0,0.0,0.0,0.0,0.0,0.0,0.0,0.0,6.25
Cascavel,PG-PR-27,Mucugê,Mucugê (Cascavel) - PG-PR-27,-13.285954,-41.287619,Chapada Diamantina,RPGA do Rio Paraguaçu,0.5,0.5,0.0,0.0,0.0,0.75,1.25,0.0,0.0,0.0,0.0,0.0,0.0,0.0,1.0,0.0,2.0,0.0,0.25,0.0,0.0,0.0,0.0,0.0,0.0,0.0,0.0,0.0,0.0,0.0,0.0,6.25
Mulungu do Morro,EBDA,Mulungu do Morro,Mulungu do Morro - EBDA,-11.967425,-41.640023,Chapada Diamantina,RPGA do Rio Paraguaçu,0.0,0.0,0.0,0.0,0.0,0.0,0.0,0.0,0.0,0.0,0.0,0.0,0.0,0.0,0.0,0.0,0.0,0.0,0.0,0.0,0.0,0.0,0.0,0.0,0.0,0.0,0.0,0.0,0.0,0.0,0.0,0.0
Barro Alto,,Barro Alto,Barro Alto,-11.769188,-41.909464,Chapada Diamantina,RPGA dos Rios Verde e Jacaré,0.0,0.0,0.0,0.0,0.0,0.2,0.0,0.0,0.0,0.0,0.0,0.0,0.0,0.0,0.0,0.0,1.2,0.0,0.0,0.0,0.0,0.0,0.0,0.0,0.0,0.0,0.0,0.0,0.0,0.0,0.0,1.4
Canarana,,Canarana,Canarana,-11.69541,-41.78921,Chapada Diamantina,RPGA dos Rios Verde e Jacaré,0.0,0.0,0.0,0.0,0.0,0.0,0.0,0.0,0.0,0.0,0.0,0.0,0.0,0.0,0.0,0.0,0.0,0.0,0.0,0.0,0.0,0.0,0.0,0.0,0.0,0.0,0.0,0.0,0.0,0.0,0.0,0.0
Barra dos Mendes,,Barra dos Mendes,Barra dos Mendes,-11.805077,-42.05708,Chapada Diamantina,RPGA dos Rios Verde e Jacaré,0.0,0.0,0.0,0.0,0.0,0.0,0.0,0.0,0.0,0.0,0.0,0.0,0.0,0.0,0.0,0.0,2.4,0.0,0.0,0.0,0.0,0.0,0.0,0.0,0.0,0.0,0.0,0.0,0.0,0.0,0.0,2.4
América Dourada,,América Dourada,América Dourada,-11.464848,-41.442615,Chapada Diamantina,RPGA dos Rios Verde e Jacaré,0.0,0.0,0.0,0.0,0.0,0.0,0.0,0.0,0.0,0.0,0.0,0.0,0.0,0.0,0.0,0.0,0.0,0.0,0.0,0.0,0.0,0.0,0.0,0.0,0.0,0.0,0.0,0.0,0.0,0.0,0.0,0.0
Cafarnaum,,Cafarnaum,Cafarnaum,-11.676688,-41.470143,Chapada Diamantina,RPGA dos Rios Verde e Jacaré,0.0,0.2,0.0,0.0,0.0,0.0,0.0,0.0,0.0,0.0,0.0,0.0,0.0,0.0,0.0,0.2,0.0,0.0,0.0,0.0,0.0,0.0,0.0,0.0,0.0,0.0,0.0,0.0,0.0,0.0,0.0,0.4
Ibiaporã,PG-CL-01,Mundo Novo,Mundo Novo (Ibiaporã) - PG-CL-01,-12.05379,-40.83722,Chapada Diamantina,RPGA do Rio Paraguaçu,6.5,0.0,0.0,0.0,0.0,0.0,0.25,0.0,0.0,0.5,0.5,0.0,0.0,0.0,5.0,3.75,4.75,2.0,0.75,0.75,0.25,2.75,0.25,0.0,0.25,0.0,0.0,0.0,0.0,0.0,0.0,28.25
Marcionílio Souza,PG-CL-03,Marcionílio Souza,Marcionílio Souza - PG-CL-03,-13.00021,-40.537783,Chapada Diamantina,RPGA do Rio Paraguaçu,0.5,0.0,0.0,0.0,0.0,0.0,0.75,0.0,0.0,0.0,0.0,0.0,0.0,0.0,0.0,0.0,0.0,0.0,0.0,0.0,0.0,0.0,0.0,0.0,0.0,0.0,0.0,0.0,0.0,0.0,0.0,1.25
Iraquara,PG-PR-02,Iraquara,Iraquara - PG-PR-02,-12.255093,-41.61679,Chapada Diamantina,RPGA do Rio Paraguaçu,1.25,0.0,0.0,0.0,0.0,0.0,0.5,0.0,0.0,0.0,0.0,0.0,0.0,0.0,0.75,0.0,5.0,0.0,0.0,0.0,1.0,0.0,0.0,0.0,0.0,0.0,0.0,0.0,0.0,0.0,0.0,8.5
Baixa Grande,PG-PR-08,Baixa Grande,Baixa Grande - PG-PR-08,-11.908701,-40.183683,Chapada Diamantina,RPGA do Rio Paraguaçu,4.0,1.0,0.0,0.0,0.0,1.0,0.25,0.0,0.0,0.25,0.0,0.0,0.0,0.0,5.0,5.25,1.5,2.25,2.5,1.0,0.0,1.5,0.0,0.0,0.0,0.0,0.0,0.0,0.0,0.0,0.25,25.75
Tapiramutá,PG-PR-09,Tapiramutá,Tapiramutá - PG-PR-09,-11.838502,-40.791761,Chapada Diamantina,RPGA do Rio Paraguaçu,9.25,0.75,0.75,0.0,0.0,0.0,2.25,0.25,0.0,1.25,1.75,0.25,0.0,0.25,8.5,8.25,2.5,2.25,2.75,2.5,5.0,1.75,0.0,0.0,0.0,0.0,0.0,0.0,0.5,0.0,0.0,50.75
Ventura,PG-PR-10,Morro do Chapéu,Morro do Chapéu (Ventura) - PG-PR-10,-11.650911,-40.951765,Chapada Diamantina,RPGA do Rio Paraguaçu,0.75,1.0,0.0,0.0,0.0,0.0,0.0,0.0,0.0,0.0,0.0,0.0,0.0,0.0,1.5,1.0,0.25,0.5,0.0,0.5,0.0,0.25,0.0,0.0,0.0,0.0,0.0,0.0,0.0,0.0,0.0,5.75
Piatã,CO-CL-04,Piatã,Piatã - CO-CL-04,-13.164166,-41.770833,Chapada Diamantina,RPGA do Rio de Contas,0.0,0.0,0.0,0.0,0.0,0.0,2.0,0.0,0.0,0.0,0.0,0.0,0.0,0.0,0.25,0.0,2.25,0.0,0.0,1.5,0.0,0.0,0.0,0.0,0.0,0.0,0.0,0.0,0.0,0.0,0.0,6.0
Coronel João Sá,EBDA,Coronel João Sá,Coronel João Sá - EBDA,-10.284624,-37.917698,Nordeste,RPGA do Rio Vaza-Barris,0.0,0.0,0.0,1.3,0.0,0.0,0.0,0.0,0.0,0.0,0.0,0.0,1.0,0.0,0.0,6.0,0.0,3.1,0.0,0.0,0.0,0.0,0.0,0.0,0.0,0.0,0.0,0.0,0.0,0.0,0.0,11.4
Curaçá,EBDA,Curaçá,Curaçá - EBDA,-8.98459,-39.90108,Nordeste,RPGA dos Rios Macururé e Curaçá,0.0,0.0,0.0,0.0,0.0,0.0,0.0,0.0,0.0,0.0,0.0,0.0,0.0,0.0,0.0,0.0,0.0,0.0,0.0,0.0,0.0,0.0,0.0,0.0,0.0,0.0,0.0,0.0,0.0,0.0,0.0,0.0
Banzaê,EBDA,Banzaê,Banzaê - EBDA,-10.584629,-38.617717,Nordeste,RPGA do Rio Itapicuru,0.0,7.5,0.0,0.0,0.0,6.0,12.5,0.0,0.0,0.0,0.0,0.0,0.0,14.0,15.0,10.0,0.0,0.0,4.0,0.0,0.0,0.0,0.0,0.0,0.0,0.0,0.0,0.0,0.0,0.0,0.0,69.0
Paulo Afonso,A411,Paulo Afonso,Paulo Afonso - A411,-9.379325,-38.227424,Nordeste,RPGA dos Rios Macururé e Curaçá,0.2,2.2,0.0,0.2,3.6,0.4,5.0,23.2,0.4,0.2,0.2,0.0,0.0,0.0,4.2,3.0,2.2,0.6,0.0,1.2,0.2,0.0,0.0,0.0,0.0,0.0,0.0,0.0,0.0,0.0,0.0,47.01
Cipó,83192,Cipó,Cipó - 83192,-11.083333,-38.516667,Nordeste,RPGA do Rio Itapicuru,4.0,1.9,0.0,0.2,0.0,0.0,3.8,5.5,0.0,0.8,0.0,0.0,1.7,0.0,2.4,1.8,13.6,3.2,0.0,3.2,0.0,7.1,0.0,0.0,0.0,0.0,0.0,0.0,0.0,0.0,0.0,49.2
Jacobina,83186,Jacobina,Jacobina - 83186,-11.172778,-40.534167,Nordeste,RPGA do Rio Itapicuru,4.4,3.4,0.0,0.0,0.0,0.0,0.0,0.5,0.1,0.0,0.0,0.0,0.0,0.0,6.4,4.1,6.0,5.7,0.6,0.0,0.0,1.6,0.0,0.0,0.0,0.0,0.0,0.0,0.0,0.0,0.0,32.8
Monte Santo,83090,Monte Santo,Monte Santo - 83090,-10.4425,-39.331111,Nordeste,RPGA do Rio Itapicuru,1.0,1.0,0.0,0.0,0.0,0.0,3.0,3.1,0.0,0.0,0.0,0.0,0.0,0.0,2.4,2.1,9.6,4.9,0.0,0.5,0.0,0.0,0.0,0.0,0.0,0.0,0.0,0.0,0.0,0.0,0.0,27.6
Paulo Afonso,82986,Paulo Afonso,Paulo Afonso - 82986,-9.379325,-38.227424,Nordeste,RPGA dos Rios Macururé e Curaçá,0.1,1.6,0.0,0.0,3.2,0.0,4.6,21.0,0.0,0.1,0.0,0.0,0.0,0.0,3.7,2.4,1.8,0.3,0.0,0.7,0.1,0.0,0.0,0.0,0.0,0.0,0.0,0.0,0.0,0.0,0.0,39.6
Serrinha,83190,Serrinha,Serrinha - 83190,-11.633333,-38.966667,Nordeste,RPGA do Recôncavo Norte,7.4,1.8,7.1,0.0,0.0,0.0,7.4,1.6,0.1,0.0,0.0,0.0,0.0,0.0,9.2,3.9,18.3,10.0,0.0,1.9,0.0,0.7,0.0,0.0,0.0,0.0,0.5,0.0,0.0,0.0,0.0,69.91
Conde,A431,Conde,Conde - A431,-12.03622,-37.68322,Nordeste,RPGA do Rio Itapicuru,9.4,9.8,1.2,0.0,0.0,1.6,17.4,3.6,0.6,0.0,0.2,0.0,7.0,4.6,1.0,7.8,17.8,0.2,1.8,0.2,0.6,3.6,2.2,0.0,0.0,0.0,0.6,0.0,0.0,0.0,0.2,91.4
Euclides da Cunha,A442,Euclides da Cunha,Euclides da Cunha - A442,-10.537233,-38.996605,Nordeste,RPGA do Rio Itapicuru,1.2,1.4,0.0,0.0,0.0,0.0,12.4,20.2,0.4,0.2,0.0,0.2,0.0,0.0,5.0,5.6,17.8,1.6,0.4,2.6,0.0,0.0,0.2,0.2,0.2,0.0,0.0,0.0,0.0,0.0,0.0,69.61
Queimadas,A436,Queimadas,Queimadas - A436,-10.984645,-39.617009,Nordeste,RPGA do Rio Itapicuru,5.0,0.6,0.0,0.0,0.0,0.0,0.2,0.8,0.2,0.0,0.0,0.0,0.0,0.0,0.8,4.0,4.2,6.6,0.0,0.6,0.0,0.0,0.0,0.0,0.0,0.0,0.0,0.0,0.0,0.0,0.0,23.0
Jacobina,A440,Jacobina,Jacobina - A440,-11.205136,-40.464979,Nordeste,RPGA do Rio Itapicuru,0.0,0.0,0.0,0.0,0.0,0.0,0.0,0.0,0.0,0.0,0.0,0.0,0.0,0.0,0.0,0.0,0.0,0.0,0.0,0.0,0.0,0.0,0.0,0.0,0.0,0.0,0.0,0.0,0.0,0.0,0.2,0.2
Serrinha,A441,Serrinha,Serrinha - A441,-11.664586,-39.022946,Nordeste,RPGA do Rio Paraguaçu,7.8,0.6,0.2,0.0,0.0,0.0,9.4,2.4,0.0,0.0,0.2,0.0,0.0,0.0,10.4,4.8,15.2,12.0,0.0,1.0,0.2,1.2,0.2,0.0,0.2,0.0,0.2,0.0,0.0,0.2,0.0,66.21
Riachão do Jacuípe_EBDA,,Riachão do Jacuípe_EBDA,Riachão do Jacuípe_EBDA,-11.801317,-39.384408,Nordeste,RPGA do Rio Paraguaçu,1.9,2.8,0.0,0.0,0.0,0.0,0.0,2.8,0.8,0.0,0.0,0.0,0.0,6.4,6.0,4.0,2.0,0.0,0.4,0.8,0.0,0.0,0.0,0.0,0.0,0.0,0.0,0.0,0.7,0.6,0.0,29.2
Santa Bárbara,EBDA,Santa Bárbara,Santa Bárbara - EBDA,-11.984657,-38.984398,Nordeste,RPGA do Recôncavo Norte,0.0,0.0,0.0,0.0,0.0,0.0,0.0,0.0,0.0,0.0,0.0,0.0,0.0,0.0,0.0,0.0,0.0,0.0,0.0,0.0,0.0,0.0,0.0,0.0,0.0,0.0,0.0,0.0,0.0,0.0,0.0,0.0
Senhor do Bonfim,A428,Senhor do Bonfim,Senhor do Bonfim - A428,-10.443072,-40.148244,Nordeste,RPGA do Rio Itapicuru,0.0,0.0,0.0,0.0,0.0,0.0,0.0,0.0,0.0,0.2,0.0,0.0,0.0,0.0,0.0,0.0,0.0,0.0,0.0,0.0,0.0,0.0,0.0,0.0,0.0,0.0,0.0,0.0,0.0,0.0,0.0,0.2
Canudos,EBDA - EBDA,Canudos,Canudos - EBDA - EBDA,-9.897945,-39.027448,Nordeste,RPGA do Rio Vaza-Barris,0.0,0.0,0.0,0.0,0.0,0.0,0.0,0.0,0.0,0.0,0.0,0.0,0.0,0.0,0.0,0.0,0.0,0.0,0.0,0.0,0.0,0.0,0.0,0.0,0.0,0.0,0.0,0.0,0.0,0.0,0.0,0.0
Pedras Altas,50430000,Capim Grosso,Capim Grosso (Pedras Altas) - 50430000,-11.18288,-40.04725,Nordeste,RPGA do Rio Itapicuru,2.4,0.4,0.0,0.0,0.0,0.0,0.2,0.2,0.0,0.0,0.0,0.0,0.0,0.0,2.8,0.4,3.0,9.6,0.4,0.0,0.0,0.0,0.0,0.0,0.0,0.0,0.0,0.0,0.0,0.0,0.0,19.4
Ponto Novo,50380000,Ponto Novo,Ponto Novo - 50380000,-10.845,-40.1128,Nordeste,RPGA do Rio Itapicuru,8.2,0.4,0.2,0.0,0.2,0.0,0.4,0.2,0.0,0.0,0.0,0.0,0.0,0.0,0.8,1.8,4.0,6.3,0.0,0.0,0.0,0.0,0.0,0.0,0.0,0.0,0.0,0.0,0.0,10.4,0.0,32.9
Acajutiba,EBDA,Acajutiba,Acajutiba - EBDA,-11.663542,-38.01826,Nordeste,RPGA do Rio Itapicuru,0.0,20.0,3.5,0.0,0.0,6.5,0.0,0.0,0.0,0.0,0.0,0.0,0.0,0.0,0.0,0.0,0.0,0.0,0.0,0.0,0.0,0.0,0.0,0.0,0.0,0.0,0.0,0.0,0.0,0.0,0.0,30.0
Ipirá,PG-CL-02,Ipirá,Ipirá - PG-CL-02,-12.14986,-39.76454,Nordeste,RPGA do Rio Paraguaçu,2.75,0.0,0.0,0.0,0.0,0.0,1.25,0.0,0.0,2.25,0.0,0.0,0.0,0.0,5.5,6.25,6.25,3.5,0.25,1.75,0.75,1.5,0.0,0.25,0.0,0.0,0.0,0.0,0.0,0.0,0.0,32.25
Serrinha,RN-CL-02,Serrinha,Serrinha - RN-CL-02,-11.648333,-38.982777,Nordeste,RPGA do Recôncavo Norte,12.5,1.0,1.25,1.25,1.75,1.0,13.0,1.1,0.7,0.0,0.3,0.2,0.4,1.4,3.4,2.1,2.2,0.9,1.0,0.4,3.1,1.0,0.1,1.9,0.2,2.0,0.75,1.25,2.0,0.75,0.0,58.91
Valente,PG-PR-04,Valente,Valente - PG-PR-04,-11.40119,-39.458099,Nordeste,RPGA do Rio Paraguaçu,0.25,0.0,0.0,0.0,0.0,0.0,1.75,1.25,0.0,0.0,0.0,0.0,0.0,0.0,1.25,1.0,11.0,4.25,0.0,0.25,0.25,0.5,0.0,0.0,0.0,0.0,0.0,0.0,0.0,0.0,0.0,21.75
Pintadas,PG-PR-05,Pintadas,Pintadas - PG-PR-05,-11.837311,-39.969786,Nordeste,RPGA do Rio Paraguaçu,4.25,0.25,0.0,0.0,0.0,0.0,0.0,0.0,0.0,0.25,0.25,0.0,0.0,0.0,4.75,6.25,1.25,1.75,1.0,0.25,3.75,0.25,0.0,0.0,0.0,0.0,0.0,0.0,0.0,0.0,0.0,24.25
Pé de Serra,PG-PR-06,Pé de Serra,Pé de Serra - PG-PR-06,-11.833423,-39.623663,Nordeste,RPGA do Rio Paraguaçu,1.25,2.0,0.0,0.0,0.0,0.0,1.25,0.5,0.0,0.5,0.0,0.0,0.0,0.0,1.5,3.5,1.5,3.75,0.0,0.0,0.0,0.75,0.0,0.0,0.0,0.0,0.0,0.0,0.0,0.0,0.5,17.0
Centro,293010501A,Senhor do Bonfim,Senhor do Bonfim (Centro) - 293010501A,-10.464,-40.19,Nordeste,RPGA do Rio Itapicuru,9.5,2.6,0.2,0.0,0.0,0.0,1.8,1.0,0.0,0.0,0.0,0.0,0.0,0.2,0.6,2.2,3.0,4.2,0.6,0.4,0.0,0.4,0.0,0.0,0.0,0.0,0.0,0.0,0.0,0.0,0.0,26.7
Tucano,EBDA,Tucano,Tucano - EBDA,-10.971302,-38.781056,Nordeste,RPGA do Rio Itapicuru,2.5,0.0,0.0,0.0,0.0,7.5,10.0,0.0,0.0,0.0,0.0,0.0,0.0,0.0,4.0,9.0,0.0,0.0,1.5,0.0,0.0,0.0,0.0,0.0,0.0,0.0,0.0,0.0,0.0,0.0,0.0,34.5
Itapeipu,IT-PR-34,Jacobina,Jacobina (Itapeipu) - IT-PR-34,-11.315629,-40.356742,Nordeste,RPGA do Rio Itapicuru,4.25,1.25,0.0,0.0,0.0,0.0,0.25,0.0,0.25,0.0,0.0,0.0,0.0,0.0,2.5,4.25,1.75,4.0,1.25,0.0,1.0,0.0,0.0,0.0,0.0,0.0,0.0,0.0,0.0,0.0,0.25,21.0
Caém,IT-PR-35,Caém,Caém - IT-PR-35,-11.093399,-40.437579,Nordeste,RPGA do Rio Itapicuru,2.5,6.5,0.25,0.0,0.0,0.0,0.0,0.0,0.0,0.0,0.0,0.0,0.0,0.0,8.25,2.25,12.5,10.5,0.75,0.0,0.25,0.75,0.0,0.0,0.0,0.0,0.0,0.0,0.0,0.0,0.0,44.5
Tombador Araújo,IT-PR-36,Jacobina,Jacobina (Tombador Araújo) - IT-PR-36,-11.168677,-40.670642,Nordeste,RPGA do Rio Itapicuru,2.0,1.25,0.0,0.0,0.0,0.0,0.0,0.0,0.25,0.0,0.0,0.0,0.0,0.0,1.75,2.75,1.0,2.5,0.25,1.0,0.25,0.5,0.0,0.0,0.0,0.0,0.0,0.0,0.0,0.0,0.0,13.5
Carrapichel,IT-PR-37,Senhor do Bonfim,Senhor do Bonfim (Carrapichel) - IT-PR-37,-10.388101,-40.220067,Nordeste,RPGA do Rio Itapicuru,5.5,0.25,0.25,0.0,0.0,0.0,0.0,0.0,0.0,0.0,0.0,0.0,0.0,0.0,0.5,0.5,8.25,4.5,0.25,0.0,0.0,0.75,0.0,0.0,0.0,0.0,0.0,0.0,0.0,0.0,0.0,20.75
Conceição do Coité,IT-PR-14,Conceição do Coité,Conceição do Coité - IT-PR-14,-11.526752,-39.313095,Nordeste,RPGA do Rio Itapicuru,1.25,0.5,0.0,0.0,0.0,0.0,2.5,1.25,0.25,0.0,0.0,0.0,0.0,0.0,1.75,1.5,5.5,3.75,0.0,0.0,0.0,0.25,0.0,0.0,0.0,0.0,0.0,0.0,0.0,0.0,0.0,18.5
Riacho da Onça,IT-PR-15,Queimadas,Queimadas (Riacho da Onça) - IT-PR-15,-11.24424,-39.790055,Nordeste,RPGA do Rio Itapicuru,0.75,0.25,0.0,0.0,0.0,0.0,0.25,1.0,0.0,0.0,0.0,0.0,0.0,0.0,1.5,1.75,5.25,2.75,0.0,0.0,0.0,0.0,0.0,0.0,0.0,0.0,0.0,0.0,0.0,0.0,0.0,13.5
Povoado Rio do Peixe,IT-PR-16,Queimadas,Queimadas (Povoado Rio do Peixe) - IT-PR-16,-11.097292,-39.524491,Nordeste,RPGA do Rio Itapicuru,3.25,0.75,0.0,0.0,0.0,0.0,0.5,0.0,0.0,0.0,0.0,0.0,0.0,0.0,0.25,2.0,2.25,5.0,0.0,0.5,0.0,0.25,0.0,0.0,0.0,0.0,0.0,0.0,0.0,0.0,0.0,14.75
Santaluz,IT-PR-17,Santaluz,Santaluz - IT-PR-17,-11.24831,-39.37563,Nordeste,RPGA do Rio Itapicuru,1.5,0.25,0.0,0.0,0.0,0.0,2.0,0.0,0.0,0.0,0.0,0.0,0.0,0.0,1.0,1.5,6.0,4.75,0.0,4.0,0.0,0.5,0.0,0.0,0.0,0.0,0.0,0.0,0.0,0.0,0.0,21.5
Ambrósio,IT-PR-19,Cansanção,Cansanção (Ambrósio) - IT-PR-19,-10.986458,-39.237813,Nordeste,RPGA do Rio Itapicuru,2.0,5.75,0.0,0.0,0.0,0.0,0.0,1.0,0.0,0.0,0.0,0.0,0.0,0.0,2.5,0.25,10.25,3.25,0.0,1.25,0.0,0.0,0.0,0.0,0.0,0.0,0.0,0.0,0.0,0.0,0.0,26.25
Cansanção,IT-PR-20,Cansanção,Cansanção - IT-PR-20,-10.702836,-39.543932,Nordeste,RPGA do Rio Itapicuru,2.0,0.25,0.0,0.0,0.0,0.0,5.75,1.75,0.5,0.0,0.0,0.0,0.0,0.0,1.5,6.25,6.5,8.75,1.0,0.75,0.0,0.0,0.0,0.0,0.0,0.0,0.0,0.0,0.0,0.0,0.0,35.0
Açude Monteiro,IT-PR-23,Nordestina,Nordestina (Açude Monteiro) - IT-PR-23,-10.77645,-39.559491,Nordeste,RPGA do Rio Itapicuru,14.5,2.25,0.0,0.0,0.0,0.0,1.75,1.75,0.0,0.0,0.0,0.0,0.0,0.0,2.0,3.0,5.5,3.75,1.5,0.75,0.0,0.0,0.0,0.0,0.0,0.0,0.0,0.0,0.0,0.0,0.0,36.75
Pedra Vermelha,IT-PR-24,Monte Santo,Monte Santo (Pedra Vermelha) - IT-PR-24,-10.454497,-39.559488,Nordeste,RPGA do Rio Itapicuru,5.75,0.25,0.0,0.0,0.0,0.0,5.0,3.0,0.0,0.0,0.0,0.0,0.0,0.0,1.75,1.5,6.0,5.0,0.0,1.25,0.0,0.0,0.0,0.0,0.0,0.0,0.0,0.0,0.0,0.0,0.0,29.5
Quijingue,IT-PR-25,Quijingue,Quijingue - IT-PR-25,-10.783951,-39.20809,Nordeste,RPGA do Rio Itapicuru,2.5,0.25,0.0,0.0,0.0,0.0,1.25,1.0,0.0,0.0,0.0,0.0,0.0,0.0,2.5,0.75,7.75,5.0,0.25,1.0,0.0,0.0,0.0,0.0,0.0,0.0,0.0,0.0,0.0,0.0,0.0,22.25
Conde,IT-PR-31,Conde,Conde - IT-PR-31,-11.813434,-37.616927,Nordeste,RPGA do Rio Itapicuru,8.25,8.25,0.75,0.0,0.0,1.75,19.0,4.25,0.25,0.0,0.25,0.0,6.25,3.25,1.0,8.25,17.75,0.0,1.5,0.25,0.25,3.75,2.0,0.0,0.0,0.0,0.25,0.0,0.0,0.0,0.0,87.25
Curral Falso,IT-PR-01,Ribeira do Pombal,Ribeira do Pombal (Curral Falso) - IT-PR-01,-10.697843,-38.5714,Nordeste,RPGA do Rio Itapicuru,0.5,0.75,0.0,0.0,0.0,0.0,3.5,7.0,0.0,0.25,0.0,0.0,0.25,0.25,7.5,11.25,11.5,2.0,0.75,2.25,0.0,0.0,0.0,0.0,0.25,0.0,0.0,0.0,0.0,0.0,0.0,48.0
Aribicé,IT-PR-02,Euclides da Cunha,Euclides da Cunha (Aribicé) - IT-PR-02,-10.557835,-38.793352,Nordeste,RPGA do Rio Itapicuru,4.0,6.5,0.0,0.0,0.0,0.0,2.25,5.5,0.0,0.0,0.0,0.0,0.0,0.0,2.75,4.0,5.25,1.75,0.0,0.5,0.0,0.0,0.0,0.0,0.0,0.0,0.0,0.0,0.0,0.25,0.0,32.75
Ribeira do Pombal,IT-PR-04,Ribeira do Pombal,Ribeira do Pombal - IT-PR-04,-10.823399,-38.545844,Nordeste,RPGA do Rio Itapicuru,0.5,18.75,0.0,0.0,0.0,0.0,6.25,8.5,0.0,0.25,0.0,0.25,0.0,0.0,4.5,5.25,10.25,0.25,0.25,3.5,1.0,0.0,0.0,0.0,0.75,0.0,0.0,0.0,0.0,0.0,0.0,60.25
BR 116 E. Cunha / Tucano,IT-PR-05,Quijingue,Quijingue (BR 116 E. Cunha / Tucano) - IT-PR-05,-10.7105,-38.9227,Nordeste,RPGA do Rio Itapicuru,0.0,2.25,0.0,0.0,0.0,0.0,4.5,6.0,0.25,0.0,0.0,0.0,0.0,0.0,1.0,1.25,9.25,4.5,0.0,3.25,0.0,0.0,0.0,0.0,0.0,0.0,0.0,0.0,0.0,0.0,0.0,32.25
Crisópolis,IT-PR-08,Crisópolis,Crisópolis - IT-PR-08,-11.510923,-38.120832,Nordeste,RPGA do Rio Itapicuru,1.5,2.25,1.0,0.0,0.0,7.25,1.5,0.0,0.0,0.0,1.0,0.75,0.0,3.5,0.75,2.75,0.5,0.25,1.0,0.25,5.75,0.0,0.0,0.0,0.0,0.0,0.0,0.0,0.0,0.25,0.0,30.25
Olindina,IT-PR-11,Olindina,Olindina - IT-PR-11,-11.343693,-38.318892,Nordeste,RPGA do Rio Itapicuru,1.25,1.0,0.0,0.0,0.0,0.0,1.25,1.25,0.0,0.0,0.0,0.0,0.0,0.0,0.75,0.25,3.75,0.25,0.0,0.25,0.0,0.25,0.0,0.0,0.0,0.0,0.0,0.0,0.0,0.0,0.0,10.25
Itapicuru,IT-PR-12,Itapicuru,Itapicuru - IT-PR-12,-11.321193,-38.225003,Nordeste,RPGA do Rio Itapicuru,0.25,22.25,0.0,0.0,0.0,0.0,8.25,2.0,0.0,0.0,0.0,0.0,0.5,0.0,2.5,3.0,7.25,0.0,0.25,1.25,0.0,0.25,0.0,0.0,0.0,0.0,0.0,0.0,0.0,0.0,0.0,47.75
Boa Hora,IT-PR-13,Ribeira do Amparo,Ribeira do Amparo (Boa Hora) - IT-PR-13,-10.965,-38.5234,Nordeste,RPGA do Rio Itapicuru,2.0,4.75,0.25,0.0,0.25,0.0,6.5,9.75,0.25,0.0,0.0,0.0,0.0,0.0,1.5,2.25,13.5,1.25,0.25,3.25,0.0,0.0,0.0,0.0,0.25,0.0,0.0,0.0,0.0,0.0,0.0,46.0
Tanquinho,EBDA,Tanquinho,Tanquinho - EBDA,-11.96799,-39.101068,Nordeste,RPGA do Rio Paraguaçu,5.0,0.0,0.0,0.0,0.0,3.5,2.3,0.0,0.0,0.0,0.0,0.0,0.0,5.5,5.5,8.5,0.0,3.0,0.0,0.0,0.0,0.0,0.0,0.0,0.0,0.0,0.0,0.0,0.0,0.0,0.0,33.3
Candeal,EBDA,Candeal,Candeal - EBDA,-11.80132,-39.117735,Nordeste,RPGA do Rio Paraguaçu,0.0,0.0,0.0,0.0,0.0,2.0,0.8,0.0,0.0,0.0,0.0,0.0,0.0,6.5,3.6,9.8,5.6,0.0,0.0,0.0,0.0,0.0,0.0,0.0,0.0,0.0,0.0,0.0,0.0,0.0,0.0,28.31
Ribeira do Pombal,EBDA,Ribeira do Pombal,Ribeira do Pombal - EBDA,-10.834635,-38.534383,Nordeste,RPGA do Rio Itapicuru,20.7,0.0,0.0,0.0,0.0,6.4,10.7,0.1,0.2,0.0,0.0,0.0,0.0,5.1,6.1,10.3,4.7,6.1,4.1,0.0,0.0,0.0,0.0,0.0,0.0,0.0,0.0,0.0,0.0,0.0,0.0,74.5
Cipó,EBDA,Cipó,Cipó - EBDA,-11.101305,-38.517717,Nordeste,RPGA do Rio Itapicuru,0.0,0.0,0.0,0.0,0.0,0.0,0.0,0.0,0.0,0.0,0.0,0.0,0.0,0.0,0.0,15.0,3.0,0.0,0.0,0.0,0.0,0.0,0.0,0.0,0.0,0.0,0.0,0.0,0.0,0.0,0.0,18.0
Olindina_EBDA,EBDA,Olindina_EBDA,Olindina_EBDA - EBDA,-11.351311,-38.33438,Nordeste,RPGA do Rio Itapicuru,0.0,1.7,0.0,0.0,0.0,2.7,0.0,0.0,0.0,0.0,0.0,0.0,0.0,0.0,0.0,0.0,0.0,7.1,0.0,0.0,0.0,0.0,0.0,0.0,0.0,0.0,0.0,0.0,0.0,0.0,0.0,11.5
Antas,EBDA,Antas,Antas - EBDA,-10.401293,-38.334375,Nordeste,RPGA do Rio Vaza-Barris,0.0,0.0,0.0,0.0,0.0,0.0,0.0,0.0,0.0,0.0,0.0,0.0,0.0,0.0,0.0,0.0,0.0,0.0,0.0,0.0,0.0,0.0,0.0,0.0,0.0,0.0,0.0,0.0,0.0,0.0,0.0,0.0
Paripiranga,EBDA,Paripiranga,Paripiranga - EBDA,-10.684633,-37.851032,Nordeste,RPGA do Rio Vaza-Barris,0.0,0.0,0.0,0.0,0.0,16.8,24.5,0.0,0.0,0.0,0.0,0.0,0.0,8.4,8.4,0.0,16.3,0.0,0.0,0.0,0.0,0.0,0.0,0.0,0.0,0.0,0.0,0.0,0.0,0.0,0.0,74.4
Nova Soure,EBDA,Nova Soure,Nova Soure - EBDA,-11.251311,-38.484383,Nordeste,RPGA do Rio Itapicuru,4.4,0.0,0.0,0.0,0.0,5.0,6.5,0.7,0.0,0.0,0.0,0.0,0.0,2.9,0.0,12.6,0.3,0.0,2.7,0.0,0.0,0.0,0.0,0.0,0.0,0.0,0.0,0.0,0.0,0.0,0.0,35.1
Ribeira do Amparo,EBDA,Ribeira do Amparo,Ribeira do Amparo - EBDA,-11.034638,-38.43438,Nordeste,RPGA do Rio Itapicuru,0.0,0.0,0.0,0.0,0.0,0.0,0.0,0.0,0.0,0.0,0.0,0.0,0.0,0.0,0.0,12.5,2.5,0.0,0.0,0.0,0.0,0.0,0.0,0.0,0.0,0.0,0.0,0.0,0.0,0.0,0.0,15.0
Heliópolis,EBDA,Heliópolis,Heliópolis - EBDA,-10.667965,-38.284375,Nordeste,RPGA do Rio Real,0.0,0.0,0.0,0.0,0.0,0.0,7.7,0.0,0.0,0.0,0.0,0.0,0.0,0.0,0.0,10.0,0.0,0.0,11.1,0.0,0.0,0.0,0.0,0.0,0.0,0.0,0.0,0.0,0.0,0.0,0.0,28.8
Cícero Dantas,EBDA,Cícero Dantas,Cícero Dantas - EBDA,-10.584629,-38.384377,Nordeste,RPGA do Rio Real,8.5,0.0,0.0,0.0,0.0,5.0,19.0,0.0,0.0,0.0,0.0,0.0,0.0,4.0,10.0,6.0,0.0,0.0,3.5,0.0,0.0,0.0,0.0,0.0,0.0,0.0,0.0,0.0,0.0,0.0,0.0,56.0
Adustina,EBDA,Adustina,Adustina - EBDA,-10.534629,-38.117704,Nordeste,RPGA do Rio Vaza-Barris,0.0,3.3,2.8,0.0,0.0,0.0,0.0,0.0,0.0,0.0,0.0,0.0,0.0,0.0,0.0,0.0,6.0,0.0,0.0,0.0,0.0,0.0,0.0,0.0,0.0,0.0,0.0,0.0,0.0,0.0,0.0,12.1
Uauá,EBDA,Uauá,Uauá - EBDA,-9.834609,-39.484404,Nordeste,RPGA do Rio Vaza-Barris,0.0,0.0,0.0,0.0,0.0,0.0,0.0,0.0,0.0,0.0,0.0,0.0,0.0,0.0,0.0,0.0,0.0,0.0,0.0,0.0,0.0,0.0,0.0,0.0,0.0,0.0,0.0,0.0,0.0,0.0,0.0,0.0
Casa Nova,EBDA,Casa Nova,Casa Nova - EBDA,-9.08459,-40.617764,Norte,RPGA do Lago de Sobradinho,0.0,0.0,0.0,0.0,0.0,0.0,0.0,0.0,0.0,0.0,0.0,0.0,0.0,0.0,0.0,0.0,0.0,0.0,0.0,0.0,0.0,0.0,0.0,0.0,0.0,0.0,0.0,0.0,0.0,0.0,0.0,0.0
Remanso,EBDA,Remanso,Remanso - EBDA,-9.601263,-42.08447,Norte,RPGA do Lago de Sobradinho,0.0,0.0,0.0,0.0,0.0,0.0,0.0,0.0,0.0,0.0,0.0,0.0,0.0,0.0,0.0,0.0,0.0,0.0,0.0,0.0,0.0,0.0,0.0,0.0,0.0,0.0,0.0,0.0,0.0,0.0,0.0,0.0
Sento Sé,EBDA,Sento Sé,Sento Sé - EBDA,-9.734599,-41.851131,Norte,RPGA do Lago de Sobradinho,0.0,0.0,0.0,0.0,0.0,0.0,0.0,0.0,0.0,0.0,0.0,0.0,0.0,0.0,0.0,0.0,0.0,0.0,0.0,0.0,0.0,0.0,0.0,0.0,0.0,0.0,0.0,0.0,0.0,0.0,0.0,0.0
Juazeiro -EBDA,,Juazeiro -EBDA,Juazeiro -EBDA,-9.41793,-40.501095,Norte,RPGA dos Rios Macururé e Curaçá,0.0,0.0,0.0,0.0,0.0,0.0,0.0,0.0,0.0,0.0,0.0,0.0,0.0,0.0,0.0,0.0,0.0,0.0,0.0,0.0,0.0,0.0,0.0,0.0,0.0,0.0,0.0,0.0,0.0,0.0,0.0,0.0
Sobradinho,EBDA,Sobradinho,Sobradinho - EBDA,-9.334594,-40.81777,Norte,RPGA do Lago de Sobradinho,0.0,0.0,0.0,0.0,0.0,0.0,0.0,0.0,0.0,0.0,0.0,0.0,0.0,0.0,0.0,0.0,0.0,0.0,0.0,0.0,0.0,0.0,0.0,0.0,0.0,0.0,0.0,0.0,0.0,0.0,0.0,0.0
Central,EBDA,Central,Central - EBDA,-11.151293,-42.11781,Norte,RPGA dos Rios Verde e Jacaré,0.0,0.0,0.0,0.0,0.0,0.0,0.0,0.0,0.0,0.0,0.0,0.0,0.0,0.0,0.0,0.0,0.0,0.0,0.0,0.0,0.0,0.0,0.0,0.0,0.0,0.0,0.0,0.0,0.0,0.0,0.0,0.0
Ibipeba,EBDA,Ibipeba,Ibipeba - EBDA,-11.634638,-42.034476,Norte,RPGA dos Rios Verde e Jacaré,0.0,0.0,0.0,0.0,0.0,0.0,0.0,0.0,0.0,0.0,0.0,0.0,0.0,0.0,0.0,0.0,0.0,0.0,0.0,0.0,0.0,0.0,0.0,0.0,0.0,0.0,0.0,0.0,0.0,0.0,0.0,0.0
Ibititá,EBDA,Ibititá,Ibititá - EBDA,-11.523108,-41.976085,Norte,RPGA dos Rios Verde e Jacaré,0.0,0.0,0.0,0.0,0.0,0.0,0.0,0.0,0.0,0.0,0.0,0.0,0.0,0.0,0.0,0.0,0.0,0.0,0.0,0.0,0.0,0.0,0.0,0.0,0.0,0.0,0.0,0.0,0.0,0.0,0.0,0.0
Irecê,EBDA,Irecê,Irecê - EBDA,-11.317966,-41.867804,Norte,RPGA dos Rios Verde e Jacaré,0.0,0.0,0.0,0.0,0.0,0.0,0.0,0.0,0.0,0.0,0.0,0.0,0.0,0.0,0.0,0.0,0.0,0.0,0.0,0.0,0.0,0.0,0.0,0.0,0.0,0.0,0.0,0.0,0.0,0.0,0.0,0.0
João Dourado,EBDA,João Dourado,João Dourado - EBDA,-11.334633,-41.651131,Norte,RPGA dos Rios Verde e Jacaré,0.0,0.0,0.0,0.0,0.0,0.0,0.0,0.0,0.0,0.0,0.0,0.0,0.0,0.0,0.0,0.0,0.0,0.0,0.0,0.0,0.0,0.0,0.0,0.0,0.0,0.0,0.0,0.0,0.0,0.0,0.0,0.0
Jussara,EBDA,Jussara,Jussara - EBDA,-11.051296,-40.96778,Norte,RPGA do Rio Salitre,0.0,0.0,0.0,0.0,0.0,0.0,0.0,0.0,0.0,0.0,0.0,0.0,0.0,0.0,0.0,0.0,0.0,0.0,0.0,0.0,0.0,0.0,0.0,0.0,0.0,0.0,0.0,0.0,0.0,0.0,0.0,0.0
Lapão,EBDA,Lapão,Lapão - EBDA,-11.367966,-41.817803,Norte,RPGA dos Rios Verde e Jacaré,0.0,0.0,0.0,0.0,0.0,0.0,0.0,0.0,0.0,0.0,0.0,0.0,0.0,0.0,0.0,0.0,0.0,0.0,0.0,0.0,0.0,0.0,0.0,0.0,0.0,0.0,0.0,0.0,0.0,0.0,0.0,0.0
Presidente Dutra,EBDA,Presidente Dutra,Presidente Dutra - EBDA,-11.284632,-41.651131,Norte,RPGA dos Rios Verde e Jacaré,0.0,0.0,0.0,0.0,0.0,0.0,0.0,0.0,0.0,0.0,0.0,0.0,0.0,0.0,0.0,0.0,0.0,0.0,0.0,0.0,0.0,0.0,0.0,0.0,0.0,0.0,0.0,0.0,0.0,0.0,0.0,0.0
Uibaí,EBDA,Uibaí,Uibaí - EBDA,-11.334632,-42.134477,Norte,RPGA dos Rios Verde e Jacaré,0.0,0.0,0.0,0.0,0.0,0.0,0.0,0.0,0.0,0.0,0.0,0.0,0.0,0.0,0.0,0.0,0.0,0.0,0.0,0.0,0.0,0.0,0.0,0.0,0.0,0.0,0.0,0.0,0.0,0.0,0.0,0.0
Irecê,83182,Irecê,Irecê - 83182,-11.3,-41.866667,Norte,RPGA dos Rios Verde e Jacaré,0.0,0.0,0.0,0.0,0.0,0.0,0.0,0.0,0.0,0.0,0.0,0.0,0.0,0.0,0.0,0.0,0.0,0.0,0.0,0.0,0.0,0.0,0.0,0.0,0.0,0.0,0.0,0.0,0.0,0.0,0.0,0.0
Remanso,82979,Remanso,Remanso - 82979,-9.633333,-42.1,Norte,RPGA do Lago de Sobradinho,0.0,0.0,0.0,0.0,0.0,0.0,0.0,0.0,0.0,0.0,0.0,0.0,0.0,0.0,0.0,0.0,3.6,0.0,0.0,0.0,0.0,0.0,0.0,0.0,0.0,0.0,0.0,0.0,0.0,0.0,0.0,3.6
Delfino,A443,Umburanas,Umburanas (Delfino) - A443,-10.45492,-41.206996,Norte,RPGA do Rio Salitre,1.4,0.0,0.0,0.0,0.0,0.0,0.2,0.4,0.2,0.0,0.0,0.0,0.0,0.0,1.0,1.8,4.2,3.2,0.4,0.4,0.0,0.0,0.0,0.0,0.0,0.0,0.0,0.0,0.0,0.0,0.0,13.2
Remanso,A423,Remanso,Remanso - A423,-9.625693,-42.077214,Norte,RPGA do Lago de Sobradinho,0.0,0.0,0.0,0.0,0.0,0.0,0.0,0.0,0.0,0.0,0.0,0.0,0.0,0.0,0.0,0.0,4.8,0.0,0.0,0.0,0.0,0.0,0.0,0.0,0.0,0.0,0.0,0.0,0.0,0.0,0.0,4.8
Irecê,A424,Irecê,Irecê - A424,-11.328998,-41.864504,Norte,RPGA dos Rios Verde e Jacaré,0.0,0.0,0.0,0.0,0.0,0.0,0.0,0.2,1.8,0.0,0.0,0.0,0.0,0.0,0.0,0.0,0.0,0.0,0.0,0.0,0.0,0.0,0.0,0.0,0.0,0.0,0.0,0.0,0.0,0.0,0.0,2.0
Juazeiro,UEP - EMBRAPA -EBDA - EBDA,Juazeiro,Juazeiro - UEP - EMBRAPA -EBDA - EBDA,-9.41293,-40.499706,Norte,RPGA dos Rios Macururé e Curaçá,0.0,0.0,0.0,0.0,0.0,0.0,0.0,0.0,0.0,0.0,0.0,0.0,0.0,0.0,0.0,0.0,0.0,0.0,0.0,0.0,0.0,0.0,0.0,0.0,0.0,0.0,0.0,0.0,0.0,0.0,0.0,0.0
Juazeiro,Est. Exp. Caraíbas - EBDA,Juazeiro,Juazeiro - Est. Exp. Caraíbas - EBDA,-9.418208,-40.510817,Norte,RPGA dos Rios Macururé e Curaçá,0.0,0.0,0.0,0.0,0.0,0.0,0.0,0.0,0.0,0.0,0.0,0.0,0.0,0.0,0.0,0.0,0.0,20.0,0.0,0.0,0.0,0.0,0.0,0.0,0.0,0.0,0.0,0.0,0.0,0.0,0.0,20.0
Mandacaru,Convencional,Juazeiro,Juazeiro (Mandacaru) - Convencional,-9.401263,-40.434428,Norte,RPGA dos Rios Macururé e Curaçá,0.0,0.0,0.0,0.0,0.0,0.0,0.0,0.0,0.0,0.0,0.0,0.0,0.0,0.0,0.0,0.0,1.9,2.0,0.0,0.4,0.0,0.0,0.0,0.0,0.0,0.0,0.0,0.0,0.0,0.0,0.0,4.3
Juazeiro,Fazenda Brasil Uvas,Juazeiro,Juazeiro - Fazenda Brasil Uvas,-9.316666,-40.183333,Norte,RPGA dos Rios Macururé e Curaçá,0.0,0.0,0.0,0.0,0.0,0.0,0.0,0.0,0.0,0.0,0.0,0.0,0.0,0.0,0.0,0.0,3.05,0.25,0.0,0.0,0.0,0.0,0.0,0.0,0.0,0.0,0.0,0.0,0.0,0.0,0.0,3.3
Juazeiro,Massaroca,Juazeiro,Juazeiro - Massaroca,-9.8,-40.233333,Norte,RPGA dos Rios Macururé e Curaçá,1.0,0.0,0.0,0.0,0.0,0.0,0.0,0.0,0.0,0.0,0.0,0.0,0.0,0.0,0.0,4.8,1.0,8.1,0.2,0.0,0.1,0.0,0.0,0.0,0.0,0.0,0.0,0.0,0.0,0.0,0.0,15.2
Jaguarari,Pilar,Jaguarari,Jaguarari - Pilar,-9.85,-39.933333,Norte,RPGA dos Rios Macururé e Curaçá,0.9,0.0,0.0,0.0,0.0,0.0,0.0,0.0,0.0,0.0,0.0,0.0,0.0,0.0,0.0,0.8,2.9,28.7,0.0,1.6,0.1,0.0,0.0,0.0,0.0,0.0,0.0,0.0,0.0,0.0,0.0,35.0
Juazeiro,Santa Helena,Juazeiro,Juazeiro - Santa Helena,-9.566666,-40.3,Norte,RPGA dos Rios Macururé e Curaçá,1.2,0.0,0.0,0.0,0.0,0.0,0.0,0.0,0.0,0.0,0.0,0.0,0.0,0.0,0.0,1.2,2.2,7.4,0.1,0.0,0.0,0.0,0.0,0.0,0.0,0.0,0.0,0.0,0.0,0.0,0.0,12.1
Juazeiro,Salitre,Juazeiro,Juazeiro - Salitre,-9.5,-40.633333,Norte,RPGA dos Rios Macururé e Curaçá,0.9,0.0,0.0,0.0,0.0,0.0,0.0,0.0,0.0,0.0,0.0,0.0,0.0,0.0,0.0,1.3,0.4,1.6,0.0,0.0,0.0,0.0,0.0,0.0,0.0,0.0,0.0,0.0,0.0,0.0,0.0,4.2
Várzea Grande,VJ-PR-04,Itaguaçu da Bahia,Itaguaçu da Bahia (Várzea Grande) - VJ-PR-04,-10.908939,-42.516536,Norte,RPGA dos Rios Verde e Jacaré,0.0,0.0,0.0,0.0,0.0,0.0,0.0,0.0,0.0,0.0,0.0,0.0,0.0,0.0,0.0,0.0,0.0,0.0,0.0,0.0,0.0,0.0,0.0,0.0,0.0,0.0,0.0,0.0,0.0,0.0,0.0,0.0
Ibitibá,,Ibitibá,Ibitibá,-11.551736,-41.968187,Norte,RPGA dos Rios Verde e Jacaré,0.0,0.0,0.0,0.0,0.0,0.0,0.0,0.0,0.0,0.0,0.0,0.0,0.0,0.0,0.0,0.0,0.0,0.0,0.0,0.0,0.0,0.0,0.0,0.0,0.0,0.0,0.0,0.0,0.0,0.0,0.0,0.0
Jussara,Arrecife,Jussara,Jussara - Arrecife,-11.065335,-41.974853,Norte,RPGA dos Rios Verde e Jacaré,0.0,0.0,0.0,0.0,4.8,0.0,0.0,0.0,0.0,0.0,0.0,0.0,0.0,0.0,0.0,0.0,0.0,0.0,0.0,0.0,0.0,0.0,0.0,0.0,0.0,0.0,0.0,0.0,0.0,0.0,0.0,4.8
Ibipeba,,Ibipeba,Ibipeba,-11.673962,-42.010413,Norte,RPGA dos Rios Verde e Jacaré,0.0,0.0,0.0,0.0,0.2,0.0,0.0,0.0,0.0,0.0,0.0,0.0,0.0,0.0,0.0,0.0,0.2,0.0,0.0,0.0,0.0,0.0,0.0,0.0,0.0,0.0,0.0,0.0,0.0,0.0,0.0,0.4
Central,,Central,Central,-11.135391,-42.093468,Norte,RPGA dos Rios Verde e Jacaré,0.0,0.0,0.0,0.0,4.4,0.0,0.0,0.0,0.0,0.0,0.0,0.0,0.0,0.0,0.0,0.0,0.0,0.0,0.0,0.0,0.0,0.0,0.0,0.0,0.0,0.0,0.0,0.0,0.0,0.0,0.0,4.4
Juazeiro,48020000,Juazeiro,Juazeiro - 48020000,-9.4064,-40.5036,Norte,RPGA dos Rios Macururé e Curaçá,0.2,0.0,0.0,0.0,0.0,0.0,0.0,0.0,0.0,0.0,0.0,0.0,0.0,0.0,0.2,0.2,0.4,0.8,0.0,0.0,0.0,0.0,0.0,0.0,0.0,0.0,0.0,0.0,0.0,0.0,0.0,1.8
Uibai,,Uibai,Uibai,-11.294784,-42.14208,Norte,RPGA dos Rios Verde e Jacaré,0.0,0.0,0.0,0.0,0.0,0.0,0.6,0.0,0.0,0.2,0.6,0.0,0.0,0.0,0.4,5.4,2.0,1.0,0.6,0.2,1.0,0.0,0.8,0.0,0.0,0.0,0.0,0.0,0.0,0.0,0.0,12.8
Irecê,VJ-CL-01,Irecê,Irecê - VJ-CL-01,-11.289166,-41.894166,Norte,RPGA dos Rios Verde e Jacaré,0.0,0.0,0.0,0.0,0.0,0.0,0.0,0.0,0.0,0.0,0.0,0.0,0.0,0.0,0.0,0.0,0.0,0.0,0.0,0.0,0.0,0.0,0.0,0.0,0.0,0.0,0.0,0.0,0.0,0.0,0.0,0.0
Santa Rosa,SM-PR-01,Jaguarari,Jaguarari (Santa Rosa) - SM-PR-01,-10.098374,-39.869774,Norte,RPGA dos Rios Macururé e Curaçá,0.75,0.5,0.0,0.0,0.0,0.0,0.0,0.5,0.0,0.0,0.0,0.0,0.0,0.0,7.0,2.0,5.75,9.25,0.0,2.0,0.0,0.0,0.0,0.0,0.0,0.0,0.0,0.0,0.0,0.0,0.0,27.75
Campo Formoso,IT-PR-27,Campo Formoso,Campo Formoso - IT-PR-27,-10.510327,-40.332849,Norte,RPGA do Rio Itapicuru,19.75,6.75,0.0,0.0,0.0,0.0,4.0,3.0,0.0,0.0,0.0,0.0,0.0,1.0,3.5,5.75,13.25,7.5,1.0,3.25,0.25,0.75,0.0,0.0,0.0,0.0,0.0,0.0,0.0,0.0,0.0,69.75
Jaguarari,IT-PR-28,Jaguarari,Jaguarari - IT-PR-28,-10.269489,-40.200344,Norte,RPGA do Rio Itapicuru,2.75,1.75,0.25,0.0,0.0,0.0,1.25,1.0,0.0,0.0,0.0,0.0,0.0,0.0,2.25,2.5,7.0,3.0,0.5,3.5,0.0,0.25,0.0,0.0,0.0,0.0,0.0,0.0,0.0,0.0,0.0,26.0
Olho D'Água,,Olho D'Água,Olho D'Água,-10.700331,-40.601468,Norte,RPGA do Rio Salitre,0.2,0.0,0.0,0.0,0.0,0.0,0.0,0.0,0.0,0.0,0.0,0.0,0.0,0.0,0.0,0.0,0.4,0.0,0.0,0.0,3.2,3.4,0.6,0.0,0.0,0.0,0.0,0.0,0.0,0.0,0.0,7.8
América Dourada,EBDA,América Dourada,América Dourada - EBDA,-11.384635,-41.584464,Norte,RPGA dos Rios Verde e Jacaré,0.0,0.0,0.0,0.0,0.0,0.0,0.0,0.0,0.0,0.0,0.0,0.0,0.0,0.0,0.0,0.0,0.0,0.0,0.0,0.0,0.0,0.0,0.0,0.0,0.0,0.0,0.0,0.0,0.0,0.0,0.0,0.0
São Gabriel,EBDA,São Gabriel,São Gabriel - EBDA,-11.134629,-41.867803,Norte,RPGA dos Rios Verde e Jacaré,0.0,0.0,0.0,0.0,0.0,0.0,0.0,0.0,0.0,0.0,0.0,0.0,0.0,0.0,0.0,0.0,0.0,0.0,0.0,0.0,0.0,0.0,0.0,0.0,0.0,0.0,0.0,0.0,0.0,0.0,0.0,0.0
Fazenda Vila Verde,,Fazenda Vila Verde,Fazenda Vila Verde,-12.032839,-46.054434,Oeste,RPGA do Rio Grande,0.0,0.0,0.0,0.0,0.0,0.0,0.2,0.0,0.0,0.0,0.0,0.0,0.0,0.0,0.0,0.0,0.0,0.0,0.0,0.0,0.0,0.0,0.0,0.0,0.0,0.0,0.0,0.0,0.0,0.0,0.0,0.2
Fazenda Poletto,GR-PR-11,Luiz Eduardo Magalhães,Luiz Eduardo Magalhães (Fazenda Poletto) - GR-PR-11,-12.07145,-45.896097,Oeste,RPGA do Rio Grande,0.0,0.0,0.0,0.0,0.0,0.0,0.0,0.0,0.0,0.0,0.0,0.0,0.0,0.0,0.0,0.0,0.0,0.0,0.0,0.0,0.0,0.0,0.0,0.0,0.0,0.0,0.0,0.0,0.0,0.0,0.0,0.0
Fazenda Novo Horizonte,GR-PR-13,Barreiras,Barreiras (Fazenda Novo Horizonte) - GR-PR-13,-12.064787,-45.560529,Oeste,RPGA do Rio Grande,0.0,0.0,0.0,0.0,0.0,0.0,0.0,0.0,0.0,0.0,0.0,0.0,0.0,0.0,0.0,0.2,0.0,0.0,0.0,0.0,0.0,0.0,0.0,0.0,0.0,0.0,0.0,0.0,0.0,0.0,0.0,0.2
Fazenda Dona Izeta,GR-PR-15,Barreiras,Barreiras (Fazenda Dona Izeta) - GR-PR-15,-12.073399,-45.490807,Oeste,RPGA do Rio Grande,0.0,0.0,0.0,0.0,0.0,0.0,0.0,0.0,0.0,0.0,0.0,0.0,0.0,0.0,0.0,0.0,0.0,0.0,0.0,0.0,0.0,0.0,0.0,0.0,0.0,0.0,0.0,0.0,0.0,0.0,0.0,0.0
Fazenda Sinimbu,,Fazenda Sinimbu,Fazenda Sinimbu,-12.366736,-45.862763,Oeste,RPGA do Rio Grande,0.0,0.0,0.0,0.0,0.0,0.0,0.0,0.0,0.0,0.0,0.0,0.0,0.0,0.0,0.0,0.0,0.0,0.0,0.0,0.0,0.0,0.0,0.0,0.0,0.0,0.0,0.0,0.0,0.0,0.0,0.0,0.0
Limoeiro,GR-PR-18,Barreiras,Barreiras (Limoeiro) - GR-PR-18,-12.293403,-45.544421,Oeste,RPGA do Rio Grande,0.0,0.0,0.0,0.0,0.0,0.0,0.6,0.0,0.0,0.0,0.0,0.0,0.0,0.0,0.0,0.0,0.0,0.0,0.0,0.0,0.0,0.0,0.0,0.0,0.0,0.0,0.0,0.0,0.0,0.0,0.0,0.6
Fazenda Pró Café,GR-PR-19,Barreiras,Barreiras (Fazenda Pró Café) - GR-PR-19,-12.160625,-45.330802,Oeste,RPGA do Rio Grande,0.0,0.0,0.0,0.0,0.0,0.0,0.0,0.0,0.0,0.0,0.0,0.0,0.0,0.0,0.0,0.0,0.0,0.0,0.0,0.0,0.0,0.0,0.0,0.0,0.0,0.0,0.0,0.0,0.0,0.0,0.0,0.0
Fazenda Rio Brilhante,,Fazenda Rio Brilhante,Fazenda Rio Brilhante,-12.802859,-45.729985,Oeste,RPGA do Rio Grande,0.0,0.0,0.0,0.0,0.0,0.0,0.0,0.0,0.0,0.0,0.0,0.0,0.0,0.0,0.0,0.0,0.0,0.0,0.0,0.0,0.0,0.0,0.0,0.0,0.0,0.0,0.0,0.0,0.0,0.0,0.0,0.0
Fazenda Buritis,,Fazenda Buritis,Fazenda Buritis,-12.643967,-45.453029,Oeste,RPGA do Rio Grande,0.0,0.0,0.0,0.0,0.0,0.0,0.0,0.0,0.0,0.0,0.0,0.0,0.0,0.0,0.0,0.0,0.0,0.0,0.0,0.0,0.0,0.0,0.0,0.0,0.0,0.0,0.0,0.0,0.0,0.0,0.0,0.0
Fazenda Catarinense,,Fazenda Catarinense,Fazenda Catarinense,-13.286201,-46.028331,Oeste,RPGA do Rio Grande,0.0,0.0,0.0,0.0,0.0,0.0,0.0,0.0,0.0,0.0,0.0,0.0,0.0,0.0,0.0,0.0,0.0,0.0,0.0,0.0,0.0,0.0,0.0,0.0,0.0,0.0,0.0,0.0,0.0,0.0,0.0,0.0
INMET,EBDA,Barreiras,Barreiras (INMET) - EBDA,-12.134635,-44.984551,Oeste,RPGA do Rio Grande,0.0,0.0,0.0,0.0,0.0,0.0,0.0,0.0,0.0,0.0,0.0,0.0,0.0,0.0,0.0,0.0,0.0,0.0,0.0,0.0,0.0,0.0,0.0,0.0,0.0,0.0,0.0,0.0,0.0,0.0,0.0,0.0
Arrojolândia,,Arrojolândia,Arrojolândia,-13.741772,-45.466093,Oeste,"RPGA do Rio Corrente e Riachos do Ramalho, Serra Dourada e Brejo Velho",0.0,0.0,0.0,0.0,0.0,0.0,0.0,0.0,0.0,0.0,0.0,0.0,0.0,0.0,0.0,0.0,0.0,0.0,0.0,0.0,0.0,0.0,0.0,0.0,0.0,0.0,0.0,0.0,0.0,0.0,0.0,0.0
Rosário,CT-PR-03,Correntina,Correntina (Rosário) - CT-PR-03,-13.940105,-46.188064,Oeste,"RPGA do Rio Corrente e Riachos do Ramalho, Serra Dourada e Brejo Velho",0.0,0.0,0.0,0.0,0.0,8.6,12.8,0.8,0.0,0.0,0.2,0.0,0.0,0.0,3.4,5.4,24.0,0.2,0.0,0.0,1.0,7.4,0.0,0.0,0.6,0.0,0.0,0.0,0.0,0.0,0.6,65.0
Fazenda Nova Esperança,,Fazenda Nova Esperança,Fazenda Nova Esperança,-13.987891,-45.389148,Oeste,"RPGA do Rio Corrente e Riachos do Ramalho, Serra Dourada e Brejo Velho",0.0,0.0,0.0,0.0,0.0,0.0,0.0,0.0,0.0,0.0,0.0,0.0,0.0,0.0,0.0,0.0,0.0,0.0,0.0,0.0,0.0,0.0,0.0,0.0,0.0,0.0,0.0,0.0,0.0,0.0,0.0,0.0
SEDE,EBDA,Formosa do Rio Preto,Formosa do Rio Preto (SEDE) - EBDA,-11.051281,-45.201218,Oeste,RPGA do Rio Grande,0.0,0.0,0.0,0.0,0.0,0.0,0.0,0.0,0.0,0.0,0.0,0.0,0.0,0.0,0.0,0.0,0.0,0.0,0.0,0.0,0.0,0.0,0.0,0.0,0.0,0.0,0.0,0.0,0.0,0.0,0.0,0.0
Fazenda Cachoeirinha,,Fazenda Cachoeirinha,Fazenda Cachoeirinha,-14.389284,-45.840279,Oeste,"RPGA do Rio Corrente e Riachos do Ramalho, Serra Dourada e Brejo Velho",0.0,0.0,0.0,0.0,0.0,0.0,0.0,0.0,0.0,0.0,0.0,0.0,0.0,0.0,0.0,0.0,0.0,0.0,0.0,0.0,0.0,0.0,0.0,0.0,0.0,0.0,0.0,0.0,0.0,0.0,0.0,0.0
Projeto Alto Formoso,,Projeto Alto Formoso,Projeto Alto Formoso,-14.260954,-45.27887,Oeste,"RPGA do Rio Corrente e Riachos do Ramalho, Serra Dourada e Brejo Velho",0.0,0.0,0.0,0.0,0.0,0.0,0.0,0.0,0.0,0.0,0.0,0.0,0.0,0.0,0.0,0.0,0.0,0.0,0.0,0.0,0.0,0.0,0.0,0.0,0.0,0.0,0.0,0.0,0.0,0.0,0.0,0.0
Ponte do Itaguari,CA-PR-02,Cocos,Cocos (Ponte do Itaguari) - CA-PR-02,-14.234011,-44.626902,Oeste,RPGA do Rio Carinhanha,0.0,0.0,0.0,0.0,0.0,0.0,0.0,0.0,0.0,0.0,0.0,0.0,0.0,0.0,0.0,0.0,0.0,0.0,0.0,0.0,0.0,0.0,0.0,0.0,0.0,0.0,0.0,0.0,0.0,0.0,0.0,0.0
Correntina,A416,Correntina,Correntina - A416,-13.332386,-44.617376,Oeste,"RPGA do Rio Corrente e Riachos do Ramalho, Serra Dourada e Brejo Velho",0.0,0.0,0.0,0.0,0.0,0.0,0.0,0.0,0.0,0.0,0.0,0.0,0.0,0.0,0.0,0.0,0.0,0.0,0.0,0.0,0.0,0.0,0.0,0.0,0.0,0.0,0.0,0.0,0.0,0.0,0.0,0.0
Barreiras,83236,Barreiras,Barreiras - 83236,-12.155556,-45.007778,Oeste,RPGA do Rio Grande,0.0,0.0,0.0,0.0,0.0,0.0,0.0,0.0,0.0,0.0,0.0,0.0,0.0,0.0,0.0,0.0,0.0,0.0,0.0,0.0,0.0,0.0,0.0,0.0,0.0,0.0,0.0,0.0,0.0,0.0,0.0,0.0
SEDE,EBDA,Riachão das Neves,Riachão das Neves (SEDE) - EBDA,-11.747407,-44.911215,Oeste,RPGA do Rio Grande,0.0,0.0,0.0,0.0,0.0,0.0,0.0,0.0,0.0,0.0,0.0,0.0,0.0,0.0,0.0,0.0,0.0,0.0,0.0,0.0,0.0,0.0,0.0,0.0,0.0,0.0,0.0,0.0,0.0,0.0,0.0,0.0
Form. Rio Preto,46550000,Barreiras,Barreiras (Form. Rio Preto) - 46550000,-11.154444,-45.009166,Oeste,RPGA do Rio Grande,0.0,0.0,0.0,0.0,0.0,0.0,0.0,0.0,0.0,0.0,0.0,0.0,0.0,0.0,0.0,0.0,0.0,0.0,0.0,0.0,0.0,0.0,0.0,0.0,0.0,0.0,0.0,0.0,0.0,0.0,0.0,0.0
UEP,S. Francisco) - EBDA,Barreiras,Barreiras (UEP - S. Francisco) - EBDA,-12.167969,-44.984551,Oeste,RPGA do Rio Grande,0.0,0.0,0.0,0.0,0.0,0.0,0.0,0.0,0.0,0.0,0.0,0.0,0.0,0.0,0.0,0.0,0.0,0.0,0.0,0.0,0.0,0.0,0.0,0.0,0.0,0.0,0.0,0.0,0.0,0.0,0.0,0.0
Fz. Mutamba,EBDA,São Desidério,São Desidério (Fz. Mutamba) - EBDA,-12.364639,-44.974551,Oeste,RPGA do Rio Grande,0.0,0.0,0.0,0.0,0.0,0.0,0.0,0.0,0.0,0.0,0.0,0.0,0.0,0.0,0.0,0.0,0.0,0.0,0.0,0.0,0.0,0.0,0.0,0.0,0.0,0.0,0.0,0.0,0.0,0.0,0.0,0.0
Jaborandi,EBDA,Jaborandi,Jaborandi - EBDA,-13.620221,-44.43399,Oeste,"RPGA do Rio Corrente e Riachos do Ramalho, Serra Dourada e Brejo Velho",0.0,0.0,0.0,0.0,0.0,0.0,0.0,0.0,0.0,0.0,0.0,0.0,0.0,0.0,0.0,0.0,0.0,0.0,0.0,0.0,0.0,0.0,0.0,0.0,0.0,0.0,0.0,0.0,0.0,0.0,0.0,0.0
Poção,EBDA,Catolândia,Catolândia (Poção) - EBDA,-12.319361,-44.862326,Oeste,RPGA do Rio Grande,0.0,0.0,0.0,0.0,0.0,0.0,0.0,0.0,0.0,0.0,0.0,0.0,0.0,0.0,0.0,0.0,0.0,0.0,0.0,0.0,0.0,0.0,0.0,0.0,0.0,0.0,0.0,0.0,0.0,0.0,0.0,0.0
Arrojado,45770000,Correntina,Correntina (Arrojado) - 45770000,-13.4528,-44.5689,Oeste,"RPGA do Rio Corrente e Riachos do Ramalho, Serra Dourada e Brejo Velho",0.0,0.0,0.0,0.0,0.0,0.0,0.0,0.0,0.0,0.0,0.0,0.0,0.0,0.0,0.0,0.0,0.0,0.0,0.0,0.0,0.0,0.0,0.0,0.0,0.0,0.0,0.0,0.0,0.0,0.0,0.0,0.0
Correntina,45590000,Correntina,Correntina - 45590000,-13.3406,-44.6386,Oeste,"RPGA do Rio Corrente e Riachos do Ramalho, Serra Dourada e Brejo Velho",0.0,0.0,0.0,0.0,0.0,0.0,0.0,0.0,0.0,0.0,0.0,0.0,0.0,0.0,0.0,0.0,0.0,0.0,0.0,0.0,0.0,0.0,0.0,0.0,0.0,0.0,0.0,0.0,0.0,0.0,0.0,0.0
Formosa do Rio Preto-ANA_INEMA,,Formosa do Rio Preto-ANA_INEMA,Formosa do Rio Preto-ANA_INEMA,-11.05267,-45.264832,Oeste,RPGA do Rio Grande,0.0,0.0,0.0,0.0,0.0,0.0,0.0,0.0,0.0,0.0,0.0,0.0,0.0,0.0,0.0,0.0,0.0,0.0,0.0,0.0,0.0,0.0,0.0,0.0,0.0,0.0,0.0,0.2,0.0,0.0,0.0,0.2
COACERAL,GR-CL-02,Formosa do Rio Preto,Formosa do Rio Preto (COACERAL) - GR-CL-02,-10.561944,-45.693333,Oeste,RPGA do Rio Grande,0.0,0.0,0.0,0.0,0.0,0.0,0.0,0.0,0.0,0.0,0.0,0.0,0.0,0.0,0.0,0.0,0.0,0.0,0.0,0.0,0.0,0.0,0.0,0.0,0.0,0.0,0.0,0.0,0.0,0.0,0.0,0.0
Barreiras,A402,Barreiras,Barreiras - A402,-12.124715,-45.027049,Oeste,RPGA do Rio Grande,0.0,0.0,0.0,0.0,0.0,0.0,0.0,0.0,0.0,0.0,0.0,0.0,0.0,0.0,0.0,0.0,0.0,0.0,0.0,0.0,0.0,0.0,0.0,0.0,0.0,0.0,0.0,0.0,0.0,0.0,0.0,0.0
Luís Eduardo Magalhães,A404,Luís Eduardo Magalhães,Luís Eduardo Magalhães - A404,-12.152394,-45.829745,Oeste,RPGA do Rio Grande,0.0,0.0,0.0,0.0,0.0,0.0,0.0,0.0,0.0,0.0,0.0,0.0,0.0,0.0,0.0,0.0,0.0,0.0,0.0,0.0,0.0,0.0,0.0,0.0,0.0,0.0,0.0,0.0,0.0,0.0,0.0,0.0
Barreiras,EBDA,Barreiras,Barreiras - EBDA,-12.084632,-45.6679,Oeste,RPGA do Rio Grande,0.0,0.0,0.0,0.0,0.0,0.0,0.0,0.0,0.0,0.0,0.0,0.0,0.0,0.0,0.0,0.0,0.0,0.0,0.0,0.0,0.0,0.0,0.0,0.0,0.0,0.0,0.0,0.0,0.0,0.0,0.0,0.0
São Desidério,R. Velha - GR-CL-01,São Desidério,São Desidério - R. Velha - GR-CL-01,-12.898055,-46.157222,Oeste,RPGA do Rio Grande,0.0,0.0,0.0,0.0,0.0,0.0,0.0,0.0,0.0,0.0,0.0,0.0,0.0,0.0,0.0,0.0,0.0,0.0,0.0,0.0,0.0,0.0,0.0,0.0,0.0,0.0,0.0,0.0,0.0,0.0,0.0,0.0
Fazenda Evandro,GR-PR-01,Formosa do Rio Preto,Formosa do Rio Preto (Fazenda Evandro) - GR-PR-01,-10.600581,-45.822752,Oeste,RPGA do Rio Grande,0.0,0.0,0.0,0.0,0.0,0.0,0.0,0.0,0.0,0.0,0.0,0.0,0.0,0.0,0.6,0.0,0.0,0.0,0.0,0.0,0.0,0.0,0.0,0.0,0.0,0.0,0.0,0.0,0.0,0.0,0.0,0.6
Barra do Tapuio,GR-PR-02,Formosa do Rio Preto,Formosa do Rio Preto (Barra do Tapuio) - GR-PR-02,-11.09476,-45.950259,Oeste,RPGA do Rio Grande,0.0,0.0,0.0,0.0,0.0,0.0,0.0,0.0,0.0,0.0,0.0,0.0,0.0,0.0,0.0,0.0,0.0,0.0,0.0,0.0,0.0,0.0,0.0,0.0,0.0,0.0,0.0,0.0,0.0,0.0,0.0,0.0
Fazenda Mingore,GR-PR-03,Formosa do Rio Preto,Formosa do Rio Preto (Fazenda Mingore) - GR-PR-03,-11.043367,-46.296104,Oeste,RPGA do Rio Grande,0.0,0.0,0.0,0.0,0.0,0.0,0.0,0.0,0.0,0.2,0.0,0.0,0.0,0.0,0.0,0.0,0.0,0.0,0.0,0.0,0.0,0.0,0.0,0.0,0.0,0.0,0.2,0.0,0.0,0.0,0.0,0.4
Garganta,GR-PR-04,Formosa do Rio Preto,Formosa do Rio Preto (Garganta) - GR-PR-04,-11.384764,-46.505001,Oeste,RPGA do Rio Grande,0.0,0.0,0.0,0.0,0.0,0.0,0.0,0.0,0.0,0.0,0.0,0.0,0.0,0.0,0.0,0.0,0.0,0.0,0.0,0.0,0.0,0.0,0.0,0.0,0.0,0.0,0.0,0.0,0.0,0.0,0.0,0.0
Santa Inês,EBDA,Santa Inês,Santa Inês - EBDA,-13.28468,-39.834426,Recôncavo,RPGA do Recôncavo Sul,1.0,0.0,0.0,0.0,0.0,6.0,0.0,0.0,0.0,0.0,1.0,0.0,0.0,0.0,0.0,2.0,0.0,0.0,0.0,0.0,0.0,0.0,0.0,0.0,0.0,0.0,0.0,0.0,0.0,0.0,0.0,10.0
J. Zoológico,A401,Salvador,Salvador (J. Zoológico) - A401,-13.005515,-38.50576,Recôncavo,RPGA do Recôncavo Norte,6.8,0.0,2.0,0.2,0.0,0.0,10.0,2.4,0.0,0.8,0.0,0.0,0.2,1.2,10.6,9.4,3.4,1.8,0.0,1.2,3.0,0.0,1.0,1.0,3.0,0.2,5.4,4.2,1.0,0.0,0.0,68.8
Cruz das Almas,A406,Cruz das Almas,Cruz das Almas - A406,-12.675422,-39.08958,Recôncavo,RPGA do Rio Paraguaçu,21.4,0.0,0.2,0.4,0.2,0.2,11.8,0.4,0.8,2.0,1.2,0.0,0.0,1.0,12.8,6.0,9.0,1.6,0.6,1.0,1.6,4.6,0.0,1.4,0.6,0.4,0.4,0.2,0.0,0.2,0.8,80.8
Salvador,Canabrava,Salvador,Salvador - Canabrava,-12.924122,-38.429942,Recôncavo,RPGA do Recôncavo Norte,35.3,1.7,0.1,0.0,0.0,0.0,8.4,0.7,0.8,1.0,0.2,0.0,1.0,4.2,19.5,6.9,7.9,4.4,2.6,0.5,1.8,1.2,0.2,0.6,1.8,0.0,4.1,1.6,0.1,0.0,0.1,106.7
Feira de Santana,A413,Feira de Santana,Feira de Santana - A413,-12.1962,-38.967384,Recôncavo,RPGA do Recôncavo Norte,7.8,6.2,0.2,0.2,0.2,0.2,8.6,2.6,1.0,0.0,0.2,0.0,0.0,0.0,10.8,3.8,11.4,2.6,1.2,0.6,1.8,0.2,0.0,0.4,0.6,0.4,0.6,0.0,0.0,0.2,0.0,61.81
Alagoinhas,83249,Alagoinhas,Alagoinhas - 83249,-12.148333,-38.425556,Recôncavo,RPGA do Recôncavo Norte,30.2,5.9,0.0,0.0,0.4,0.2,10.5,3.8,0.0,0.0,0.0,0.5,2.2,9.0,16.0,3.5,16.3,7.4,1.7,5.9,1.7,4.2,0.0,0.0,0.0,0.0,0.0,0.0,0.0,0.0,0.0,119.41
Cruz das Almas,83222,Cruz das Almas,Cruz das Almas - 83222,-12.666667,-39.083333,Recôncavo,RPGA do Rio Paraguaçu,22.0,0.0,0.2,0.1,0.1,0.0,12.6,0.2,0.4,1.9,0.9,0.0,0.0,1.0,13.6,3.4,9.8,1.7,0.3,0.8,1.3,4.4,0.4,1.3,0.5,0.2,0.4,0.0,0.0,0.0,0.7,78.21
Feira de Santana,83221,Feira de Santana,Feira de Santana - 83221,-12.196111,-38.967222,Recôncavo,RPGA do Recôncavo Norte,7.6,6.5,0.0,0.0,0.0,0.0,9.4,2.4,0.0,0.4,0.0,0.0,0.0,0.0,9.8,3.2,11.5,3.8,0.8,0.0,1.4,0.0,0.0,0.3,0.0,0.0,0.0,0.0,0.0,0.0,0.0,57.1
Santo Estêvão,EBDA,Santo Estêvão,Santo Estêvão - EBDA,-12.434665,-39.251074,Recôncavo,RPGA do Rio Paraguaçu,1.9,1.0,0.0,0.0,0.0,0.0,0.0,0.0,0.0,0.0,0.0,0.0,0.0,0.0,0.0,0.0,0.0,0.0,0.0,0.0,0.0,0.0,0.0,0.0,0.0,0.0,0.0,0.0,0.0,0.0,0.0,2.9
São Sebastião do Passé,EBDA,São Sebastião do Passé,São Sebastião do Passé - EBDA,-12.518004,-38.501056,Recôncavo,RPGA do Recôncavo Norte,63.0,29.0,0.0,0.2,0.0,0.0,0.0,0.0,0.0,13.0,0.0,0.0,0.0,29.0,0.0,0.0,4.3,5.0,0.0,2.0,5.0,3.0,0.0,0.0,0.0,0.0,0.0,0.0,0.0,0.0,0.0,153.5
Feira de Santana,Fz.C. Mocó - EBDA,Feira de Santana,Feira de Santana - Fz.C. Mocó - EBDA,-12.267996,-38.967732,Recôncavo,RPGA do Rio Paraguaçu,0.0,0.0,0.0,0.0,0.0,0.0,0.0,0.0,0.0,0.0,0.0,0.0,0.0,0.0,0.0,0.0,0.0,0.0,0.0,0.0,0.0,0.0,0.0,0.0,0.0,0.0,0.0,0.0,0.0,0.0,0.0,0.0
Conceição da Feira,EBDA,Conceição da Feira,Conceição da Feira - EBDA,-12.501335,-39.001068,Recôncavo,RPGA do Recôncavo Norte,0.0,0.0,0.0,0.0,0.0,0.0,0.0,0.0,0.0,0.0,0.0,0.0,0.0,0.0,0.0,0.0,0.0,0.0,0.0,0.0,0.0,0.0,0.0,0.0,0.0,0.0,0.0,0.0,0.0,0.0,0.0,0.0
Valença,A444,Valença,Valença - A444,-13.34361,-39.12667,Recôncavo,RPGA do Recôncavo Sul,33.6,0.0,0.4,0.6,0.2,0.8,5.6,2.2,0.2,2.4,0.2,1.4,7.0,1.0,33.0,14.4,14.6,1.8,1.0,6.0,4.8,4.4,0.2,5.6,1.4,1.4,4.2,0.0,0.2,0.0,1.0,149.6
Mata de São João,ETA - Embasa,Mata de São João,Mata de São João - ETA - Embasa,-12.394946,-37.934649,Recôncavo,RPGA do Recôncavo Norte,17.5,0.0,0.0,0.0,0.0,5.0,8.0,13.7,0.0,0.0,0.0,0.0,0.5,0.0,0.3,12.0,0.0,0.1,0.0,0.0,0.0,0.0,0.0,0.0,0.0,0.0,0.0,0.0,0.0,0.0,0.0,57.1
Candeias,EMBASA,Candeias,Candeias - EMBASA,-12.663561,-38.533,Recôncavo,RPGA do Recôncavo Norte,27.5,33.8,0.3,4.2,0.0,0.0,8.8,1.2,3.9,0.1,0.0,0.0,0.0,0.6,17.3,1.6,9.0,4.2,0.0,0.4,0.0,0.0,1.8,0.0,0.0,0.0,0.0,0.0,0.0,0.0,0.0,114.7
Dias D´Ávila,EMBASA,Dias D´Ávila,Dias D´Ávila - EMBASA,-12.620505,-38.315217,Recôncavo,RPGA do Recôncavo Norte,117.5,20.75,0.0,0.0,0.0,0.25,14.75,2.1,0.0,0.0,0.0,7.0,0.0,3.2,17.2,4.25,9.0,3.25,0.0,0.7,4.5,3.25,0.0,0.7,0.0,0.0,2.3,2.4,0.0,0.0,0.0,213.1
São Sebastião do Passé-EMBASA,,São Sebastião do Passé-EMBASA,São Sebastião do Passé-EMBASA,-12.517449,-38.492165,Recôncavo,RPGA do Recôncavo Norte,46.2,24.3,1.2,0.0,0.0,0.0,0.0,0.0,0.0,0.0,0.0,0.0,0.0,6.6,24.3,3.7,8.6,7.6,0.0,1.9,4.8,0.0,1.5,1.9,0.0,0.0,0.0,0.0,0.0,0.0,0.0,132.6
Joanes II,322,Simões Filho,Simões Filho (Joanes II) - 322,-12.674147,-38.376254,Recôncavo,RPGA do Recôncavo Norte,53.1,48.5,0.0,0.0,0.0,0.6,12.3,5.5,0.0,0.6,0.0,0.8,0.0,0.3,23.4,2.8,6.5,3.8,0.0,1.8,1.9,6.3,0.0,2.2,0.0,1.6,0.0,0.0,0.0,0.0,0.0,172.0
Santa Helena,323,Camaçari,Camaçari (Santa Helena) - 323,-12.56202,-38.1606,Recôncavo,RPGA do Recôncavo Norte,2.0,77.8,0.3,0.0,0.0,0.4,11.8,4.4,10.7,0.0,2.4,0.4,0.3,0.1,4.8,3.4,1.0,7.7,5.1,0.0,8.0,19.9,0.0,1.1,0.1,0.0,2.4,1.0,1.0,0.0,0.0,166.11
Saubara,EBDA,Saubara,Saubara - EBDA,-12.734674,-38.784396,Recôncavo,RPGA do Recôncavo Norte,0.0,0.0,0.0,0.0,0.0,0.0,0.0,0.0,0.0,0.0,0.0,0.0,0.0,0.0,0.0,0.0,0.0,0.0,0.0,0.0,0.0,0.0,0.0,0.0,0.0,0.0,0.0,0.0,0.0,0.0,0.0,0.0
Ondina,83229,Salvador,Salvador (Ondina) - 83229,-13.005278,-38.505833,Recôncavo,RPGA do Recôncavo Norte,5.6,0.0,1.6,0.0,0.0,0.0,8.6,1.8,0.0,0.7,0.0,0.0,0.0,1.0,9.5,9.3,2.8,1.1,0.0,0.9,3.0,0.0,0.8,0.9,2.6,0.0,5.3,3.8,0.9,0.0,0.0,60.2
Itatim,PG-PR-14,Itatim,Itatim - PG-PR-14,-12.720391,-39.700059,Recôncavo,RPGA do Rio Paraguaçu,0.25,0.0,0.0,0.0,0.0,0.0,0.0,0.0,0.0,0.0,0.0,0.0,0.0,0.0,2.5,0.5,0.75,1.25,0.0,0.25,0.0,0.0,0.0,0.0,0.0,0.0,0.0,0.0,0.0,0.0,0.0,5.5
Candeias,EBDA,Candeias,Candeias - EBDA,-12.669116,-38.551612,Recôncavo,RPGA do Recôncavo Norte,0.0,0.0,0.0,0.0,0.0,0.0,0.0,0.0,0.0,0.0,0.0,0.0,0.0,0.0,0.0,0.0,0.0,0.0,0.0,0.0,0.0,0.0,0.0,0.0,0.0,0.0,0.0,0.0,0.0,0.0,0.0,0.0
Centro,292740802A,Salvador,Salvador (Centro) - 292740802A,-12.97821,-38.515945,Recôncavo,RPGA do Recôncavo Norte,5.7,0.0,2.6,0.0,0.0,0.0,11.8,2.6,0.0,2.0,0.2,0.2,0.0,1.0,11.4,9.8,4.6,0.6,0.0,0.0,1.4,0.0,4.3,0.8,2.0,0.2,3.2,12.6,0.0,0.0,0.4,77.4
São tomé de Paripe,292740806A,Salvador,Salvador (São tomé de Paripe) - 292740806A,-12.795508,-38.489389,Recôncavo,RPGA do Recôncavo Norte,25.8,3.8,7.8,1.6,3.2,11.4,8.6,9.6,9.5,0.6,0.0,0.4,0.0,1.0,9.2,3.0,7.8,1.6,1.2,2.8,2.0,3.4,0.0,0.8,0.6,0.0,0.2,2.2,0.0,0.0,0.0,118.1
Federação,292740803A,Salvador,Salvador (Federação) - 292740803A,-13.000791,-38.511056,Recôncavo,RPGA do Recôncavo Norte,5.5,0.0,1.8,0.0,0.0,0.0,7.7,1.8,0.0,0.8,0.0,0.0,0.0,0.6,10.1,8.7,2.6,1.8,0.2,0.8,2.4,0.0,1.0,0.6,1.8,0.4,3.2,3.2,0.2,0.0,0.0,55.2
Cabula,292740810A,Salvador,Salvador (Cabula) - 292740810A,-12.961347,-38.460778,Recôncavo,RPGA do Recôncavo Norte,17.8,3.0,0.0,0.0,0.0,0.0,4.2,1.0,0.0,1.2,0.4,0.0,1.8,5.9,16.3,8.9,6.9,8.7,1.4,0.6,1.4,0.6,0.4,0.2,3.4,0.0,4.4,2.4,0.2,0.0,0.0,91.11
Santanapólis,EBDA,Santanapólis,Santanapólis - EBDA,-12.017992,-38.867729,Recôncavo,RPGA do Recôncavo Norte,0.0,0.0,0.0,0.0,0.0,0.0,0.0,0.0,0.0,0.0,0.0,0.0,0.0,0.0,0.0,0.0,0.0,0.0,0.0,0.0,0.0,0.0,0.0,0.0,0.0,0.0,0.0,0.0,0.0,0.0,0.0,0.0
Nova Esperança,292740818A,Salvador,Salvador (Nova Esperança) - 292740818A,-12.861,-38.368,Recôncavo,RPGA do Recôncavo Norte,57.3,0.8,0.0,0.0,0.0,0.0,14.8,0.6,1.8,1.0,0.0,0.0,0.4,3.2,23.5,8.9,6.9,0.6,3.2,0.6,2.6,2.2,0.0,1.2,0.2,0.0,2.8,1.2,0.0,0.0,0.2,134.0
Caminho das Árvores,292740815A,Salvador,Salvador (Caminho das Árvores) - 292740815A,-12.97718,-38.453834,Recôncavo,RPGA do Recôncavo Norte,4.7,0.4,0.0,0.0,0.0,0.0,4.0,0.6,0.0,0.4,0.2,0.2,2.6,4.5,13.8,4.9,6.3,4.9,0.4,1.2,1.4,0.6,1.0,0.2,2.6,0.0,6.2,2.2,0.0,0.0,0.0,63.31
Águas Claras,292740808A,Salvador,Salvador (Águas Claras) - 292740808A,-12.8944,-38.441889,Recôncavo,RPGA do Recôncavo Norte,24.1,2.0,1.4,0.0,0.0,0.0,8.9,2.2,0.0,1.8,0.0,0.0,0.2,4.6,21.7,9.6,6.7,4.2,3.2,0.4,2.2,0.2,0.4,1.4,0.8,0.0,6.7,3.5,0.0,0.0,0.6,106.81
Alto do Peru,292740812A,Salvador,Salvador (Alto do Peru) - 292740812A,-12.939122,-38.486334,Recôncavo,RPGA do Recôncavo Norte,19.5,3.2,0.0,0.0,0.0,0.0,7.1,3.2,0.0,0.2,1.2,0.0,0.8,4.3,18.1,8.9,8.9,5.7,0.4,0.6,1.4,0.8,0.4,0.0,1.6,0.0,3.2,4.7,0.0,0.0,0.0,94.21
CAB,292740811A,Salvador,Salvador (CAB) - 292740811A,-12.943354,-38.421264,Recôncavo,RPGA do Recôncavo Norte,29.5,0.8,1.2,0.0,0.0,0.0,3.0,1.8,0.0,0.4,0.0,0.6,1.2,2.0,16.2,4.7,5.9,8.3,3.2,1.6,1.2,3.4,1.2,0.0,1.6,0.0,6.0,2.8,0.0,0.0,0.0,96.61
Cosme de Farias,292740816A,Salvador,Salvador (Cosme de Farias) - 292740816A,-12.979402,-38.4855,Recôncavo,RPGA do Recôncavo Norte,5.3,1.0,4.4,0.0,0.0,0.0,8.5,2.8,0.0,0.8,0.2,0.0,0.4,2.8,15.6,7.3,6.3,2.0,1.2,0.0,2.8,0.0,2.0,1.0,1.8,0.0,5.2,3.9,1.0,0.0,0.2,76.5
São Caetano,292740814A,Salvador,Salvador (São Caetano) - 292740814A,-12.939678,-38.474667,Recôncavo,RPGA do Recôncavo Norte,14.4,1.8,0.2,0.0,0.0,0.0,6.1,2.4,0.0,0.2,0.8,0.0,1.8,2.4,16.5,7.7,6.3,6.9,0.6,0.0,1.6,0.4,0.2,0.0,1.6,0.2,3.4,6.7,0.0,0.0,0.0,82.2
Pirajá,292740801A,Salvador,Salvador (Pirajá) - 292740801A,-12.8994,-38.458833,Recôncavo,RPGA do Recôncavo Norte,30.8,0.0,1.4,0.0,0.0,0.0,7.0,3.4,0.6,0.2,0.0,0.8,0.0,1.4,22.3,8.8,8.6,7.6,2.0,3.2,0.6,3.8,0.8,1.2,0.8,0.2,3.0,8.0,0.0,0.0,0.2,116.7
Rio Sena,292740805A,Salvador,Salvador (Rio Sena) - 292740805A,-12.891344,-38.470778,Recôncavo,RPGA do Recôncavo Norte,28.2,0.4,0.4,0.0,0.0,0.0,9.3,5.0,0.0,0.2,0.0,0.8,2.8,2.8,24.9,8.3,9.1,6.9,4.4,0.0,0.4,2.8,0.6,1.8,0.4,0.2,1.6,3.0,0.2,0.0,0.4,114.9
Valéria,292740817A,Salvador,Salvador (Valéria) - 292740817A,-12.8644,-38.438276,Recôncavo,RPGA do Recôncavo Norte,49.7,2.0,0.4,0.0,0.0,0.0,12.1,3.2,0.0,0.0,0.2,1.6,0.2,7.1,21.4,10.0,12.2,1.8,3.9,0.8,1.6,3.6,0.4,4.1,0.2,0.2,2.0,2.4,0.0,0.0,0.2,141.3
Monte Serrat,292740804A,Salvador,Salvador (Monte Serrat) - 292740804A,-12.930789,-38.517167,Recôncavo,RPGA do Recôncavo Norte,30.5,0.8,2.0,0.0,0.0,0.0,6.8,2.0,0.0,5.9,0.0,0.2,0.0,0.2,13.4,7.5,5.9,1.6,0.0,0.2,0.8,0.2,0.0,0.0,1.4,0.2,0.2,7.0,2.4,0.0,0.4,89.61
Santa Terezinha,290650105A,Candeias,Candeias (Santa Terezinha) - 290650105A,-12.647172,-38.539112,Recôncavo,RPGA do Recôncavo Norte,48.6,14.8,8.5,1.9,0.0,0.0,10.1,3.4,0.2,0.2,0.0,0.8,0.0,1.8,13.8,4.6,6.5,3.5,0.0,0.8,2.2,0.2,1.6,2.8,1.0,0.4,0.2,0.2,1.5,0.0,0.0,129.6
Centro,290650101A,Candeias,Candeias (Centro) - 290650101A,-12.670229,-38.544112,Recôncavo,RPGA do Recôncavo Norte,42.2,1.0,1.0,0.0,0.0,0.0,10.5,2.0,0.0,0.2,0.0,0.0,0.0,1.8,18.7,3.7,11.8,3.6,0.2,0.8,3.0,0.8,0.8,2.2,0.2,0.6,0.8,0.8,0.0,0.0,0.0,106.7
Malemba,290650102A,Candeias,Candeias (Malemba) - 290650102A,-12.678285,-38.544112,Recôncavo,RPGA do Recôncavo Norte,33.9,6.3,0.6,0.0,0.0,0.0,11.4,2.4,0.0,0.0,0.0,0.0,0.0,2.2,22.1,4.6,11.3,2.2,0.2,1.6,2.0,0.6,3.2,2.0,0.4,0.6,0.8,0.8,0.0,0.0,0.0,109.2
Salvador,Itapuã - RN-CL-01,Salvador,Salvador - Itapuã - RN-CL-01,-12.931388,-38.361111,Recôncavo,RPGA do Recôncavo Norte,30.8,1.3,0.4,0.0,0.0,0.0,6.3,0.5,0.6,0.7,0.1,0.0,0.7,3.4,18.8,5.2,9.9,3.8,3.1,0.4,1.3,0.9,0.1,0.5,1.8,0.0,5.1,1.2,0.1,0.0,0.1,97.1
Santo Antônio,290650103A,Candeias,Candeias (Santo Antônio) - 290650103A,-12.678285,-38.536056,Recôncavo,RPGA do Recôncavo Norte,0.0,0.0,0.0,0.0,0.0,0.0,0.0,0.0,0.0,0.0,0.0,0.0,0.0,0.0,9.8,0.0,0.0,0.0,0.0,0.2,3.4,0.4,0.4,2.4,0.0,0.6,0.8,0.4,0.0,0.0,0.0,18.41
Sarandi,290650104A,Candeias,Candeias (Sarandi) - 290650104A,-12.671341,-38.531056,Recôncavo,RPGA do Recôncavo Norte,42.0,7.9,2.8,0.0,0.0,0.0,10.9,2.8,0.0,0.6,0.0,0.0,0.0,2.6,16.7,3.0,7.1,2.6,0.6,0.6,2.6,0.6,2.2,1.6,0.4,0.4,1.0,0.8,0.0,0.0,0.2,110.0
Areia Branca,291920706A,Lauro de Freitas,Lauro de Freitas (Areia Branca) - 291920706A,-12.841,-38.337,Recôncavo,RPGA do Recôncavo Norte,42.5,2.6,0.0,0.0,0.0,0.0,12.1,2.6,0.0,0.0,0.0,0.0,0.2,5.5,26.0,5.5,3.5,0.2,0.6,0.4,0.6,0.0,0.0,2.0,0.0,1.0,2.8,2.2,0.0,0.0,0.0,110.3
Itinga,291920703A,Lauro de Freitas,Lauro de Freitas (Itinga) - 291920703A,-12.892,-38.336,Recôncavo,RPGA do Recôncavo Norte,57.2,0.2,0.0,0.0,0.0,0.0,11.7,1.2,0.0,0.0,0.0,1.4,2.2,5.5,27.4,5.5,6.1,0.0,3.2,0.8,0.0,0.4,0.0,0.8,0.4,0.0,5.6,5.7,0.0,0.0,0.0,135.3
Itinga 02,291920704A,Lauro de Freitas,Lauro de Freitas (Itinga 02) - 291920704A,-12.89,-38.353,Recôncavo,RPGA do Recôncavo Norte,54.9,0.0,0.0,0.0,0.0,0.0,18.3,0.4,0.0,0.2,0.0,2.6,1.0,4.9,31.1,9.3,6.3,1.6,1.4,0.2,2.0,0.0,0.0,0.8,0.4,0.0,4.0,7.3,0.0,0.0,0.6,147.3
Vila Praiana,291920702A,Lauro de Freitas,Lauro de Freitas (Vila Praiana) - 291920702A,-12.901,-38.308,Recôncavo,RPGA do Recôncavo Norte,64.7,0.0,0.0,0.0,0.0,0.0,5.9,0.0,0.0,0.0,0.0,2.2,0.6,6.7,23.5,4.5,5.1,0.2,4.3,0.0,2.4,0.2,0.0,0.2,0.2,0.0,1.0,1.4,0.0,0.0,0.0,123.11
Portão,291920701A,Lauro de Freitas,Lauro de Freitas (Portão) - 291920701A,-12.87,-38.305,Recôncavo,RPGA do Recôncavo Norte,58.0,1.4,0.0,0.0,0.0,0.0,7.5,1.2,0.0,0.0,1.0,1.0,0.0,7.7,22.9,4.5,3.2,0.0,0.2,0.2,0.4,0.0,0.0,1.6,0.0,0.0,6.4,5.9,0.0,0.0,0.0,123.11
Muritiba,PG-PR-12,Muritiba,Muritiba - PG-PR-12,-12.617895,-39.005591,Recôncavo,RPGA do Rio Paraguaçu,12.25,0.25,0.0,0.0,0.0,0.0,13.25,1.25,0.0,0.5,0.25,0.0,0.25,0.0,13.75,13.5,3.5,4.75,0.5,1.0,0.5,0.5,0.25,1.75,0.75,0.0,0.0,0.0,0.0,0.0,0.5,69.25
Dois de Julho,291120401A,Gandú,Gandú (Dois de Julho) - 291120401A,-13.741357,-39.48303,Recôncavo,RPGA do Recôncavo Sul,0.0,0.0,0.0,0.0,0.0,19.5,2.6,0.2,0.0,0.2,1.2,0.2,2.8,0.0,8.0,1.0,1.6,0.4,0.2,2.6,5.4,0.0,0.0,0.0,0.4,0.4,0.4,0.8,0.0,0.0,0.4,48.3
Centro,292060101A,Maragogipe,Maragogipe (Centro) - 292060101A,-12.78,-38.917,Recôncavo,RPGA do Rio Paraguaçu,28.2,0.0,0.0,0.0,0.0,0.0,18.9,0.6,0.0,0.4,1.8,0.0,1.8,0.0,12.3,8.3,7.2,0.8,1.4,1.2,1.8,2.0,0.2,0.8,1.0,0.8,0.6,0.0,0.0,0.0,0.2,90.3
Centro,292250801A,Nazaré,Nazaré (Centro) - 292250801A,-13.032,-39.015,Recôncavo,RPGA do Recôncavo Sul,37.6,0.0,0.0,0.0,0.0,0.0,13.8,1.0,0.8,2.4,2.8,0.0,2.4,0.8,12.4,14.8,9.4,5.6,3.4,8.4,3.4,4.6,1.2,0.2,0.8,0.8,0.6,0.2,0.0,0.0,0.0,127.4
Rua São Roque,293290301A,Valença,Valença (Rua São Roque) - 293290301A,-13.363,-39.078,Recôncavo,RPGA do Recôncavo Sul,34.6,0.0,1.8,0.0,0.0,0.0,6.2,1.0,0.8,0.2,0.0,0.4,3.4,0.0,39.4,10.3,12.3,1.4,1.8,9.3,0.0,1.2,0.4,0.2,2.4,0.2,3.0,0.0,0.0,0.0,0.0,130.3
Coração de Maria,EBDA,Coração de Maria,Coração de Maria - EBDA,-12.234663,-38.751059,Recôncavo,RPGA do Recôncavo Norte,4.9,0.0,0.0,0.0,0.0,7.8,2.7,0.8,0.0,0.0,0.0,0.0,0.5,16.2,5.7,8.0,8.0,1.6,4.9,0.5,0.0,0.0,0.0,0.6,0.0,0.0,0.0,0.0,0.0,0.0,0.0,62.2
Irará,EBDA,Irará,Irará - EBDA,-12.034659,-38.767726,Recôncavo,RPGA do Recôncavo Norte,0.0,0.0,0.0,0.0,0.0,0.0,0.0,0.0,0.0,0.0,0.0,0.0,0.0,0.0,0.0,0.0,0.0,0.0,0.0,0.0,0.0,0.0,0.0,0.0,0.0,0.0,0.0,0.0,0.0,0.0,0.0,0.0
Santo Amaro,EBDA,Santo Amaro,Santo Amaro - EBDA,-12.551335,-38.701059,Recôncavo,RPGA do Recôncavo Norte,12.7,7.0,0.0,0.0,0.0,34.0,0.0,0.0,0.0,0.0,0.0,0.0,0.0,0.0,0.4,0.0,13.8,3.0,2.3,0.0,0.0,0.0,0.0,0.0,0.0,0.0,0.0,0.0,0.0,0.0,0.0,73.2
Conceição de Jacuípe,EBDA,Conceição de Jacuípe,Conceição de Jacuípe - EBDA,-12.317998,-38.767728,Recôncavo,RPGA do Recôncavo Norte,0.0,0.0,0.0,5.0,5.0,0.0,13.5,0.0,0.0,0.0,0.0,0.0,0.0,21.0,5.0,18.0,0.0,8.0,5.0,0.0,0.0,0.0,0.0,0.0,0.0,0.0,0.0,0.0,0.0,0.0,0.0,80.5
Aramari,EBDA,Aramari,Aramari - EBDA,-12.08466,-38.501053,Recôncavo,RPGA do Recôncavo Norte,5.2,5.0,0.0,0.0,0.0,12.4,0.2,1.4,0.0,0.0,1.0,1.0,2.0,9.4,0.0,0.0,0.0,0.0,0.0,0.0,0.0,0.0,0.0,0.0,0.0,0.0,0.0,0.0,0.0,0.0,0.0,37.6
Feira de Santana,EBDA,Feira de Santana,Feira de Santana - EBDA,-12.268274,-38.96801,Recôncavo,RPGA do Rio Paraguaçu,0.0,0.0,4.9,0.0,0.0,9.2,0.0,0.0,0.0,0.0,0.0,0.0,0.0,12.9,4.5,5.2,3.5,8.9,0.0,2.6,0.0,0.0,0.0,0.6,0.0,0.0,0.0,0.0,0.0,0.0,0.0,52.31
Abaeté,RN-PR-01,Salvador,Salvador (Abaeté) - RN-PR-01,-12.945407,-38.361404,Recôncavo,RPGA do Recôncavo Norte,17.4,0.2,1.3,0.0,0.0,0.0,0.0,0.0,0.0,0.0,0.0,0.0,0.0,3.0,16.6,0.0,16.0,2.2,4.8,0.0,0.0,0.0,0.0,0.0,2.8,0.0,8.0,0.0,0.0,0.0,0.0,72.3
Rio Seco,EBDA,Amélia Rodrigues,Amélia Rodrigues (Rio Seco) - EBDA,-12.400777,-38.758839,Recôncavo,RPGA do Recôncavo Norte,2.6,0.0,0.0,0.0,0.0,22.6,3.0,2.5,0.0,2.4,0.0,0.0,0.0,25.0,7.5,12.5,7.4,2.0,5.0,0.0,3.0,0.0,0.0,1.0,0.0,0.0,0.0,0.0,0.0,0.0,0.0,96.5
Espinheira,,Espinheira,Espinheira,-14.283478,-41.75792,Sudoeste,RPGA do Rio de Contas,0.0,0.0,0.0,0.0,0.0,0.0,0.0,0.0,0.0,0.0,0.0,0.0,0.0,0.0,0.0,0.0,0.0,0.0,0.0,0.0,0.0,0.0,0.0,0.0,0.0,0.0,0.0,0.0,0.0,0.0,0.0,0.0
Maracás,EBDA,Maracás,Maracás - EBDA,-13.43468,-40.434443,Sudoeste,RPGA do Rio de Contas,0.0,0.0,0.0,0.0,0.0,0.0,0.0,0.0,0.0,0.0,0.0,0.0,0.0,0.0,0.0,0.0,0.0,0.0,0.0,0.0,0.0,0.0,0.0,0.0,0.0,0.0,0.0,0.0,0.0,0.0,0.0,0.0
Itiruçu,A407,Itiruçu,Itiruçu - A407,-13.52629,-40.12055,Sudoeste,RPGA do Recôncavo Sul,0.0,0.0,0.0,0.2,0.0,1.8,7.2,0.0,0.0,1.6,0.8,0.2,0.4,0.0,1.0,2.2,3.4,3.8,0.2,4.6,0.6,0.0,0.2,0.2,1.4,0.4,0.8,0.0,0.0,0.0,0.0,31.0
Vitória da Conquista,A414,Vitória da Conquista,Vitória da Conquista - A414,-14.886428,-40.80133,Sudoeste,RPGA do Rio Pardo,0.8,0.2,0.0,0.2,0.0,1.4,0.0,0.0,0.0,0.2,0.0,0.2,0.2,0.0,0.0,0.6,0.8,0.4,0.0,0.0,0.0,0.0,0.0,0.0,0.0,0.0,0.0,0.0,0.0,0.0,0.0,5.01
Ituaçu,83292,Ituaçu,Ituaçu - 83292,-13.812778,-41.3,Sudoeste,RPGA do Rio de Contas,0.0,0.0,0.0,0.0,0.0,0.0,0.0,0.0,0.0,0.0,0.0,0.0,0.0,0.0,0.0,0.0,0.0,0.0,0.0,0.0,0.0,0.0,0.0,0.0,0.0,0.0,0.0,0.0,0.0,0.0,0.0,0.0
Vitória da Conquista,83344,Vitória da Conquista,Vitória da Conquista - 83344,-14.883333,-40.8,Sudoeste,RPGA do Rio Pardo,1.1,0.1,0.0,0.0,0.0,1.8,0.0,0.0,0.0,0.0,0.0,0.3,0.0,0.0,0.0,0.6,0.4,0.5,0.0,0.0,0.0,0.0,0.0,0.0,0.0,0.0,0.0,0.0,0.0,0.0,0.0,4.8
Jaguaquara,83295,Ituruçu,Ituruçu (Jaguaquara) - 83295,-13.527828,-40.119752,Sudoeste,RPGA do Recôncavo Sul,0.0,0.0,0.0,0.0,0.0,2.5,6.9,0.0,0.0,1.6,0.8,0.4,0.0,0.0,0.7,2.8,3.5,3.8,0.0,4.5,0.6,0.0,0.0,0.0,1.4,0.0,0.6,0.0,0.0,0.0,0.0,30.1
Brumado,A433,Brumado,Brumado - A433,-14.181886,-41.672281,Sudoeste,RPGA do Rio de Contas,0.0,0.0,0.0,0.0,0.0,0.0,0.0,0.0,0.0,0.0,0.0,0.0,0.0,0.0,0.0,0.0,0.2,0.0,0.0,0.0,0.0,0.0,0.0,0.0,0.0,0.0,0.0,0.0,0.0,0.0,0.0,0.2
Jequié,EBDA,Jequié,Jequié - EBDA,-13.851356,-40.084435,Sudoeste,RPGA do Rio de Contas,0.0,0.0,0.0,0.0,0.0,0.0,0.0,0.0,0.0,0.0,0.0,0.0,0.0,0.0,2.5,0.0,2.5,1.0,3.0,0.0,0.0,0.0,0.0,0.0,0.0,0.0,0.0,0.0,0.0,0.0,0.0,9.0
Ipiaú,A445,Ipiaú,Ipiaú - A445,-14.171304,-39.692502,Sudoeste,RPGA do Rio de Contas,0.8,0.0,0.0,0.2,0.0,0.2,0.4,0.0,0.2,0.6,0.2,0.6,2.2,0.2,1.6,2.0,5.4,5.2,2.0,0.4,0.2,0.0,0.4,0.4,1.8,4.8,0.4,0.0,0.0,0.2,1.0,31.4
Itapetinga,A446,Itapetinga,Itapetinga - A446,-15.24462,-40.22955,Sudoeste,RPGA do Rio Pardo,0.2,0.2,0.0,0.2,0.0,0.4,0.0,0.0,0.0,0.0,0.4,2.2,0.0,0.0,0.0,1.2,0.0,0.0,0.0,0.0,0.0,0.0,0.0,0.4,0.2,1.4,0.0,0.0,0.0,0.2,2.4,9.4
Itiruçu,EBDA,Itiruçu,Itiruçu - EBDA,-13.534683,-40.151101,Sudoeste,RPGA do Rio de Contas,0.0,0.0,0.0,12.0,0.0,0.0,0.0,0.0,0.0,0.0,0.0,0.0,0.0,0.0,0.0,0.0,0.0,0.0,0.0,0.0,0.0,10.0,5.0,0.0,0.0,0.0,0.0,0.0,0.0,0.0,0.0,27.0
Ipiaú,EBDA,Ipiaú,Ipiaú - EBDA,-14.134698,-39.734428,Sudoeste,RPGA do Rio de Contas,1.9,0.0,0.0,0.4,0.0,0.0,0.4,0.0,0.0,0.9,0.0,0.4,0.7,0.0,1.3,1.5,3.4,3.9,4.7,2.3,0.0,0.0,0.0,0.0,2.5,7.3,1.2,0.0,0.0,0.0,0.8,33.6
Jaguaquara,EBDA,Jaguaquara,Jaguaquara - EBDA,-13.534684,-39.984431,Sudoeste,RPGA do Recôncavo Sul,0.0,0.0,0.0,0.0,0.0,4.5,0.0,0.0,0.5,0.0,0.0,1.0,0.0,2.0,3.5,5.0,1.5,1.0,3.5,0.5,1.0,0.0,0.0,0.0,2.0,0.5,0.0,0.0,0.0,0.0,0.0,26.5
Lajedo do Tabocal,EBDA,Lajedo do Tabocal,Lajedo do Tabocal - EBDA,-13.47635,-40.22416,Sudoeste,RPGA do Rio de Contas,0.0,0.0,0.0,0.0,0.0,0.0,10.0,0.0,0.0,0.0,0.0,0.0,0.0,0.0,15.0,0.0,0.0,0.0,0.0,0.0,0.0,0.0,0.0,0.0,5.0,0.0,0.0,0.0,0.0,0.0,0.0,30.0
Itaquara,EBDA,Itaquara,Itaquara - EBDA,-13.452183,-39.942209,Sudoeste,RPGA do Recôncavo Sul,0.0,0.0,0.0,0.0,0.0,8.0,0.0,0.0,0.0,5.5,0.0,5.0,0.0,3.0,3.0,0.0,0.0,5.0,0.0,8.0,0.0,0.0,0.0,0.0,0.0,0.0,0.0,0.0,0.0,2.0,0.0,39.5
Anagé,CO-CL-01,Anagé,Anagé - CO-CL-01,-14.618055,-41.149722,Sudoeste,RPGA do Rio de Contas,0.0,0.0,0.0,0.0,0.0,0.0,0.0,0.0,0.0,0.0,0.0,0.0,0.0,0.0,0.0,0.0,0.0,0.0,0.0,0.0,0.0,0.0,0.0,0.0,0.0,0.0,0.0,0.0,0.25,0.0,0.0,0.25
Brumado,CO-CL-02,Brumado,Brumado - CO-CL-02,-14.207222,-41.778055,Sudoeste,RPGA do Rio de Contas,0.0,0.0,0.0,0.0,0.0,0.0,0.0,0.0,0.0,0.0,0.0,0.0,0.0,0.0,0.0,0.0,0.0,0.0,0.0,0.0,0.0,0.0,0.0,0.0,0.0,0.0,0.0,0.0,0.0,0.0,0.0,0.0
Planaltino,PG-PR-03,Planaltino,Planaltino - PG-PR-03,-13.259292,-40.373976,Sudoeste,RPGA do Recôncavo Sul,0.0,0.0,0.0,0.0,0.0,0.25,4.75,0.0,0.0,0.0,0.0,0.25,0.25,0.0,0.0,0.0,0.0,0.25,0.0,0.0,0.0,0.0,0.0,0.0,0.0,0.0,0.25,0.0,0.0,0.0,0.0,6.0
Centro,293330701A,Vitória da Conquista,Vitória da Conquista (Centro) - 293330701A,-14.852,-40.839,Sudoeste,RPGA do Rio Pardo,0.2,0.0,0.0,0.0,0.0,0.0,0.2,0.0,0.0,0.0,0.0,0.0,0.0,0.0,0.0,0.4,0.6,0.0,0.0,0.0,0.0,0.0,0.0,0.0,0.0,0.0,0.0,0.0,0.0,0.0,0.0,1.4
Clerolândia,291640101A,Itapetinga,Itapetinga (Clerolândia) - 291640101A,-15.243,-40.221,Sudoeste,RPGA do Rio Pardo,0.0,0.0,0.0,0.0,0.0,0.2,0.0,0.0,0.0,0.0,0.0,1.2,0.2,0.0,0.0,0.6,0.2,0.0,0.0,0.0,0.0,0.0,0.0,0.0,0.0,0.2,0.0,0.0,0.0,0.0,1.4,4.0
Recreio,293330702A,Vitória da Conquista,Vitória da Conquista (Recreio) - 293330702A,-14.861,-40.841,Sudoeste,RPGA do Rio Pardo,0.4,0.0,0.0,0.0,0.0,0.2,0.2,0.0,0.0,0.0,0.0,0.0,0.0,0.0,0.0,0.2,0.4,0.0,0.0,0.0,0.0,0.0,0.0,0.0,0.0,0.0,0.0,0.0,0.0,0.0,0.0,1.4
Patagônia,293330704A,Vitória da Conquista,Vitória da Conquista (Patagônia) - 293330704A,-14.87,-40.863,Sudoeste,RPGA do Rio Pardo,0.0,0.4,0.0,0.0,0.0,0.0,0.6,0.0,0.0,0.0,0.0,0.0,0.0,0.0,0.0,0.2,0.0,0.0,0.0,0.0,0.0,0.0,0.0,0.0,0.0,0.0,0.0,0.0,0.0,0.0,0.0,1.2
Barcelar,293330705A,Vitória da Conquista,Vitória da Conquista (Barcelar) - 293330705A,-14.838,-40.856,Sudoeste,RPGA do Rio Pardo,0.0,0.0,0.0,0.0,0.0,0.2,0.2,0.0,0.0,0.0,0.0,0.2,0.0,0.0,0.0,0.0,0.2,0.0,0.0,0.0,0.0,0.0,0.0,0.0,0.0,0.0,0.0,0.0,0.0,0.0,0.0,0.8
Jaguaquara,RS-CL-01,Jaguaquara,Jaguaquara - RS-CL-01,-13.573055,-39.940833,Sudoeste,RPGA do Recôncavo Sul,0.75,0.0,0.0,0.0,0.0,4.5,5.0,0.0,0.0,1.25,0.25,1.25,2.0,0.0,7.0,3.0,9.0,2.0,0.0,5.5,1.25,0.0,0.0,1.0,0.5,2.0,1.25,0.0,0.0,0.0,0.25,47.75
Jequié,CO-CL-03,Jequié,Jequié - CO-CL-03,-13.873055,-40.071944,Sudoeste,RPGA do Rio de Contas,0.0,0.0,0.0,0.0,0.0,0.0,0.25,0.0,0.0,0.0,0.0,0.0,0.0,0.0,0.0,0.5,3.5,0.0,0.0,2.5,0.0,0.0,0.0,0.0,0.0,0.0,0.0,0.0,0.0,0.0,0.0,6.75
Vitória da Conquista,PA-CL-01,Vitória da Conquista,Vitória da Conquista - PA-CL-01,-14.886111,-40.800833,Sudoeste,RPGA do Rio Pardo,4.5,0.0,0.0,0.0,0.0,1.25,0.0,0.0,0.0,0.0,0.0,0.0,0.0,0.0,0.0,0.0,0.5,0.25,0.0,0.0,0.0,0.0,0.0,0.0,0.0,0.0,0.0,0.0,0.0,0.0,0.0,6.5
Tremedal,CO-PR-03,Tremedal,Tremedal - CO-PR-03,-14.980998,-41.410135,Sudoeste,RPGA do Rio de Contas,0.0,0.0,0.0,0.0,0.0,0.0,0.0,0.0,0.0,0.0,0.0,0.0,0.0,0.0,0.0,0.0,0.0,0.0,0.0,0.0,0.0,0.0,0.0,0.0,0.0,0.0,0.0,0.0,0.0,0.0,0.0,0.0
Fz Nanci,53880000,Camacã,Camacã (Fz Nanci) - 53880000,-15.581395,-39.521095,Sul,RPGA do Rio Pardo,0.0,0.0,0.0,0.0,0.0,0.0,0.0,0.0,0.0,0.0,1.0,0.0,0.0,0.0,0.0,0.0,0.0,0.0,0.0,1.0,0.0,2.0,0.0,0.0,2.0,0.0,0.0,0.0,0.0,2.0,5.0,13.0
Caravelas,A405,Caravelas,Caravelas - A405,-17.739413,-39.258617,Sul,"RPGA dos Rios Peruípe, Itanhém e Jucuruçu",2.2,0.2,0.0,0.2,0.2,0.6,0.0,0.0,0.0,0.2,0.0,1.8,0.2,0.2,2.4,3.0,19.4,0.8,0.8,0.0,0.0,0.0,0.2,0.0,0.0,0.0,0.0,0.0,0.6,23.6,0.2,56.81
Ilhéus,A410,Ilhéus,Ilhéus - A410,-14.658803,-39.181438,Sul,RPGA do Leste,0.0,0.0,0.2,0.2,0.6,4.0,0.0,0.0,0.0,2.2,3.2,2.2,1.6,0.6,0.0,2.2,7.8,0.6,0.4,4.0,0.0,0.2,0.8,0.2,2.0,7.4,2.6,3.4,0.0,0.2,2.0,48.6
Canavieiras,83398,Canavieiras,Canavieiras - 83398,-15.666667,-38.95,Sul,RPGA do Rio Pardo,1.7,0.0,0.0,0.0,0.0,0.0,0.0,0.0,0.0,0.9,0.6,4.0,0.0,0.0,1.6,5.4,0.8,1.1,0.0,0.0,0.0,0.8,0.0,0.0,1.5,0.0,0.0,0.0,0.7,1.4,5.2,25.7
Caravelas,83498,Caravelas,Caravelas - 83498,-17.739167,-39.258333,Sul,"RPGA dos Rios Peruípe, Itanhém e Jucuruçu",0.8,0.0,0.0,0.0,0.0,0.3,0.0,0.0,0.0,0.0,0.0,1.6,0.0,0.0,3.0,2.6,18.0,0.5,0.6,0.0,0.0,0.0,0.0,0.0,0.0,0.0,0.0,0.0,0.6,21.2,0.0,49.2
Guaratinga,83446,Guaratinga,Guaratinga - 83446,-16.58,-39.78,Sul,"RPGA dos Rios dos Frades, Buranhém e Santo Antônio",3.2,0.0,0.0,0.0,0.0,0.2,0.0,0.0,0.0,0.0,0.0,1.2,0.6,0.0,0.0,0.2,1.5,0.0,1.2,0.0,4.4,0.0,0.0,0.0,0.0,0.0,0.0,0.0,0.0,0.0,5.8,18.3
Maraú,A438,Maraú,Maraú - A438,-13.90694,-38.97222,Sul,RPGA do Recôncavo Sul,3.4,0.0,0.2,0.2,0.0,3.8,44.0,1.0,0.4,4.2,20.2,1.2,5.6,0.2,26.6,6.4,3.4,3.0,7.2,5.2,7.2,0.2,0.0,0.0,14.0,0.2,3.8,0.2,0.0,0.0,0.0,161.8
Una,A437,Una,Una - A437,-15.280215,-39.09127,Sul,RPGA do Leste,0.0,0.0,0.0,0.0,0.0,0.0,0.0,0.0,0.0,0.0,0.0,0.0,0.0,0.0,0.0,0.0,0.0,0.0,0.0,0.0,0.0,0.0,0.0,0.0,0.0,0.0,0.0,0.0,0.0,0.0,0.0,0.0
Porto Seguro,A427,Porto Seguro,Porto Seguro - A427,-16.388977,-39.182389,Sul,"RPGA dos Rios dos Frades, Buranhém e Santo Antônio",0.4,2.0,2.2,2.2,1.8,1.2,0.6,0.8,0.4,0.4,0.2,0.4,0.4,0.4,0.8,0.4,0.6,0.4,0.4,0.4,0.2,0.4,0.2,0.2,0.0,0.0,0.2,0.0,0.0,0.0,0.0,17.6
Abrolhos,A422,Caravelas,Caravelas (Abrolhos) - A422,-17.79052,-39.22789,Sul,"RPGA dos Rios Peruípe, Itanhém e Jucuruçu",0.4,0.0,0.0,0.0,0.0,0.0,0.2,0.0,0.0,0.0,0.0,4.0,0.0,0.0,1.0,1.2,1.8,1.8,0.0,0.0,0.0,0.0,0.0,0.0,0.0,0.0,0.0,0.0,0.0,5.2,0.4,16.0
Belmonte,A447,Belmonte,Belmonte - A447,-16.08487,-39.21726,Sul,"RPGA dos Rios dos Frades, Buranhém e Santo Antônio",2.2,0.0,0.0,0.4,0.0,5.0,0.0,0.2,0.2,1.8,2.6,1.2,0.0,0.2,0.0,0.4,0.2,2.0,1.2,1.8,0.4,9.6,0.2,0.2,0.0,0.0,0.2,0.0,0.2,2.4,7.8,40.4
CPLAC,LE-CL-01,Ilhéus,Ilhéus (CPLAC) - LE-CL-01,-14.80184,-39.181444,Sul,RPGA do Leste,0.0,0.0,0.0,0.0,0.0,1.0,0.0,0.0,0.0,2.75,1.0,0.25,0.25,0.0,0.0,0.5,12.5,0.0,0.5,0.75,0.0,0.0,5.5,0.75,1.0,3.25,2.0,1.0,0.0,0.0,1.5,34.5
Centro,290560201A,Camacan,Camacan (Centro) - 290560201A,-15.422225,-39.494984,Sul,RPGA do Rio Pardo,0.4,0.0,0.0,0.0,0.0,0.0,0.2,0.0,0.0,0.0,3.2,0.0,0.0,0.0,0.2,2.2,0.2,1.8,0.2,9.9,0.2,2.4,0.2,0.2,2.8,4.9,0.2,0.6,0.0,0.2,5.7,35.7
Teixeira de Freitas,PJ-CL-01,Teixeira de Freitas,Teixeira de Freitas - PJ-CL-01,-17.575555,-39.732777,Sul,"RPGA dos Rios Peruípe, Itanhém e Jucuruçu",3.5,0.0,0.0,0.0,0.0,0.0,0.0,0.0,0.0,0.0,0.0,0.5,0.75,0.25,0.5,2.25,15.5,11.75,1.5,3.75,0.25,0.0,0.0,0.0,0.0,0.0,0.0,0.0,0.0,0.5,0.0,41.0
Itabuna,Fazenda Barra,Itabuna,Itabuna - Fazenda Barra,-14.8997,-39.3686,Sul,RPGA do Leste,1.0,0.0,0.0,0.0,0.2,0.6,0.0,0.0,0.0,1.8,2.0,0.6,0.4,0.0,0.2,1.6,0.8,0.2,0.0,3.6,0.0,0.0,4.8,0.2,1.2,1.8,0.0,4.2,0.0,0.0,0.2,25.4
Centro,290340901A,Belmonte,Belmonte (Centro) - 290340901A,-15.859179,-38.878025,Sul,RPGA do Rio Jequitinhonha,0.6,0.0,0.0,0.0,0.0,0.0,0.0,0.0,0.2,3.2,7.2,0.6,0.0,0.0,1.6,0.6,0.0,0.4,0.0,1.2,2.6,0.2,0.0,0.0,0.8,0.0,0.0,0.8,0.0,3.4,4.6,28.0
São João do Panelinha,290560202A,Camacan,Camacan (São João do Panelinha) - 290560202A,-15.375278,-39.489984,Sul,RPGA do Rio Pardo,0.0,0.0,0.0,0.0,0.0,0.0,0.0,0.0,0.0,3.4,6.8,0.6,0.0,0.0,0.0,3.4,0.8,0.4,0.0,1.2,1.0,1.0,0.0,0.0,5.0,4.4,0.0,0.0,0.0,0.0,2.8,30.8
Centro,290560203A,Camacan,Camacan (Centro) - 290560203A,-15.416389,-39.493873,Sul,RPGA do Rio Pardo,0.0,0.0,0.0,0.0,0.0,0.0,0.0,0.0,0.0,0.0,2.8,0.2,0.0,0.0,0.0,1.9,1.2,2.2,0.0,12.2,1.6,2.4,0.2,0.0,3.6,6.0,0.0,0.4,0.0,0.0,7.5,42.2
Conquista,291360601A,Ilhéus,Ilhéus (Conquista) - 291360601A,-14.797213,-39.04608,Sul,RPGA do Leste,0.6,0.0,0.0,0.0,0.0,7.7,0.0,0.0,0.0,8.8,1.2,0.6,5.0,0.0,1.0,1.8,5.6,7.5,2.2,2.0,0.0,0.0,7.4,0.2,11.6,0.0,0.8,0.0,0.0,0.0,0.6,64.61
Malhado,291360602A,Ilhéus,Ilhéus (Malhado) - 291360602A,-14.789158,-39.048858,Sul,RPGA do Leste,1.0,0.0,0.0,0.0,0.0,7.5,0.0,0.0,0.0,8.3,0.6,0.4,4.6,0.2,1.0,1.4,7.1,5.6,2.2,0.8,0.0,0.0,4.7,0.2,7.9,0.4,0.2,0.0,0.0,0.0,1.2,55.31
São Caetano,291480202A,Itabuna,Itabuna (São Caetano) - 291480202A,-14.80638,-39.27803,Sul,RPGA do Leste,0.4,0.0,0.0,0.0,0.0,0.6,0.0,0.0,0.0,1.0,5.8,0.4,0.0,0.0,0.0,0.8,1.8,0.0,0.0,2.0,0.4,0.0,7.7,0.4,3.0,4.0,0.6,5.5,0.2,0.0,2.4,37.01
Nova Ferradas,291480203A,Itabuna,Itabuna (Nova Ferradas) - 291480203A,-14.857213,-39.346922,Sul,RPGA do Leste,2.0,0.4,0.0,0.0,0.0,2.4,0.0,0.0,0.0,0.4,1.4,0.8,0.2,0.0,0.0,0.9,1.2,0.2,0.0,3.8,0.0,0.2,7.3,0.4,1.4,2.8,0.0,1.6,0.2,0.0,0.2,27.8
Planalto I,292110401A,Medeiros Neto,Medeiros Neto (Planalto I) - 292110401A,-17.365,-40.223,Sul,"RPGA dos Rios Peruípe, Itanhém e Jucuruçu",2.0,0.2,0.0,0.0,0.0,0.0,0.0,0.0,0.0,0.0,0.0,0.0,0.0,0.0,1.8,3.3,10.7,1.2,4.2,0.0,0.8,0.0,0.0,0.0,0.0,0.8,0.6,0.0,0.0,0.2,0.0,25.8
Centro,292300102A,Nova Viçosa,Nova Viçosa (Centro) - 292300102A,-17.893,-39.372,Sul,"RPGA dos Rios Peruípe, Itanhém e Jucuruçu",0.2,0.0,0.0,0.0,0.0,0.0,0.0,0.0,0.0,0.0,0.6,0.2,0.0,0.0,7.7,9.1,2.8,7.5,1.6,0.0,0.0,0.0,1.2,0.2,0.8,0.0,0.0,0.0,0.2,9.9,0.0,42.0
Posto da Mata,292300103A,Nova Viçosa,Nova Viçosa (Posto da Mata) - 292300103A,-17.896,-39.37,Sul,"RPGA dos Rios Peruípe, Itanhém e Jucuruçu",0.0,0.0,0.0,0.0,0.0,0.0,0.0,0.0,0.0,0.0,0.0,0.0,0.0,0.0,7.3,9.6,1.8,8.7,1.6,0.2,0.0,0.0,0.0,0.0,0.0,0.0,0.0,0.0,0.2,9.7,0.0,39.1
Areião,292530301A,Porto Seguro,Porto Seguro (Areião) - 292530301A,-16.441,-39.076,Sul,"RPGA dos Rios dos Frades, Buranhém e Santo Antônio",15.5,0.0,0.0,0.0,0.0,1.8,0.4,0.2,0.0,1.8,3.8,0.6,0.0,0.0,0.0,0.0,1.4,9.5,0.8,0.0,0.0,1.2,0.0,0.0,2.0,0.2,0.0,0.0,0.0,3.6,0.0,42.81
Paraguai,292530302A,Porto Seguro,Porto Seguro (Paraguai) - 292530302A,-16.41,-39.08,Sul,"RPGA dos Rios dos Frades, Buranhém e Santo Antônio",4.8,0.0,0.0,0.0,0.0,0.6,1.2,0.2,0.0,6.2,4.0,1.6,0.0,0.0,0.0,1.2,0.6,6.7,0.0,0.0,0.0,1.6,0.2,0.0,6.6,0.4,0.0,0.0,0.0,4.7,3.2,43.81
Trancoso,292530303A,Porto Seguro,Porto Seguro (Trancoso) - 292530303A,-16.595,-39.109,Sul,"RPGA dos Rios dos Frades, Buranhém e Santo Antônio",2.6,0.0,0.0,0.0,0.0,2.8,0.2,1.0,0.0,0.0,4.4,1.0,0.0,0.0,0.0,0.4,0.2,9.2,0.0,8.7,8.8,0.0,0.0,0.0,0.0,0.2,0.0,0.0,0.0,6.0,1.4,46.9
BR367km4,292770501A,Santa Cruz Cabrália,Santa Cruz Cabrália (BR367km4) - 292770501A,-16.321,-39.023,Sul,"RPGA dos Rios dos Frades, Buranhém e Santo Antônio",4.7,0.0,0.0,0.0,0.0,4.0,0.0,0.0,0.0,1.0,5.4,3.2,0.2,0.0,0.0,0.0,0.0,4.8,0.4,0.0,0.8,4.4,0.0,0.0,2.4,1.0,0.2,0.2,0.0,8.3,1.9,42.9
SEDE,EBDA,Angical,Angical (SEDE) - EBDA,-12.001302,-44.684543,São Francisco,RPGA do Rio Grande,0.0,0.0,0.0,0.0,0.0,0.0,0.0,0.0,0.0,0.0,0.0,0.0,0.0,0.0,0.0,0.0,0.0,0.0,0.0,0.0,0.0,0.0,0.0,0.0,0.0,0.0,0.0,0.0,0.0,0.0,0.0,0.0
SEDE,EBDA,Baianópolis,Baianópolis (SEDE) - EBDA,-12.301308,-44.53454,São Francisco,RPGA do Rio Grande,0.0,0.0,0.0,0.0,0.0,0.0,0.0,0.0,0.0,0.0,0.0,0.0,0.0,0.0,0.0,0.0,0.0,0.0,0.0,0.0,0.0,0.0,0.0,0.0,0.0,0.0,0.0,0.0,0.0,0.0,0.0,0.0
SEDE,EBDA,Cristópolis,Cristópolis (SEDE) - EBDA,-12.217972,-44.434539,São Francisco,RPGA do Rio Grande,0.0,0.0,0.0,0.0,0.0,0.0,0.0,0.0,0.0,0.0,0.0,0.0,0.0,0.0,0.0,0.0,0.0,0.0,0.0,0.0,0.0,0.0,0.0,0.0,0.0,0.0,0.0,0.0,0.0,0.0,0.0,0.0
SEDE,,Santa Rita de Cássia,Santa Rita de Cássia (SEDE),-11.001281,-44.517867,São Francisco,RPGA do Rio Grande,0.0,0.0,0.0,0.0,0.0,0.0,0.0,0.0,0.0,0.0,0.0,0.0,0.0,0.0,0.0,0.0,0.0,0.0,0.0,0.0,0.0,0.0,0.0,0.0,0.0,0.0,0.0,0.0,0.0,0.0,0.0,0.0
SEDE,EBDA,Wanderley,Wanderley (SEDE) - EBDA,-12.117972,-43.884524,São Francisco,RPGA do Rio Grande,0.0,0.0,0.0,0.0,0.0,0.0,0.0,0.0,0.0,0.0,0.0,0.0,0.0,0.0,0.0,0.0,0.0,0.0,0.0,0.0,0.0,0.0,0.0,0.0,0.0,0.0,0.0,0.0,0.0,0.0,0.0,0.0
Santa Maria da Vitória,CT-PR-07,Santa Maria da Vitória,Santa Maria da Vitória - CT-PR-07,-13.384662,-44.184537,São Francisco,"RPGA do Rio Corrente e Riachos do Ramalho, Serra Dourada e Brejo Velho",0.0,0.0,0.0,0.0,0.0,0.0,0.0,0.0,0.0,0.0,0.0,0.0,0.0,0.0,0.0,0.0,0.0,0.0,0.0,0.0,0.0,0.0,0.0,0.0,0.0,0.0,0.0,0.0,0.0,0.0,0.0,0.0
Coribe,EBDA,Coribe,Coribe - EBDA,-13.834669,-44.451212,São Francisco,"RPGA do Rio Corrente e Riachos do Ramalho, Serra Dourada e Brejo Velho",0.0,0.0,0.0,0.0,0.0,0.0,0.0,0.0,0.0,0.0,0.0,0.0,0.0,0.0,0.0,0.0,0.0,0.0,0.0,0.0,0.0,0.0,0.0,0.0,0.0,0.0,0.0,0.0,0.0,0.0,0.0,0.0
Santana,EBDA,Santana,Santana - EBDA,-12.984656,-44.0512,São Francisco,"RPGA do Rio Corrente e Riachos do Ramalho, Serra Dourada e Brejo Velho",0.0,0.0,0.0,0.0,0.0,0.0,0.0,0.0,0.0,0.0,0.0,0.0,0.0,0.0,0.0,0.0,0.0,0.0,0.0,0.0,0.0,0.0,0.0,0.0,0.0,0.0,0.0,0.0,0.0,0.0,0.0,0.0
Barra,EBDA,Barra,Barra - EBDA,-11.084623,-43.151167,São Francisco,RPGA do Rio Grande,0.0,0.0,0.0,0.0,0.0,0.0,0.0,0.0,0.0,0.0,0.0,0.0,0.0,0.0,0.0,0.0,0.0,0.0,0.0,0.0,0.0,0.0,0.0,0.0,0.0,0.0,0.0,0.0,0.0,0.0,0.0,0.0
Gentio do Ouro,EBDA,Gentio do Ouro,Gentio do Ouro - EBDA,-11.417965,-42.501152,São Francisco,RPGA dos Rios Verde e Jacaré,0.0,0.0,0.0,0.0,0.0,0.0,0.0,0.0,0.0,0.0,0.0,0.0,0.0,0.0,0.0,0.0,0.0,0.0,0.0,0.0,0.0,0.0,0.0,0.0,0.0,0.0,0.0,0.0,0.0,0.0,0.0,0.0
Santa Rita de Cássia,A415,Santa Rita de Cássia,Santa Rita de Cássia - A415,-11.002768,-44.524965,São Francisco,RPGA do Rio Grande,0.0,0.0,0.0,0.0,0.0,0.0,0.0,0.0,0.0,0.0,0.0,0.0,0.0,0.0,0.0,0.0,0.0,0.0,0.0,0.0,0.0,0.0,0.0,0.0,0.0,0.0,0.0,0.0,0.0,0.0,0.0,0.0
Xique-Xique,EBDA,Xique-Xique,Xique-Xique - EBDA,-10.817951,-42.717822,São Francisco,RPGA dos Rios Paramirim e Santo Onofre,0.0,0.0,0.0,0.0,0.0,0.0,0.0,0.0,0.0,0.0,0.0,0.0,0.0,0.0,0.0,0.0,0.0,0.0,0.0,0.0,0.0,0.0,0.0,0.0,0.0,0.0,0.0,0.0,0.0,0.0,0.0,0.0
Barra,83179,Barra,Barra - 83179,-11.083333,-43.166667,São Francisco,RPGA do Rio Grande,0.0,0.0,0.0,0.0,0.0,0.0,0.0,0.0,0.0,0.0,0.0,0.0,0.0,0.0,0.0,0.0,0.0,0.0,0.0,0.0,0.0,0.0,0.0,0.0,0.0,0.0,0.0,0.0,0.0,0.0,0.0,0.0
Bom Jesus da Lapa,83288,Bom Jesus da Lapa,Bom Jesus da Lapa - 83288,-13.251389,-43.405278,São Francisco,RPGA do Rio Carnaíba de Dentro,0.0,0.0,0.0,0.0,0.0,0.0,0.0,0.0,0.0,0.0,0.0,0.0,0.0,0.0,0.0,0.0,0.0,0.0,0.0,0.0,0.0,0.0,0.0,0.0,0.0,0.0,0.0,0.0,0.0,0.0,0.0,0.0
Caetité,83339,Caetité,Caetité - 83339,-14.066667,-42.483333,São Francisco,RPGA do Rio de Contas,0.0,0.0,0.0,0.0,0.0,0.0,0.0,0.0,0.0,0.0,0.0,0.0,0.0,0.0,0.0,0.0,0.0,0.0,0.0,1.0,0.0,0.0,0.0,0.0,0.0,0.0,0.0,0.0,0.0,0.0,0.0,1.0
Carinhanha,83408,Carinhanha,Carinhanha - 83408,-14.283333,-43.766667,São Francisco,"RPGA do Rio Corrente e Riachos do Ramalho, Serra Dourada e Brejo Velho",0.0,0.0,0.0,0.0,0.0,0.0,0.0,0.0,0.0,0.0,0.0,0.0,0.0,0.0,0.0,0.0,0.0,0.0,0.0,0.0,0.0,0.0,0.0,0.0,0.0,0.0,0.0,0.0,0.0,0.0,0.0,0.0
Santa Rita de Cássia,83076,Santa Rita de Cássia,Santa Rita de Cássia - 83076,-11.016667,-44.516667,São Francisco,RPGA do Rio Grande,0.0,0.0,0.0,0.0,0.0,0.0,0.0,0.0,0.0,0.0,0.0,0.0,0.0,0.0,0.0,0.0,0.0,0.0,0.0,0.0,0.0,0.0,0.0,0.0,0.0,0.0,0.0,0.0,0.0,0.0,0.0,0.0
Guanambí,A426,Guanambí,Guanambí - A426,-14.208123,-42.749647,São Francisco,RPGA do Rio Carnaíba de Dentro,0.0,0.0,0.0,0.0,0.0,0.0,0.0,0.0,0.0,0.0,0.0,0.0,0.0,0.0,0.0,0.0,0.0,0.0,0.0,0.0,0.0,0.0,0.0,0.0,0.0,0.0,0.0,0.0,0.0,0.0,0.0,0.0
Buritirama,A432,Buritirama,Buritirama - A432,-10.722925,-43.651203,São Francisco,RPGA do Rio Grande,0.0,0.0,0.0,0.0,0.0,0.0,0.0,0.0,0.0,0.0,0.0,0.0,0.0,0.0,0.0,0.0,0.0,0.0,0.0,0.0,0.0,0.0,0.0,0.0,0.0,0.0,0.0,0.0,0.0,0.0,0.0,0.0
Barra,A429,Barra,Barra - A429,-11.084858,-43.138998,São Francisco,RPGA do Rio Grande,0.0,0.0,0.0,0.0,0.0,0.0,0.0,0.0,0.0,0.0,0.0,0.0,0.0,0.0,0.0,0.0,0.0,0.0,0.0,0.0,0.0,0.0,0.0,0.0,0.0,0.0,0.0,0.0,0.0,0.0,0.0,0.0
Ibotirama,A439,Ibotirama,Ibotirama - A439,-12.19306,-43.21342,São Francisco,RPGA dos Rios Paramirim e Santo Onofre,0.0,0.0,0.0,0.0,0.0,0.0,0.0,0.0,0.0,0.0,0.0,0.0,0.0,0.0,0.0,0.0,0.0,0.0,0.0,0.0,0.0,0.0,0.0,0.0,0.0,0.0,0.0,0.0,0.0,0.0,0.0,0.0
Feira da Mata,EBDA,Feira da Mata,Feira da Mata - EBDA,-14.218288,-44.268154,São Francisco,RPGA do Rio Carinhanha,0.0,0.0,0.0,0.0,0.0,0.0,0.0,0.0,0.0,0.0,0.0,0.0,0.0,0.0,0.0,0.0,0.0,0.0,0.0,0.0,0.0,0.0,0.0,0.0,0.0,0.0,0.0,0.0,0.0,0.0,0.0,0.0
Canápolis,EBDA,Canápolis,Canápolis - EBDA,-13.06799,-44.201203,São Francisco,"RPGA do Rio Corrente e Riachos do Ramalho, Serra Dourada e Brejo Velho",0.0,0.0,0.0,0.0,0.0,0.0,0.0,0.0,0.0,0.0,0.0,0.0,0.0,0.0,0.0,0.0,0.0,0.0,0.0,0.0,0.0,0.0,0.0,0.0,0.0,0.0,0.0,0.0,0.0,0.0,0.0,0.0
Brejolândia,EBDA,Brejolândia,Brejolândia - EBDA,-12.384644,-43.967861,São Francisco,"RPGA do Rio Corrente e Riachos do Ramalho, Serra Dourada e Brejo Velho",0.0,0.0,0.0,0.0,0.0,0.0,0.0,0.0,0.0,0.0,0.0,0.0,0.0,0.0,0.0,0.0,0.0,0.0,0.0,0.0,0.0,0.0,0.0,0.0,0.0,0.0,0.0,0.0,0.0,0.0,0.0,0.0
Fz. São Rafael,EBDA,Baianópolis,Baianópolis (Fz. São Rafael) - EBDA,-12.307697,-44.535931,São Francisco,RPGA do Rio Grande,0.0,0.0,0.0,0.0,0.0,0.0,0.0,0.0,0.0,0.0,0.0,0.0,0.0,0.0,0.0,0.0,0.0,0.0,0.0,0.0,0.0,0.0,0.0,0.0,0.0,0.0,0.0,0.0,0.0,0.0,0.0,0.0
Cascudeiro,EBDA,Baianópolis,Baianópolis (Cascudeiro) - EBDA,-12.528533,-44.480095,São Francisco,RPGA do Rio Grande,0.0,0.0,0.0,0.0,0.0,0.0,0.0,0.0,0.0,0.0,0.0,0.0,0.0,0.0,0.0,0.0,0.0,0.0,0.0,0.0,0.0,0.0,0.0,0.0,0.0,0.0,0.0,0.0,0.0,0.0,0.0,0.0
Tabocas do Brejo Velho,EBDA,Tabocas do Brejo Velho,Tabocas do Brejo Velho - EBDA,-12.70715,-44.008141,São Francisco,"RPGA do Rio Corrente e Riachos do Ramalho, Serra Dourada e Brejo Velho",0.0,0.0,0.0,0.0,0.0,0.0,0.0,0.0,0.0,0.0,0.0,0.0,0.0,0.0,0.0,0.0,0.0,0.0,0.0,0.0,0.0,0.0,0.0,0.0,0.0,0.0,0.0,0.0,0.0,0.0,0.0,0.0
Ouriçangas,EBDA,Angical,Angical (Ouriçangas) - EBDA,-12.008246,-44.696209,São Francisco,RPGA do Rio Grande,0.0,0.0,0.0,0.0,0.0,0.0,0.0,0.0,0.0,0.0,0.0,0.0,0.0,0.0,0.0,0.0,0.0,0.0,0.0,0.0,0.0,0.0,0.0,0.0,0.0,0.0,0.0,0.0,0.0,0.0,0.0,0.0
Buritirama,EBDA,Buritirama,Buritirama - EBDA,-10.709058,-43.632012,São Francisco,RPGA do Rio Grande,0.0,0.0,0.0,0.0,0.0,0.0,0.0,0.0,0.0,0.0,0.0,0.0,0.0,0.0,0.0,0.0,0.0,0.0,0.0,0.0,0.0,0.0,0.0,0.0,0.0,0.0,0.0,0.0,0.0,0.0,0.0,0.0
Gentio do Ouro,,Gentio do Ouro,Gentio do Ouro,-11.42951,-42.513484,São Francisco,RPGA dos Rios Verde e Jacaré,0.0,0.0,0.0,0.0,0.0,0.0,0.0,0.0,0.0,0.0,0.0,0.0,0.0,0.0,0.0,0.0,1.8,0.0,0.0,0.0,0.0,0.0,0.0,0.0,0.0,0.0,0.0,0.0,0.0,0.0,0.0,1.8
Faz. Macambira,46675000,Cotegipe,Cotegipe (Faz. Macambira) - 46675000,-11.6106,-44.1567,São Francisco,RPGA do Rio Grande,0.0,0.0,0.0,0.0,0.0,0.0,0.0,0.0,0.0,0.0,0.0,0.0,0.0,0.0,0.0,0.0,0.0,0.0,0.0,0.0,0.0,0.0,0.0,0.0,0.0,0.0,0.0,0.0,0.0,0.0,0.0,0.0
Fz.P. Limpo,46870000,Mansidão,Mansidão (Fz.P. Limpo) - 46870000,-11.236845,-43.950633,São Francisco,RPGA do Rio Grande,0.0,0.0,0.0,0.0,0.0,0.0,0.0,0.0,0.0,0.0,0.0,0.0,0.0,0.0,0.0,0.0,0.0,0.0,0.0,0.0,0.0,0.0,0.0,0.0,0.0,0.0,0.0,0.0,0.0,0.0,0.0,0.0
Santa Maria da Vitória,45910001,Santa Maria da Vitória,Santa Maria da Vitória - 45910001,-13.4006,-44.1989,São Francisco,"RPGA do Rio Corrente e Riachos do Ramalho, Serra Dourada e Brejo Velho",0.0,0.0,0.0,0.0,0.0,0.0,0.0,0.0,0.0,0.0,0.0,0.0,0.0,0.0,0.0,0.0,0.0,0.0,0.0,0.0,0.0,0.0,0.0,0.0,0.0,0.0,0.0,0.0,0.0,0.0,0.0,0.0
Mansidão,EBDA,Mansidão,Mansidão - EBDA,-10.717667,-44.035633,São Francisco,RPGA do Rio Grande,0.0,0.0,0.0,0.0,0.0,0.0,0.0,0.0,0.0,0.0,0.0,0.0,0.0,0.0,0.0,0.0,0.0,0.0,0.0,0.0,0.0,0.0,0.0,0.0,0.0,0.0,0.0,0.0,0.0,0.0,0.0,0.0
Caetité,CD-CL-01,Caetité,Caetité - CD-CL-01,-13.96659,-42.60482,São Francisco,RPGA do Rio Carnaíba de Dentro,0.0,0.0,0.0,0.0,0.0,0.0,0.0,0.0,0.0,0.0,0.0,0.0,0.0,0.0,0.0,0.0,0.0,0.0,0.0,0.0,0.0,0.0,0.0,0.0,0.0,0.0,0.0,0.0,0.0,0.0,0.0,0.0
Serra Dourada,EBDA - EBDA,Serra Dourada,Serra Dourada - EBDA - EBDA,-12.751317,-43.951194,São Francisco,"RPGA do Rio Corrente e Riachos do Ramalho, Serra Dourada e Brejo Velho",0.0,0.0,0.0,0.0,0.0,0.0,0.0,0.0,0.0,0.0,0.0,0.0,0.0,0.0,0.0,0.0,0.0,0.0,0.0,0.0,0.0,0.0,0.0,0.0,0.0,0.0,0.0,0.0,0.0,0.0,0.0,0.0
