nome_estacao,codigo,municipio,estacao,latitude,longitude,regiao,rpga,01_02_12,02_02_12,03_02_12,04_02_12,05_02_12,06_02_12,07_02_12,08_02_12,09_02_12,10_02_12,11_02_12,12_02_12,13_02_12,14_02_12,15_02_12,16_02_12,17_02_12,18_02_12,19_02_12,20_02_12,21_02_12,22_02_12,23_02_12,24_02_12,25_02_12,26_02_12,27_02_12,28_02_12,29_02_12,total
Boa Vista do Tupim,EBDA,Boa Vista do Tupim,Boa Vista do Tupim - EBDA,-12.651332,-40.60111,Chapada Diamantina,RPGA do Rio Paraguaçu,0.0,0.0,0.0,0.0,0.0,0.0,0.0,0.0,0.0,0.0,0.0,0.0,0.0,0.0,0.0,0.0,0.0,0.0,0.0,0.0,0.0,0.0,0.0,0.0,0.0,0.0,0.0,0.0,0.0,0.0
Iaçu,EBDA,Iaçu,Iaçu - EBDA,-12.768002,-40.217768,Chapada Diamantina,RPGA do Rio Paraguaçu,0.0,0.0,0.0,0.0,0.0,0.0,0.0,0.0,0.0,0.0,2.6,6.3,0.0,0.0,9.8,0.0,0.0,0.0,0.0,0.0,0.0,0.0,0.0,0.0,0.0,0.0,0.0,0.0,0.0,18.71
Itaberaba,EBDA,Itaberaba,Itaberaba - EBDA,-12.534663,-40.301101,Chapada Diamantina,RPGA do Rio Paraguaçu,0.0,0.0,0.0,3.0,0.0,0.0,0.0,0.0,0.0,0.0,0.0,0.0,0.0,0.0,6.0,0.0,0.0,0.0,0.0,0.0,0.0,0.0,0.0,0.0,0.0,0.0,0.0,0.0,0.0,9.0
Itaetê,EBDA,Itaetê,Itaetê - EBDA,-12.984669,-40.984455,Chapada Diamantina,RPGA do Rio Paraguaçu,0.0,0.0,0.0,0.0,0.0,0.0,0.0,0.0,0.0,0.0,50.0,13.6,0.0,0.0,8.2,0.0,0.0,0.0,0.0,0.0,0.0,0.0,0.0,0.0,0.0,0.0,0.0,0.0,0.0,71.8
Marcionílio Souza,EBDA,Marcionílio Souza,Marcionílio Souza - EBDA,-13.001338,-40.534443,Chapada Diamantina,RPGA do Rio Paraguaçu,0.0,7.0,0.0,0.0,0.0,0.0,0.0,0.0,0.0,0.0,0.0,0.0,0.0,0.0,2.0,0.0,0.0,0.0,0.0,0.0,0.0,0.0,0.0,0.0,0.0,0.0,0.0,0.0,0.0,9.0
Ruy Barbosa,EBDA,Ruy Barbosa,Ruy Barbosa - EBDA,-12.284657,-40.501107,Chapada Diamantina,RPGA do Rio Paraguaçu,0.0,14.0,0.0,0.0,0.0,0.0,0.0,0.0,0.0,0.0,0.0,0.0,0.0,0.0,12.0,0.0,0.0,0.0,0.0,0.0,0.0,0.0,0.0,0.0,0.0,0.0,0.0,0.0,0.0,26.0
Utinga,EBDA,Utinga,Utinga - EBDA,-12.08465,-41.101122,Chapada Diamantina,RPGA do Rio Paraguaçu,0.0,2.0,2.0,2.0,11.0,0.0,0.0,0.0,0.0,0.0,0.0,0.0,0.0,0.0,0.0,0.0,0.0,0.0,0.0,0.0,0.0,0.0,0.0,0.0,0.0,0.0,0.0,0.0,0.0,17.0
Barra da Estiva,EBDA,Barra da Estiva,Barra da Estiva - EBDA,-13.63468,-41.334467,Chapada Diamantina,RPGA do Rio de Contas,3.3,0.5,0.0,0.0,0.0,0.0,0.0,0.0,0.0,0.0,0.0,17.5,0.0,0.0,28.5,0.0,8.8,0.0,0.0,0.0,0.0,0.0,0.0,0.0,0.0,0.0,0.0,0.0,0.0,58.6
Baixa Grande,EBDA,Baixa Grande,Baixa Grande - EBDA,-11.951317,-40.167762,Chapada Diamantina,RPGA do Rio Paraguaçu,1.25,1.0,0.0,0.5,0.0,0.0,0.0,0.0,0.0,7.25,0.0,0.0,0.0,0.0,1.5,1.0,0.25,0.0,1.5,0.0,0.0,0.0,0.0,0.0,0.0,2.5,0.0,0.0,0.0,16.75
Mairi,EBDA,Mairi,Mairi - EBDA,-11.717981,-40.151095,Chapada Diamantina,RPGA do Rio Paraguaçu,0.0,0.0,0.0,0.0,0.0,0.0,0.0,0.0,0.0,0.0,0.0,0.0,0.0,0.0,0.0,0.0,0.0,0.0,0.0,0.0,0.0,0.0,0.0,0.0,0.0,0.0,0.0,0.0,0.0,0.0
Morro do Chapéu,EBDA,Morro do Chapéu,Morro do Chapéu - EBDA,-11.551305,-41.151119,Chapada Diamantina,RPGA do Rio Paraguaçu,0.0,0.0,0.0,0.0,0.0,0.0,0.0,0.0,0.0,0.0,0.0,0.0,0.0,0.0,0.0,0.0,0.0,0.0,0.0,0.0,0.0,0.0,0.0,0.0,0.0,0.0,0.0,0.0,0.0,0.0
Mundo Novo,EBDA,Mundo Novo,Mundo Novo - EBDA,-11.851314,-40.46777,Chapada Diamantina,RPGA do Rio Paraguaçu,13.5,0.0,0.0,0.0,0.0,0.0,0.0,0.0,0.0,0.0,0.0,0.0,39.5,0.0,0.0,0.0,0.0,0.0,0.0,0.0,0.0,0.0,0.0,0.0,0.0,0.0,0.0,0.0,0.0,53.0
Barra do Mendes,EBDA,Barra do Mendes,Barra do Mendes - EBDA,-11.817975,-42.06781,Chapada Diamantina,RPGA dos Rios Verde e Jacaré,0.0,0.0,0.0,0.0,0.0,0.0,0.0,0.0,0.0,2.0,12.0,23.0,0.0,0.0,0.0,0.0,0.0,0.0,0.0,0.0,0.0,0.0,0.0,0.0,0.0,0.0,0.0,0.0,0.0,37.0
Cafarnaum,EBDA,Cafarnaum,Cafarnaum - EBDA,-11.684641,-41.484462,Chapada Diamantina,RPGA dos Rios Verde e Jacaré,0.0,0.0,0.0,0.0,0.0,0.0,0.0,0.0,0.0,15.0,20.0,26.0,0.0,0.0,0.0,0.0,0.0,0.0,0.0,0.0,0.0,0.0,0.0,0.0,0.0,0.0,0.0,0.0,0.0,61.0
Canarana,EBDA,Canarana,Canarana - EBDA,-11.684641,-41.751137,Chapada Diamantina,RPGA dos Rios Verde e Jacaré,0.0,0.0,0.0,0.0,0.0,0.0,0.0,0.0,0.0,7.8,0.0,13.0,0.0,0.0,0.0,0.0,0.0,0.0,0.0,0.0,0.0,0.0,0.0,0.0,0.0,0.0,0.0,0.0,0.0,20.8
Andaraí,EBDA,Andaraí,Andaraí - EBDA,-12.801332,-41.317795,Chapada Diamantina,RPGA do Rio Paraguaçu,0.0,11.0,0.0,0.0,0.0,0.0,0.0,0.0,0.0,0.0,3.0,6.0,0.0,0.0,0.0,0.0,0.0,0.0,0.0,0.0,0.0,0.0,0.0,0.0,0.0,0.0,0.0,0.0,0.0,20.0
Iraquara,EBDA,Iraquara,Iraquara - EBDA,-12.234651,-41.617801,Chapada Diamantina,RPGA do Rio Paraguaçu,0.0,0.0,0.0,0.0,0.0,0.0,0.0,0.0,0.0,0.0,0.0,0.0,0.0,0.0,0.0,29.0,0.0,0.0,0.0,0.0,0.0,0.0,0.0,0.0,0.0,0.0,0.0,0.0,0.0,29.0
Mucugê,EBDA,Mucugê,Mucugê - EBDA,-13.001335,-41.367798,Chapada Diamantina,RPGA do Rio Paraguaçu,0.0,0.0,0.0,1.5,2.1,0.0,0.0,0.0,0.0,0.0,0.0,0.0,0.0,64.0,0.0,4.5,4.1,1.8,2.8,0.0,0.0,0.5,0.0,0.0,0.0,0.5,0.0,0.0,0.0,81.8
Piatã,EBDA,Piatã,Piatã - EBDA,-13.201338,-41.751143,Chapada Diamantina,RPGA do Rio de Contas,0.0,0.0,0.0,0.0,0.0,0.0,0.0,0.0,0.0,0.0,0.0,0.0,0.0,0.0,0.0,23.0,0.0,0.0,0.0,0.0,0.0,0.0,0.0,0.0,0.0,0.0,0.0,0.0,0.0,23.0
Seabra,EBDA,Seabra,Seabra - EBDA,-12.417987,-41.767806,Chapada Diamantina,RPGA do Rio Paraguaçu,0.0,0.0,0.0,0.0,0.0,0.0,0.0,0.0,0.0,0.0,23.0,0.0,0.0,0.0,0.0,4.2,0.0,0.0,0.0,0.0,0.0,0.0,0.0,0.0,0.0,0.0,0.0,0.0,0.0,27.2
Livramento do Brumado,EBDA,Livramento do Brumado,Livramento do Brumado - EBDA,-13.651344,-41.834479,Chapada Diamantina,RPGA do Rio de Contas,0.0,0.8,0.0,0.0,5.4,0.0,0.0,0.0,0.0,0.0,0.0,29.0,2.0,0.0,10.5,0.0,0.0,0.0,0.0,0.0,0.0,0.0,0.0,0.0,0.0,0.0,0.0,0.0,0.0,47.7
Lençóis,A425,Lençóis,Lençóis - A425,-12.557854,-41.388808,Chapada Diamantina,RPGA do Rio Paraguaçu,0.0,2.4,1.0,0.8,14.4,0.0,0.0,0.0,0.0,0.0,1.0,97.4,6.2,0.2,0.0,7.8,2.6,0.0,2.4,0.0,0.0,0.0,0.0,0.2,0.0,0.0,2.6,0.0,0.0,139.0
Lagoa Bonita,PG-PR-15,Iacú,Iacú (Lagoa Bonita) - PG-PR-15,-12.931506,-40.226468,Chapada Diamantina,RPGA do Rio Paraguaçu,0.0,0.25,0.0,0.0,6.0,0.0,0.0,0.0,0.0,0.0,0.0,4.75,2.25,0.0,0.0,1.75,0.25,0.0,0.0,2.75,0.0,0.0,0.0,0.0,0.0,0.0,0.0,0.0,0.0,18.0
Boninal,PG-PR-19,Boninal,Boninal - PG-PR-19,-12.67656,-41.8464,Chapada Diamantina,RPGA do Rio Paraguaçu,0.0,0.0,0.0,0.0,5.75,0.0,0.0,0.0,1.25,0.0,0.0,0.25,0.0,0.0,0.0,2.25,2.0,0.25,3.75,1.5,0.25,0.0,0.0,0.0,0.0,0.0,0.0,0.0,0.0,17.25
Fazenda Cruz,PG-PR-20,Piatã,Piatã (Fazenda Cruz) - PG-PR-20,-12.90705,-41.86708,Chapada Diamantina,RPGA do Rio Paraguaçu,0.0,0.0,0.0,0.0,0.5,0.0,0.0,0.5,0.25,0.0,0.0,7.75,2.0,0.25,0.0,1.25,0.25,0.0,0.0,0.0,0.0,0.0,0.0,0.0,0.0,0.0,0.0,0.0,0.0,12.75
Guiné,PG-PR-24,Mucugê,Mucugê (Guiné) - PG-PR-24,-12.771772,-41.540679,Chapada Diamantina,RPGA do Rio Paraguaçu,1.25,0.75,0.0,0.25,1.25,0.0,0.0,0.0,0.0,1.75,1.0,3.0,12.75,0.0,0.0,17.0,2.25,0.5,1.75,0.75,0.0,0.0,0.0,0.0,0.0,0.0,0.0,0.0,0.0,44.25
Cascavel,PG-PR-27,Mucugê,Mucugê (Cascavel) - PG-PR-27,-13.285954,-41.287619,Chapada Diamantina,RPGA do Rio Paraguaçu,0.0,0.75,0.0,3.5,5.0,0.0,0.0,0.0,0.0,0.0,0.0,6.0,0.0,0.0,0.0,3.75,4.75,0.75,0.0,0.0,1.0,0.0,0.0,0.0,0.0,0.0,0.0,0.0,0.0,25.5
Canarana,,Canarana,Canarana,-11.69541,-41.78921,Chapada Diamantina,RPGA dos Rios Verde e Jacaré,0.0,1.0,0.2,0.0,0.2,0.0,0.0,0.0,0.0,11.6,0.2,13.8,0.0,0.0,0.0,1.2,0.2,0.0,0.0,0.0,0.0,0.0,0.0,0.0,0.0,0.0,0.0,0.0,0.0,28.4
Olho D'Água do Francisco,,Olho D'Água do Francisco,Olho D'Água do Francisco,-12.307034,-42.079028,Chapada Diamantina,RPGA dos Rios Verde e Jacaré,0.0,1.8,0.0,1.0,3.6,0.0,0.0,0.0,12.2,1.4,0.0,45.0,0.2,0.0,0.0,2.6,0.0,0.0,0.0,0.0,0.0,3.6,0.0,0.0,0.0,0.0,0.0,0.0,0.0,71.4
Cafarnaum,,Cafarnaum,Cafarnaum,-11.676688,-41.470143,Chapada Diamantina,RPGA dos Rios Verde e Jacaré,0.0,0.0,0.0,0.0,0.0,0.0,0.0,0.0,7.8,2.0,1.2,14.6,0.0,0.0,0.0,3.6,0.0,0.0,0.0,0.0,0.0,0.0,0.0,0.0,0.0,0.0,0.0,0.0,0.0,29.21
Piatã,CO-CL-04,Piatã,Piatã - CO-CL-04,-13.164166,-41.770833,Chapada Diamantina,RPGA do Rio de Contas,0.0,1.25,0.0,0.5,2.0,0.0,0.0,0.0,0.0,0.75,0.0,13.25,5.25,0.0,0.0,4.75,13.25,4.5,0.0,0.0,0.0,0.0,0.0,0.0,0.0,0.0,0.0,0.0,0.0,45.5
Souto Soares,PG-CL-04,Souto Soares,Souto Soares - PG-CL-04,-12.08538,-41.64815,Chapada Diamantina,RPGA do Rio Paraguaçu,0.0,0.25,0.0,0.0,0.75,0.0,0.0,0.0,0.0,0.0,0.0,3.25,2.25,0.0,0.0,5.25,3.0,0.25,0.25,0.0,0.0,0.0,0.0,0.0,0.0,0.0,0.0,0.0,0.0,15.25
Palmeiras,EBDA,Palmeiras,Palmeiras - EBDA,-12.46799,-41.617801,Chapada Diamantina,RPGA do Rio Paraguaçu,0.0,0.0,0.0,0.0,0.0,0.0,0.0,0.0,0.0,0.0,0.0,0.0,0.0,0.0,0.0,0.0,0.0,0.0,0.0,0.0,0.0,0.0,0.0,0.0,0.0,0.0,0.0,0.0,0.0,0.0
Itaberaba,A408,Itaberaba,Itaberaba - A408,-12.524062,-40.299714,Chapada Diamantina,RPGA do Rio Paraguaçu,0.0,0.4,5.6,4.2,0.8,0.0,0.0,0.0,0.0,0.0,0.0,0.0,0.0,0.0,0.0,4.4,4.4,0.0,0.0,1.2,0.0,0.0,0.0,0.0,0.0,0.0,0.2,0.0,1.6,22.8
Macajuba,A412,Macajuba,Macajuba - A412,-12.131694,-40.354222,Chapada Diamantina,RPGA do Rio Paraguaçu,12.0,3.6,0.4,7.8,0.0,0.0,0.2,0.0,0.0,0.0,0.0,0.0,0.0,0.0,6.4,4.6,6.4,0.4,2.6,4.2,9.2,0.0,0.0,0.0,0.0,0.0,0.0,0.0,0.4,58.2
Itaberaba,83244,Itaberaba,Itaberaba - 83244,-12.516667,-40.283333,Chapada Diamantina,RPGA do Rio Paraguaçu,0.0,0.0,5.2,4.0,0.4,0.0,0.0,0.0,0.0,0.0,0.0,0.0,0.0,0.0,0.0,4.2,3.6,0.0,0.0,0.8,0.0,0.0,0.0,0.0,0.0,0.0,0.0,0.0,1.6,19.81
Lençóis,83242,Lençóis,Lençóis - 83242,-12.5575,-41.388889,Chapada Diamantina,RPGA do Rio Paraguaçu,0.0,2.2,0.4,0.8,13.3,0.0,0.0,0.0,0.0,0.0,0.9,101.6,6.1,0.3,0.0,7.2,1.8,0.0,2.0,0.0,0.0,0.0,0.0,0.0,0.0,0.0,2.4,0.0,0.0,139.0
Morro do Chapéu,83184,Morro do Chapéu,Morro do Chapéu - 83184,-11.216667,-41.216667,Chapada Diamantina,RPGA do Rio Salitre,0.0,0.4,0.0,1.5,0.0,0.0,0.0,0.0,0.0,0.0,5.0,24.8,6.2,0.0,0.4,2.8,0.4,0.0,0.0,16.4,0.0,0.0,0.0,0.0,0.0,0.0,0.0,0.0,0.0,57.9
Piatã,A430,Piatã,Piatã - A430,-13.155681,-41.774125,Chapada Diamantina,RPGA do Rio de Contas,0.0,2.6,0.2,0.8,14.6,0.0,0.0,0.0,0.0,0.2,0.0,23.0,2.6,0.0,0.0,6.0,22.6,12.6,0.6,0.4,0.6,0.0,0.0,0.0,0.0,0.0,0.0,0.0,0.4,87.2
Érico Cardoso,EBDA,Érico Cardoso,Érico Cardoso - EBDA,-13.419116,-42.14143,Chapada Diamantina,RPGA dos Rios Paramirim e Santo Onofre,0.0,0.0,0.0,0.0,0.0,0.0,0.0,0.0,0.0,0.0,0.0,0.0,0.0,0.0,0.0,0.0,0.0,0.0,0.0,0.0,0.0,0.0,0.0,0.0,0.0,0.0,0.0,0.0,0.0,0.0
Dom Basílio,EBDA,Dom Basílio,Dom Basílio - EBDA,-13.761625,-41.772535,Chapada Diamantina,RPGA do Rio de Contas,0.0,0.0,0.0,0.0,0.0,0.0,0.0,0.0,0.0,0.0,0.0,0.5,0.0,0.0,10.8,0.0,0.0,0.0,0.0,0.0,0.0,0.0,0.0,0.0,0.0,0.0,0.0,0.0,0.0,11.3
São Félix do Coribe,EBDA,São Félix do Coribe,São Félix do Coribe - EBDA,-13.401899,-41.19585,Chapada Diamantina,RPGA do Rio Paraguaçu,0.0,0.0,0.0,0.0,0.0,0.0,0.0,0.0,1.1,0.0,0.0,6.2,0.0,0.0,0.0,0.0,0.0,0.0,0.0,0.0,0.0,0.0,0.0,0.0,0.0,0.0,0.0,0.0,0.0,7.31
Ibiaporã,PG-CL-01,Mundo Novo,Mundo Novo (Ibiaporã) - PG-CL-01,-12.05379,-40.83722,Chapada Diamantina,RPGA do Rio Paraguaçu,12.5,6.75,0.5,9.75,2.75,0.0,0.0,0.0,0.0,0.0,0.0,0.0,0.0,0.0,0.5,6.75,4.0,1.0,0.75,1.75,7.5,0.0,0.0,0.0,0.0,0.0,0.0,0.0,0.25,54.75
Marcionílio Souza,PG-CL-03,Marcionílio Souza,Marcionílio Souza - PG-CL-03,-13.00021,-40.537783,Chapada Diamantina,RPGA do Rio Paraguaçu,0.0,5.25,0.0,0.0,1.75,0.0,0.0,0.0,0.0,0.0,0.0,0.0,0.25,0.0,0.0,1.75,1.0,0.0,0.0,0.0,0.25,0.0,0.0,0.0,0.0,0.0,0.0,0.0,0.0,10.25
Seabra,PG-PR-01,Seabra,Seabra - PG-PR-01,-12.428149,-41.770409,Chapada Diamantina,RPGA do Rio Paraguaçu,0.0,0.25,0.0,0.75,1.5,0.0,0.0,0.0,0.0,4.5,0.0,29.0,0.25,0.0,0.0,4.5,2.0,0.0,1.75,0.0,0.0,0.0,0.0,0.0,0.0,0.0,0.0,0.0,0.0,44.5
Iraquara,PG-PR-02,Iraquara,Iraquara - PG-PR-02,-12.255093,-41.61679,Chapada Diamantina,RPGA do Rio Paraguaçu,0.25,0.0,0.25,0.25,0.5,0.0,0.0,0.0,0.0,0.0,0.0,6.25,3.25,0.25,0.0,24.0,6.0,0.25,0.5,0.0,0.0,0.0,0.0,0.0,0.0,0.0,0.0,0.0,0.0,41.75
Piritiba,PG-PR-07,Piritiba,Piritiba - PG-PR-07,-11.733137,-40.562306,Chapada Diamantina,RPGA do Rio Paraguaçu,16.25,0.25,0.0,0.25,0.0,0.0,0.0,0.0,0.0,0.0,0.0,0.0,0.0,0.0,1.25,0.75,0.0,0.0,0.25,10.25,0.0,0.0,0.0,0.0,0.0,0.0,0.0,0.0,0.5,29.75
Baixa Grande,PG-PR-08,Baixa Grande,Baixa Grande - PG-PR-08,-11.908701,-40.183683,Chapada Diamantina,RPGA do Rio Paraguaçu,0.0,2.25,0.0,0.5,0.0,0.0,0.0,0.0,0.0,0.0,7.25,0.0,0.0,0.0,1.25,0.25,1.25,0.0,1.0,0.5,0.0,0.0,0.0,0.0,0.0,2.5,0.0,0.0,0.0,16.75
Tapiramutá,PG-PR-09,Tapiramutá,Tapiramutá - PG-PR-09,-11.838502,-40.791761,Chapada Diamantina,RPGA do Rio Paraguaçu,1.25,0.75,0.5,0.0,3.75,0.0,0.0,0.0,0.0,0.0,0.0,2.5,4.75,0.0,0.25,3.25,2.25,0.0,0.5,6.5,0.0,0.0,0.0,0.0,0.0,0.0,0.0,0.0,0.0,26.25
Jeremoabo,EBDA,Jeremoabo,Jeremoabo - EBDA,-10.067951,-38.351041,Nordeste,RPGA do Rio Vaza-Barris,0.5,0.0,0.0,0.0,0.0,0.0,0.0,0.0,0.0,0.0,0.0,0.0,0.0,0.0,0.0,0.0,0.0,9.5,12.7,4.8,1.0,0.0,0.0,0.0,0.0,0.0,0.0,0.0,0.0,28.5
Coronel João Sá,EBDA,Coronel João Sá,Coronel João Sá - EBDA,-10.284624,-37.917698,Nordeste,RPGA do Rio Vaza-Barris,0.0,0.0,0.0,0.0,0.0,0.0,0.0,0.0,0.0,0.0,0.0,0.0,0.0,0.0,0.0,0.0,0.0,0.0,5.2,0.0,0.0,0.8,0.0,0.0,0.0,0.0,0.0,0.0,0.0,6.0
Abaré,EBDA,Abaré,Abaré - EBDA,-8.71792,-39.117725,Nordeste,RPGA dos Rios Macururé e Curaçá,0.0,0.0,0.0,0.0,0.0,0.0,0.0,0.0,0.0,0.0,0.0,0.0,0.0,0.0,0.0,0.0,0.0,14.0,17.5,7.2,0.0,0.0,0.0,0.0,0.0,0.0,0.0,0.0,0.0,38.7
Chorrochó,EBDA,Chorrochó,Chorrochó - EBDA,-8.984593,-39.101059,Nordeste,RPGA dos Rios Macururé e Curaçá,0.0,0.0,0.0,0.0,0.0,0.0,0.0,0.0,0.0,0.0,10.6,0.0,0.0,0.0,0.0,0.0,0.0,25.7,0.0,0.0,0.0,2.0,0.0,0.0,0.0,0.0,0.0,0.0,0.0,38.3
Rodelas,EBDA,Rodelas,Rodelas - EBDA,-8.83459,-38.751049,Nordeste,RPGA dos Rios Macururé e Curaçá,3.2,0.0,0.0,0.0,0.0,0.0,0.0,0.0,0.0,5.2,0.0,0.0,0.0,0.0,0.0,0.0,0.0,16.2,0.0,0.0,0.0,0.0,0.0,0.0,0.0,0.0,0.0,0.0,0.0,24.6
Macururé,EBDA,Macururé,Macururé - EBDA,-9.16793,-39.051056,Nordeste,RPGA dos Rios Macururé e Curaçá,0.0,0.0,0.0,0.0,0.0,0.0,0.0,0.0,0.0,0.0,0.0,0.0,0.0,0.0,0.0,0.0,0.0,6.4,0.0,0.0,0.0,0.0,0.0,0.0,0.0,0.0,0.0,0.0,0.0,6.4
Curaçá,EBDA,Curaçá,Curaçá - EBDA,-8.98459,-39.90108,Nordeste,RPGA dos Rios Macururé e Curaçá,0.0,0.0,0.0,0.0,0.0,0.0,0.0,0.0,0.0,66.0,29.7,16.1,0.0,0.0,0.0,0.0,0.0,0.0,66.5,13.9,0.0,0.0,0.0,0.0,0.0,0.0,0.0,0.0,0.0,192.21
Jacobina,EBDA,Jacobina,Jacobina - EBDA,-11.167968,-40.501101,Nordeste,RPGA do Rio Itapicuru,0.0,0.0,0.0,0.0,0.0,0.0,0.0,0.0,0.0,0.0,0.0,0.0,0.0,0.0,0.0,0.0,0.0,0.0,0.0,0.0,0.0,0.0,0.0,0.0,0.0,0.0,0.0,0.0,0.0,0.0
Miguel Calmon,EBDA,Miguel Calmon,Miguel Calmon - EBDA,-11.417972,-40.584438,Nordeste,RPGA do Rio Itapicuru,0.0,0.0,0.0,0.0,0.0,0.0,0.0,0.0,0.0,0.0,0.0,0.0,39.5,0.0,0.0,2.0,1.0,0.0,0.0,3.8,0.0,0.0,0.0,0.0,0.0,0.0,0.0,0.0,0.0,46.3
Saúde,EBDA,Saúde,Saúde - EBDA,-10.934629,-40.417765,Nordeste,RPGA do Rio Itapicuru,33.3,0.0,0.0,0.0,0.0,0.0,0.0,0.0,0.0,0.0,0.0,0.0,0.0,0.0,0.0,0.0,0.0,0.0,0.0,0.0,0.0,0.0,0.0,0.0,0.0,0.0,0.0,0.0,0.0,33.3
Riachão do Jacuípe_EBDA,,Riachão do Jacuípe_EBDA,Riachão do Jacuípe_EBDA,-11.801317,-39.384408,Nordeste,RPGA do Rio Paraguaçu,0.0,0.0,0.0,0.0,0.0,0.0,0.0,0.0,0.0,0.0,0.0,0.0,0.0,0.0,0.0,0.0,0.0,0.0,0.0,0.0,0.0,0.0,0.0,0.0,0.0,0.0,0.0,0.0,0.0,0.0
Santa Bárbara,EBDA,Santa Bárbara,Santa Bárbara - EBDA,-11.984657,-38.984398,Nordeste,RPGA do Recôncavo Norte,0.0,0.0,0.0,0.0,0.0,0.0,0.0,0.0,0.0,0.0,0.0,0.0,0.0,0.0,0.0,0.0,0.0,0.0,0.0,0.0,0.0,0.0,0.0,0.0,0.0,0.0,0.0,0.0,0.0,0.0
Senhor do Bonfim,A428,Senhor do Bonfim,Senhor do Bonfim - A428,-10.443072,-40.148244,Nordeste,RPGA do Rio Itapicuru,0.0,1.6,0.0,0.0,0.0,0.0,0.0,0.0,0.0,0.0,49.0,63.4,0.0,0.0,0.0,0.4,0.0,0.0,3.2,8.4,0.2,0.4,0.0,0.0,0.0,0.0,0.0,0.0,0.2,126.81
Cansanção,EBDA,Cansanção,Cansanção - EBDA,-10.66796,-39.501074,Nordeste,RPGA do Rio Itapicuru,0.0,0.0,0.0,0.0,0.0,0.0,0.0,0.0,0.0,0.0,0.0,55.4,0.0,0.0,0.0,0.0,0.0,0.0,2.8,16.7,0.0,0.0,0.0,0.0,0.0,0.0,0.0,0.0,0.0,74.9
Tucano,EBDA,Tucano,Tucano - EBDA,-10.971302,-38.781056,Nordeste,RPGA do Rio Itapicuru,0.0,0.0,0.0,0.0,0.0,0.0,0.0,0.0,0.0,0.0,0.0,0.0,0.0,0.0,0.0,0.0,0.0,7.0,11.0,0.0,0.0,0.0,0.0,0.0,0.0,0.0,0.0,0.0,0.0,18.0
Serrinha,(Barrocas) - EBDA,Serrinha,Serrinha - (Barrocas) - EBDA,-11.084636,-39.53441,Nordeste,RPGA do Rio Itapicuru,0.0,0.0,0.0,0.0,0.0,0.0,0.0,0.0,0.0,15.7,0.0,0.0,0.0,0.0,2.0,0.0,0.0,0.0,0.0,0.0,0.0,0.0,0.0,0.0,0.0,0.0,0.0,0.0,0.0,17.7
Banzaê,EBDA,Banzaê,Banzaê - EBDA,-10.584629,-38.617717,Nordeste,RPGA do Rio Itapicuru,0.0,1.9,0.0,0.0,0.0,0.0,0.0,0.0,0.0,17.8,0.0,0.0,0.0,0.0,0.0,0.0,0.0,8.1,21.0,0.0,0.0,0.0,0.0,0.0,0.0,0.0,0.0,3.2,0.0,52.0
Paulo Afonso,A411,Paulo Afonso,Paulo Afonso - A411,-9.379325,-38.227424,Nordeste,RPGA dos Rios Macururé e Curaçá,0.0,0.0,0.0,0.0,0.0,0.0,0.0,0.0,0.0,0.0,0.0,0.0,0.0,0.0,0.0,0.0,0.0,0.0,67.4,0.4,0.0,0.0,0.0,0.0,0.0,0.0,0.0,0.0,0.0,67.81
Cipó,83192,Cipó,Cipó - 83192,-11.083333,-38.516667,Nordeste,RPGA do Rio Itapicuru,0.0,5.3,0.1,0.0,0.0,4.2,0.0,0.0,0.0,0.0,4.9,20.6,0.0,0.0,0.0,0.0,3.7,0.5,10.0,14.6,0.0,0.0,0.0,0.0,0.0,0.0,0.0,0.0,0.0,63.91
Jacobina,83186,Jacobina,Jacobina - 83186,-11.172778,-40.534167,Nordeste,RPGA do Rio Itapicuru,10.4,0.0,0.0,4.6,0.0,2.3,0.0,0.0,0.0,0.0,0.0,0.0,1.7,1.8,2.7,0.9,2.6,0.0,50.4,10.1,0.0,0.0,0.0,0.0,0.0,0.0,0.0,0.0,0.0,87.5
Monte Santo,83090,Monte Santo,Monte Santo - 83090,-10.4425,-39.331111,Nordeste,RPGA do Rio Itapicuru,1.1,0.1,0.0,0.0,0.0,0.0,0.0,0.0,0.0,0.0,0.2,0.0,0.0,0.0,0.0,0.0,0.0,0.0,2.9,6.0,0.0,0.0,0.0,0.0,0.0,0.0,0.0,0.0,0.0,10.3
Paulo Afonso,82986,Paulo Afonso,Paulo Afonso - 82986,-9.379325,-38.227424,Nordeste,RPGA dos Rios Macururé e Curaçá,0.0,0.0,0.0,0.0,0.0,0.0,0.0,0.0,0.0,0.0,0.0,0.0,0.0,0.0,0.0,0.0,0.0,0.0,57.4,0.1,0.0,0.0,0.0,0.0,0.0,0.0,0.0,0.0,0.0,57.5
Serrinha,83190,Serrinha,Serrinha - 83190,-11.633333,-38.966667,Nordeste,RPGA do Recôncavo Norte,13.3,0.3,0.3,0.0,0.0,0.0,0.0,0.0,0.0,0.0,0.9,0.0,0.2,0.0,0.3,0.0,2.5,0.0,0.1,0.1,0.0,0.0,0.0,0.0,0.0,0.0,0.0,0.0,0.0,18.01
Conde,A431,Conde,Conde - A431,-12.03622,-37.68322,Nordeste,RPGA do Rio Itapicuru,18.4,0.0,0.0,0.0,0.0,1.2,0.0,0.0,0.0,0.0,2.0,1.2,0.0,0.6,0.0,5.2,0.0,4.0,25.6,0.0,0.0,1.2,0.0,0.2,5.8,0.8,3.4,0.2,0.0,69.81
Uauá,A435,Uauá,Uauá - A435,-9.833617,-39.495631,Nordeste,RPGA do Rio Vaza-Barris,0.0,0.0,0.6,0.0,0.0,0.0,2.0,0.0,0.0,0.0,0.2,0.2,7.8,0.0,0.0,0.0,0.0,0.0,10.2,4.2,0.0,0.0,0.0,0.0,0.2,0.0,0.0,0.0,0.0,25.4
Euclides da Cunha,A442,Euclides da Cunha,Euclides da Cunha - A442,-10.537233,-38.996605,Nordeste,RPGA do Rio Itapicuru,10.4,0.4,0.6,0.0,0.0,0.0,2.0,0.0,0.0,0.0,0.0,2.0,0.0,0.0,0.0,0.0,1.4,2.0,2.6,17.0,0.0,0.0,0.0,0.0,0.0,0.0,0.0,0.0,0.0,38.41
Queimadas,A436,Queimadas,Queimadas - A436,-10.984645,-39.617009,Nordeste,RPGA do Rio Itapicuru,0.0,2.2,0.0,0.0,0.2,0.0,0.0,0.0,0.0,0.0,2.0,0.0,0.8,0.0,8.4,0.2,0.0,0.0,1.2,19.8,0.0,0.0,0.0,0.0,0.0,0.0,0.0,0.0,0.0,34.8
Jacobina,A440,Jacobina,Jacobina - A440,-11.205136,-40.464979,Nordeste,RPGA do Rio Itapicuru,0.6,1.0,0.0,0.8,0.0,0.0,0.0,0.0,0.0,0.0,0.8,0.0,2.8,10.4,4.8,3.8,0.0,0.0,68.0,10.2,1.2,0.0,0.0,0.0,0.0,0.0,0.0,0.0,0.0,104.4
Serrinha,A441,Serrinha,Serrinha - A441,-11.664586,-39.022946,Nordeste,RPGA do Rio Paraguaçu,5.8,0.4,0.0,0.2,0.0,0.0,0.0,0.0,0.0,0.0,0.0,0.0,0.0,0.0,0.4,0.2,3.0,0.0,0.0,0.0,0.0,0.0,0.0,0.0,0.0,0.0,0.0,0.0,0.0,10.0
EBDA Alagoinhas,EBDA,Itapicuru,Itapicuru (EBDA Alagoinhas) - EBDA,-11.317978,-38.217708,Nordeste,RPGA do Rio Itapicuru,0.0,0.0,0.0,0.0,0.0,0.0,0.0,0.0,0.0,0.0,0.0,0.0,0.0,0.0,0.0,0.0,0.0,0.0,0.0,0.0,0.0,0.0,0.0,0.0,0.0,0.0,0.0,0.0,0.0,0.0
Canudos,EBDA - EBDA,Canudos,Canudos - EBDA - EBDA,-9.897945,-39.027448,Nordeste,RPGA do Rio Vaza-Barris,0.0,0.0,0.0,0.0,0.0,0.0,0.0,0.0,0.0,0.0,15.0,7.0,0.0,0.0,0.0,0.0,0.0,43.0,39.0,0.0,0.0,0.0,0.0,0.0,0.0,0.0,0.0,0.0,0.0,104.0
Tijuaçú,EBDA,Senhor do Bomfim,Senhor do Bomfim (Tijuaçú) - EBDA,-10.617957,-40.134423,Nordeste,RPGA do Rio Itapicuru,0.0,0.0,0.0,0.0,0.0,0.0,0.0,0.0,0.0,0.0,0.0,0.0,16.0,0.0,0.0,0.0,0.0,0.0,0.0,0.0,0.0,0.0,0.0,0.0,0.0,0.0,0.0,0.0,0.0,16.0
Faz. Boa Esperança,EBDA,Pindobaçu,Pindobaçu (Faz. Boa Esperança) - EBDA,-10.734626,-40.367764,Nordeste,RPGA do Rio Itapicuru,0.0,0.0,0.0,0.0,0.0,0.0,0.0,0.0,0.0,0.0,0.0,2.0,0.0,0.0,0.0,0.0,0.0,0.0,5.0,4.0,0.0,0.0,0.0,0.0,0.0,0.0,0.0,0.0,0.0,11.0
Caém,EBDA,Caém,Caém - EBDA,-11.091855,-40.436378,Nordeste,RPGA do Rio Itapicuru,0.75,0.0,0.25,0.0,0.25,0.0,0.0,0.0,0.0,0.0,0.0,0.0,5.25,0.5,1.0,7.0,0.0,4.0,19.0,0.0,3.0,0.0,0.0,0.0,0.0,0.0,0.0,0.0,0.0,41.0
Capela do Alto Alegre,EBDA,Capela do Alto Alegre,Capela do Alto Alegre - EBDA,-11.669369,-39.838864,Nordeste,RPGA do Rio Paraguaçu,0.0,0.0,0.0,0.0,0.0,0.0,0.0,0.0,0.0,5.0,0.0,0.0,0.0,0.0,3.0,2.0,0.0,0.0,11.0,0.0,0.0,0.0,0.0,0.0,0.0,0.0,0.0,0.0,0.0,21.0
Andorinha,IT-PR-40,Andorinha,Andorinha - IT-PR-40,-10.301157,-39.783662,Nordeste,RPGA do Rio Itapicuru,0.0,0.0,0.0,0.0,0.0,0.0,0.0,0.0,0.0,0.0,25.5,0.75,0.5,0.0,0.25,0.0,0.0,0.0,0.0,1.5,0.0,0.0,0.0,0.0,0.0,0.0,0.0,0.0,0.0,28.5
Ponto Novo,IT-PR-41,Ponto Novo,Ponto Novo - IT-PR-41,-10.847006,-40.112286,Nordeste,RPGA do Rio Itapicuru,1.5,2.25,0.0,0.0,0.0,0.0,0.0,0.0,0.0,0.0,0.0,0.0,0.0,0.0,0.25,0.0,0.0,0.0,0.75,15.5,0.0,0.0,0.0,0.0,0.0,0.0,0.0,0.0,0.0,20.25
Ipirá,PG-CL-02,Ipirá,Ipirá - PG-CL-02,-12.14986,-39.76454,Nordeste,RPGA do Rio Paraguaçu,0.5,26.75,0.0,1.25,0.0,0.0,0.0,0.0,0.0,0.0,0.0,0.0,0.0,0.0,1.25,2.5,0.0,0.0,0.5,0.25,0.0,0.0,0.0,0.0,0.0,0.0,0.0,0.0,0.0,33.0
Serrinha,RN-CL-02,Serrinha,Serrinha - RN-CL-02,-11.648333,-38.982777,Nordeste,RPGA do Recôncavo Norte,20.25,5.5,0.25,1.75,0.0,0.0,0.0,0.0,0.0,0.0,0.0,0.0,0.0,0.0,0.25,0.0,0.5,0.0,0.0,0.0,6.0,0.0,0.0,0.0,0.0,0.0,0.25,1.0,0.0,35.75
Caém,IT-PR-35,Caém,Caém - IT-PR-35,-11.093399,-40.437579,Nordeste,RPGA do Rio Itapicuru,0.5,0.25,0.25,0.0,0.0,0.25,0.0,0.0,0.0,0.0,0.0,0.0,0.0,5.75,0.25,0.75,7.0,0.0,20.5,2.5,3.0,0.0,0.0,0.0,0.0,0.0,0.0,0.0,0.0,41.0
Tombador Araújo,IT-PR-36,Jacobina,Jacobina (Tombador Araújo) - IT-PR-36,-11.168677,-40.670642,Nordeste,RPGA do Rio Itapicuru,0.0,1.5,0.0,0.0,0.0,0.0,0.0,0.0,0.0,0.0,0.25,0.0,0.25,0.0,4.5,1.75,0.0,0.0,29.25,7.75,0.0,0.0,0.0,0.0,0.0,0.0,0.0,0.0,0.0,45.25
Carrapichel,IT-PR-37,Senhor do Bonfim,Senhor do Bonfim (Carrapichel) - IT-PR-37,-10.388101,-40.220067,Nordeste,RPGA do Rio Itapicuru,0.0,2.0,0.0,0.0,0.0,0.0,0.0,0.0,0.0,0.0,31.0,21.25,0.0,0.0,0.0,0.5,0.0,0.0,6.5,7.75,0.25,0.0,0.0,0.0,0.0,0.0,0.0,0.0,0.0,69.25
Santaluz,IT-PR-17,Santaluz,Santaluz - IT-PR-17,-11.24831,-39.37563,Nordeste,RPGA do Rio Itapicuru,0.25,0.0,0.0,0.0,0.0,0.0,0.0,0.0,0.0,0.0,17.0,0.0,0.0,0.0,0.0,0.5,0.0,0.0,0.75,0.0,0.0,0.0,0.0,0.0,0.0,0.0,0.0,0.0,0.0,18.5
Fazenda Boa Vista,IT-PR-18,Uauá,Uauá (Fazenda Boa Vista) - IT-PR-18,-10.05893,-39.706158,Nordeste,RPGA do Rio Itapicuru,0.0,0.0,0.0,0.0,0.0,0.0,0.0,0.0,0.0,0.75,0.75,3.75,2.25,0.0,0.0,0.0,0.0,0.0,2.25,18.5,0.25,0.25,0.0,0.0,0.0,0.0,0.0,0.0,0.0,28.75
Ambrósio,IT-PR-19,Cansanção,Cansanção (Ambrósio) - IT-PR-19,-10.986458,-39.237813,Nordeste,RPGA do Rio Itapicuru,0.0,0.75,0.0,0.0,0.0,0.0,0.0,0.0,0.0,0.0,2.0,0.0,0.0,0.0,0.0,0.0,0.0,0.0,16.75,3.5,0.0,1.25,0.0,0.0,0.0,0.0,0.0,0.0,0.0,24.25
Nordestina,IT-PR-22,Nordestina,Nordestina - IT-PR-22,-10.826728,-39.437543,Nordeste,RPGA do Rio Itapicuru,0.0,0.0,0.0,0.0,0.0,1.0,0.0,0.0,0.0,0.0,0.0,0.0,0.0,0.25,0.0,0.0,0.0,1.0,9.0,15.75,0.0,0.0,0.0,0.0,0.0,0.0,0.0,0.0,0.0,27.0
Açude Monteiro,IT-PR-23,Nordestina,Nordestina (Açude Monteiro) - IT-PR-23,-10.77645,-39.559491,Nordeste,RPGA do Rio Itapicuru,0.0,0.0,0.0,0.0,0.0,0.0,0.0,0.0,0.0,0.0,0.0,0.0,0.0,0.0,0.0,0.0,0.0,0.0,10.25,14.5,0.0,0.0,0.0,0.0,0.0,0.0,0.0,0.0,0.0,24.75
Pedra Vermelha,IT-PR-24,Monte Santo,Monte Santo (Pedra Vermelha) - IT-PR-24,-10.454497,-39.559488,Nordeste,RPGA do Rio Itapicuru,2.75,0.25,0.0,0.0,0.0,1.75,0.0,0.0,0.0,0.0,26.0,0.0,1.0,0.0,0.0,0.0,0.0,0.0,1.25,3.25,0.0,0.0,0.0,0.0,0.0,0.0,0.0,0.0,0.0,36.25
Quijingue,IT-PR-25,Quijingue,Quijingue - IT-PR-25,-10.783951,-39.20809,Nordeste,RPGA do Rio Itapicuru,1.5,0.5,0.0,0.0,0.0,0.0,0.0,0.0,0.0,0.0,0.25,0.0,0.0,0.0,0.0,0.0,0.0,0.25,6.25,17.25,0.0,0.0,0.0,0.0,0.0,0.0,0.0,0.0,0.0,26.0
Conde,IT-PR-31,Conde,Conde - IT-PR-31,-11.813434,-37.616927,Nordeste,RPGA do Rio Itapicuru,14.0,0.0,0.0,0.0,0.0,0.75,0.0,0.0,0.0,0.0,0.0,0.75,0.0,0.25,0.0,4.0,0.0,2.5,18.25,0.0,0.0,1.0,0.0,0.0,3.5,0.5,2.5,0.0,0.0,48.0
Curral Falso,IT-PR-01,Ribeira do Pombal,Ribeira do Pombal (Curral Falso) - IT-PR-01,-10.697843,-38.5714,Nordeste,RPGA do Rio Itapicuru,1.0,3.25,0.0,0.0,0.0,0.0,0.5,0.0,0.0,0.0,12.75,4.5,1.0,0.0,0.0,0.0,0.0,0.5,25.25,15.5,0.0,0.0,0.0,0.0,0.0,0.0,0.0,0.0,0.0,64.25
Aribicé,IT-PR-02,Euclides da Cunha,Euclides da Cunha (Aribicé) - IT-PR-02,-10.557835,-38.793352,Nordeste,RPGA do Rio Itapicuru,0.0,2.0,0.25,0.0,0.0,0.0,0.5,0.0,0.0,0.0,2.5,0.0,0.0,0.0,0.0,0.0,0.0,2.5,2.5,4.25,0.0,0.0,0.0,0.0,0.0,0.0,0.0,0.0,0.0,14.5
Fazenda Santo Antônio,IT-PR-06,Euclides da Cunha,Euclides da Cunha (Fazenda Santo Antônio) - IT-PR-06,-10.405331,-39.045582,Nordeste,RPGA do Rio Itapicuru,2.5,3.0,0.25,0.0,0.25,0.5,0.0,0.0,0.0,0.0,1.25,0.0,0.0,0.0,0.25,0.25,0.0,0.0,15.25,6.75,0.0,0.0,0.0,0.0,0.0,0.0,0.0,0.0,0.0,30.25
Crisópolis,IT-PR-08,Crisópolis,Crisópolis - IT-PR-08,-11.510923,-38.120832,Nordeste,RPGA do Rio Itapicuru,6.25,0.25,0.0,0.0,0.0,0.5,0.0,0.0,0.0,0.0,4.75,0.0,0.0,0.0,0.5,2.0,1.25,1.25,26.0,7.25,0.0,0.0,0.0,0.0,0.0,0.0,0.0,0.0,0.0,50.0
Olindina,IT-PR-11,Olindina,Olindina - IT-PR-11,-11.343693,-38.318892,Nordeste,RPGA do Rio Itapicuru,0.0,4.5,0.0,0.0,0.0,0.0,0.0,0.0,0.0,0.0,0.0,0.0,0.0,0.0,0.0,0.5,0.5,0.5,15.5,7.5,0.0,0.0,0.0,0.0,0.0,0.0,0.0,0.0,0.0,29.0
Itapicuru,IT-PR-12,Itapicuru,Itapicuru - IT-PR-12,-11.321193,-38.225003,Nordeste,RPGA do Rio Itapicuru,0.0,2.75,0.0,0.0,0.0,1.25,0.0,0.0,0.0,0.0,0.5,0.0,0.0,0.0,0.0,0.0,2.75,0.0,24.75,6.25,0.0,0.0,0.0,0.0,0.0,0.0,0.0,0.0,0.0,38.25
Boa Hora,IT-PR-13,Ribeira do Amparo,Ribeira do Amparo (Boa Hora) - IT-PR-13,-10.965,-38.5234,Nordeste,RPGA do Rio Itapicuru,0.5,1.5,1.5,0.5,0.5,1.0,1.0,0.5,0.25,0.75,6.0,0.75,1.0,0.75,0.0,0.0,4.0,0.5,5.5,1.0,1.75,1.25,2.25,1.0,0.25,0.75,1.0,0.25,0.75,36.75
Ponto Novo,,Ponto Novo,Ponto Novo,-10.846728,-40.112008,Nordeste,RPGA do Rio Itapicuru,1.5,2.25,0.0,0.0,0.0,0.0,0.0,0.0,0.0,0.0,0.0,0.0,0.0,0.0,0.25,0.0,0.0,0.0,0.75,15.5,0.0,0.0,0.0,0.0,0.0,0.0,0.0,0.0,0.0,20.25
Tanquinho,EBDA,Tanquinho,Tanquinho - EBDA,-11.96799,-39.101068,Nordeste,RPGA do Rio Paraguaçu,0.0,14.0,0.0,0.0,0.0,0.0,0.0,0.0,0.0,0.0,0.0,0.0,6.5,0.0,0.0,0.0,0.0,0.0,0.0,0.0,0.0,0.0,0.0,6.5,0.0,0.0,0.0,0.0,6.5,33.5
Candeal,EBDA,Candeal,Candeal - EBDA,-11.80132,-39.117735,Nordeste,RPGA do Rio Paraguaçu,0.0,0.0,0.0,0.0,0.0,0.0,0.0,0.0,0.0,0.0,0.0,0.0,0.0,0.0,0.0,0.0,0.0,0.0,0.0,0.0,0.0,0.0,0.0,0.0,0.0,0.0,0.0,0.0,0.0,0.0
Inhambupe,EBDA,Inhambupe,Inhambupe - EBDA,-11.784656,-38.351047,Nordeste,RPGA do Recôncavo Norte,0.5,0.0,0.0,0.0,0.0,0.0,0.0,0.0,0.0,0.0,0.0,0.0,0.0,0.0,0.0,0.0,0.0,8.0,35.0,0.0,0.0,0.0,0.0,0.0,0.0,0.0,0.0,0.0,0.0,43.5
Esplanada,EBDA,Esplanada,Esplanada - EBDA,-11.784656,-37.951038,Nordeste,RPGA do Recôncavo Norte,0.0,0.0,0.0,0.0,0.0,0.0,0.0,0.0,0.0,0.0,0.0,0.0,0.0,1.0,0.0,0.0,3.0,5.0,7.0,8.0,7.0,0.0,0.0,0.0,0.0,0.0,0.0,0.0,0.0,31.0
Entre Rios,EBDA,Entre Rios,Entre Rios - EBDA,-11.951326,-38.084374,Nordeste,RPGA do Recôncavo Norte,0.0,0.0,0.0,0.0,0.0,0.0,0.0,0.0,0.0,0.0,0.0,0.0,0.0,0.0,0.0,0.0,0.0,0.0,0.0,0.0,0.0,0.0,0.0,0.0,0.0,0.0,0.0,0.0,0.0,0.0
Rio Real,EBDA,Rio Real,Rio Real - EBDA,-11.48465,-37.934369,Nordeste,RPGA do Rio Real,3.4,6.6,0.0,0.0,0.8,0.0,0.0,0.0,0.0,0.0,0.0,0.0,0.0,0.0,2.2,7.0,0.0,20.0,49.1,0.0,0.0,5.4,0.0,0.0,0.0,0.0,0.0,0.0,0.0,94.5
Sátiro Dias,EBDA,Sátiro Dias,Sátiro Dias - EBDA,-11.58465,-38.584386,Nordeste,RPGA do Recôncavo Norte,0.0,0.0,0.0,0.0,0.0,0.0,0.0,0.0,0.0,0.0,0.0,0.0,0.0,0.0,0.0,0.0,0.0,10.0,17.5,0.0,0.0,0.0,0.0,0.0,0.0,0.0,0.0,0.0,0.0,27.5
Ribeira do Pombal,EBDA,Ribeira do Pombal,Ribeira do Pombal - EBDA,-10.834635,-38.534383,Nordeste,RPGA do Rio Itapicuru,0.0,0.0,0.0,0.0,0.0,0.0,0.0,0.0,0.0,44.2,6.2,0.0,0.0,0.0,0.0,0.0,0.0,40.0,20.0,0.0,0.0,0.0,0.0,0.0,0.0,0.0,0.0,0.0,0.0,110.4
Cipó,EBDA,Cipó,Cipó - EBDA,-11.101305,-38.517717,Nordeste,RPGA do Rio Itapicuru,4.5,0.0,0.0,0.0,3.5,0.0,0.0,0.0,0.0,0.0,28.0,0.0,0.0,0.0,0.0,2.0,0.0,9.4,28.6,0.0,0.0,0.0,0.0,0.0,0.0,0.0,0.0,0.0,0.0,76.0
Olindina_EBDA,EBDA,Olindina_EBDA,Olindina_EBDA - EBDA,-11.351311,-38.33438,Nordeste,RPGA do Rio Itapicuru,0.3,0.0,0.0,0.0,0.0,0.0,0.0,0.0,0.0,0.0,0.0,0.0,0.0,0.0,0.0,0.0,0.0,3.8,0.0,0.0,0.0,0.0,0.0,0.0,0.0,0.0,0.0,0.0,0.0,4.1
Antas,EBDA,Antas,Antas - EBDA,-10.401293,-38.334375,Nordeste,RPGA do Rio Vaza-Barris,0.0,0.0,0.0,0.0,0.0,0.0,0.0,0.0,0.0,0.0,0.0,0.0,0.0,0.0,0.0,0.0,0.0,10.0,10.0,0.0,0.0,30.0,0.0,0.0,0.0,0.0,0.0,0.0,0.0,50.0
Paripiranga,EBDA,Paripiranga,Paripiranga - EBDA,-10.684633,-37.851032,Nordeste,RPGA do Rio Vaza-Barris,5.5,0.0,0.0,0.0,0.0,0.0,0.0,0.0,0.0,0.0,0.0,0.0,0.0,0.0,0.0,0.0,0.0,30.0,11.1,0.0,0.0,0.0,0.0,0.0,0.0,0.0,0.0,0.0,0.0,46.6
Nova Soure,EBDA,Nova Soure,Nova Soure - EBDA,-11.251311,-38.484383,Nordeste,RPGA do Rio Itapicuru,8.3,0.0,0.0,0.0,0.8,0.0,0.0,0.0,0.0,0.0,0.0,0.0,0.0,0.0,0.0,0.0,0.0,36.3,10.4,0.0,0.0,0.0,0.0,0.0,0.0,0.0,0.0,0.0,0.0,55.8
Ribeira do Amparo,EBDA,Ribeira do Amparo,Ribeira do Amparo - EBDA,-11.034638,-38.43438,Nordeste,RPGA do Rio Itapicuru,0.0,0.0,0.0,0.0,4.0,0.0,0.0,0.0,0.0,0.0,0.0,0.0,0.0,0.0,0.0,8.7,0.0,12.3,32.5,0.0,0.0,0.0,0.0,0.0,0.0,0.0,0.0,3.7,0.0,61.2
Heliópolis,EBDA,Heliópolis,Heliópolis - EBDA,-10.667965,-38.284375,Nordeste,RPGA do Rio Real,0.0,0.0,0.0,0.0,0.0,0.0,0.0,0.0,0.0,0.0,0.0,0.0,0.0,0.0,0.0,0.0,0.0,20.0,10.0,0.0,0.0,0.0,0.0,0.0,0.0,0.0,0.0,0.0,0.0,30.0
Cícero Dantas,EBDA,Cícero Dantas,Cícero Dantas - EBDA,-10.584629,-38.384377,Nordeste,RPGA do Rio Real,0.0,0.0,0.0,10.0,0.0,0.0,0.0,0.0,0.0,0.0,0.0,0.0,0.0,0.0,0.0,0.0,0.0,15.0,15.0,0.0,0.0,10.0,0.0,0.0,0.0,0.0,0.0,0.0,0.0,50.0
Sítio do Quinto,EBDA,Sítio do Quinto,Sítio do Quinto - EBDA,-10.367959,-38.201038,Nordeste,RPGA do Rio Vaza-Barris,0.0,0.0,0.0,0.0,4.3,0.0,0.0,0.0,0.0,0.0,0.0,0.0,0.0,0.0,0.0,0.0,0.0,0.0,7.6,0.0,0.0,0.0,0.0,0.0,0.0,0.0,0.0,0.0,0.0,11.9
Pedro Alexandre,EBDA,Pedro Alexandre,Pedro Alexandre - EBDA,-10.017951,-37.884362,Nordeste,RPGA do Rio Vaza-Barris,0.0,0.0,0.0,0.0,0.0,2.3,0.0,0.0,0.0,0.0,0.0,0.0,0.0,0.0,0.0,0.0,0.0,24.0,3.7,0.0,1.7,0.0,0.0,0.0,0.0,0.0,0.0,0.0,0.0,31.7
Adustina,EBDA,Adustina,Adustina - EBDA,-10.534629,-38.117704,Nordeste,RPGA do Rio Vaza-Barris,3.9,0.0,0.0,0.0,0.0,0.0,0.0,0.0,0.0,0.0,0.0,0.0,0.0,0.0,0.0,0.0,0.0,8.9,0.0,0.0,0.0,0.0,0.0,0.0,0.0,0.0,0.0,0.0,0.0,12.8
Uauá,EBDA,Uauá,Uauá - EBDA,-9.834609,-39.484404,Nordeste,RPGA do Rio Vaza-Barris,12.5,0.0,0.0,0.0,0.0,0.0,0.0,0.0,0.0,0.0,0.0,2.3,0.0,0.0,0.0,0.0,0.0,0.0,0.0,0.0,0.0,0.0,0.0,0.0,0.0,0.0,0.0,0.0,0.0,14.8
Filadélfia,EBDA,Filadélfia,Filadélfia - EBDA,-10.734626,-40.134425,Nordeste,RPGA do Rio Itapicuru,0.0,0.0,0.0,0.0,0.0,0.0,0.0,0.0,0.0,0.0,0.0,0.0,0.0,0.0,4.5,0.0,0.0,0.0,0.0,0.0,0.0,0.0,0.0,0.0,0.0,0.0,0.0,0.0,0.0,4.5
Itiúba,EBDA,Itiúba,Itiúba - EBDA,-10.684626,-39.934419,Nordeste,RPGA do Rio Itapicuru,0.0,0.0,0.0,0.0,0.0,0.0,0.0,0.0,0.0,1.5,0.0,0.0,0.0,1.0,0.0,0.0,0.0,1.5,12.5,0.0,0.0,0.0,0.0,0.0,0.0,0.0,0.0,0.0,0.0,16.5
Andorinha,EBDA,Andorinha,Andorinha - EBDA,-10.33462,-39.834414,Nordeste,RPGA do Rio Itapicuru,0.0,0.0,0.0,0.0,0.0,0.0,0.0,0.0,0.0,16.0,14.5,1.0,0.0,0.0,0.0,0.0,0.0,0.0,8.0,0.0,0.0,0.0,0.0,0.0,0.0,0.0,1.0,0.0,0.0,40.5
Ponto Novo,EBDA,Ponto Novo,Ponto Novo - EBDA,-10.851296,-40.051089,Nordeste,RPGA do Rio Itapicuru,63.0,0.0,0.0,0.0,0.0,0.0,0.0,0.0,0.0,0.0,0.0,0.0,0.0,0.0,0.0,0.0,0.0,0.0,0.0,0.0,0.0,0.0,0.0,0.0,0.0,0.0,0.0,0.0,0.0,63.0
Caldeirão Grande,EBDA,Caldeirão Grande,Caldeirão Grande - EBDA,-11.017965,-40.301095,Nordeste,RPGA do Rio Itapicuru,0.0,0.0,0.0,0.0,0.0,0.0,0.0,0.0,0.0,0.0,0.0,0.0,0.0,0.0,0.0,0.0,0.0,0.0,0.0,0.0,0.0,0.0,0.0,0.0,0.0,0.0,7.0,0.0,0.0,7.0
Senhor do Bonfim,EBDA,Senhor do Bonfim,Senhor do Bonfim - EBDA,-10.451287,-40.184425,Nordeste,RPGA do Rio Itapicuru,0.0,0.0,0.0,0.0,0.0,0.0,9.0,0.0,0.0,0.0,0.0,0.0,0.0,0.0,0.0,0.0,0.0,0.0,0.0,0.0,0.0,0.0,0.0,0.0,0.0,0.0,0.0,0.0,0.0,9.0
Serrinha,EBDA,Serrinha,Serrinha - EBDA,-11.651317,-38.967731,Nordeste,RPGA do Recôncavo Norte,2.4,0.0,0.2,0.0,0.0,0.0,0.0,0.0,0.0,0.0,0.0,0.0,0.0,0.4,0.0,3.2,0.0,0.0,0.0,0.0,0.0,0.0,0.0,0.0,0.0,0.0,0.0,0.0,0.0,6.2
Conceição do Coité,EBDA,Conceição do Coité,Conceição do Coité - EBDA,-11.551314,-39.284404,Nordeste,RPGA do Rio Itapicuru,0.0,0.0,0.0,0.0,0.0,0.0,0.0,0.0,0.0,0.0,0.0,0.0,0.0,0.0,0.0,0.0,0.0,0.0,0.0,0.0,0.0,0.0,0.0,0.0,0.0,0.0,0.0,0.0,0.0,0.0
Euclides da Cunha,EBDA,Euclides da Cunha,Euclides da Cunha - EBDA,-10.501293,-39.017728,Nordeste,RPGA do Rio Itapicuru,10.0,1.0,0.0,0.0,0.0,0.0,2.0,0.0,0.0,0.0,2.0,0.0,0.0,0.0,0.0,1.4,0.0,2.8,18.2,0.6,0.0,0.0,0.0,0.0,0.0,0.0,0.0,0.0,0.0,38.0
Queimadas,EBDA,Queimadas,Queimadas - EBDA,-10.984633,-39.634411,Nordeste,RPGA do Rio Itapicuru,0.0,4.0,0.0,0.2,0.0,0.0,0.0,0.0,0.0,2.0,0.0,0.0,0.0,8.4,0.0,0.0,0.0,0.0,21.0,0.0,0.0,0.0,0.0,0.0,0.0,0.0,0.0,0.0,0.0,35.6
Valente,EBDA,Valente,Valente - EBDA,-11.417977,-39.48441,Nordeste,RPGA do Rio Paraguaçu,0.0,0.0,0.0,0.0,0.0,0.0,0.0,0.0,0.0,9.0,0.0,0.0,0.0,0.0,0.0,0.0,0.0,0.0,0.0,0.0,0.0,0.0,0.0,0.0,0.0,0.0,0.0,0.0,0.0,9.0
Paulo Afonso,EBDA,Paulo Afonso,Paulo Afonso - EBDA,-9.401269,-38.217702,Nordeste,RPGA dos Rios Macururé e Curaçá,0.0,0.0,0.0,0.0,0.0,0.0,0.0,0.0,0.0,0.0,0.0,0.0,0.0,0.0,0.0,0.0,0.0,0.0,57.4,0.1,0.0,0.0,0.0,0.0,0.0,0.0,0.0,0.0,0.0,57.5
Santa Brígida,EBDA,Santa Brígida,Santa Brígida - EBDA,-9.734611,-38.134368,Nordeste,RPGA do Riacho do Tará,0.0,0.0,0.0,1.0,0.0,0.0,0.0,0.0,0.0,0.0,0.0,0.0,0.0,0.0,0.0,0.0,0.0,23.0,12.0,5.8,2.5,0.0,0.0,0.0,0.0,0.0,0.0,0.0,0.0,44.3
Glória,EBDA,Glória,Glória - EBDA,-9.351269,-38.251038,Nordeste,RPGA dos Rios Macururé e Curaçá,0.0,0.0,0.0,0.0,0.0,0.0,0.0,0.0,0.0,0.0,0.0,0.0,0.0,0.0,0.0,0.0,0.0,70.5,0.0,0.0,0.6,0.0,0.0,0.0,0.0,0.0,0.0,0.0,0.0,71.1
Casa Nova,EBDA,Casa Nova,Casa Nova - EBDA,-9.08459,-40.617764,Norte,RPGA do Lago de Sobradinho,0.0,0.0,0.0,0.0,0.0,0.0,0.0,0.0,0.0,30.0,15.0,0.0,0.0,0.0,0.0,0.0,0.0,0.0,12.0,0.0,0.0,0.0,0.0,0.0,0.0,0.0,0.0,0.0,0.0,57.0
Remanso,EBDA,Remanso,Remanso - EBDA,-9.601263,-42.08447,Norte,RPGA do Lago de Sobradinho,46.0,0.0,0.0,0.0,0.0,0.0,0.0,0.0,0.0,6.0,23.0,24.0,0.0,0.0,0.0,0.0,0.0,0.0,0.0,0.0,0.0,0.0,0.0,0.0,0.0,0.0,0.0,0.0,0.0,99.0
Sento Sé,EBDA,Sento Sé,Sento Sé - EBDA,-9.734599,-41.851131,Norte,RPGA do Lago de Sobradinho,62.0,0.0,0.0,0.0,0.0,0.0,0.0,0.0,0.0,0.0,4.4,6.8,0.0,0.0,0.0,0.0,0.0,0.0,7.8,4.0,0.0,0.0,0.0,0.0,0.0,0.0,0.0,0.0,0.0,85.0
Juazeiro -EBDA,,Juazeiro -EBDA,Juazeiro -EBDA,-9.41793,-40.501095,Norte,RPGA dos Rios Macururé e Curaçá,1.0,0.0,0.0,0.0,0.0,0.0,0.0,0.0,0.0,110.4,11.0,17.8,0.2,23.6,6.3,0.0,0.0,40.0,0.0,0.0,0.0,0.0,0.0,0.0,0.0,0.0,0.0,0.0,0.0,210.3
Sobradinho,EBDA,Sobradinho,Sobradinho - EBDA,-9.334594,-40.81777,Norte,RPGA do Lago de Sobradinho,0.0,0.0,0.0,0.0,0.0,0.0,0.0,0.0,0.0,0.0,0.0,7.8,0.0,0.0,0.0,0.0,0.0,0.0,12.0,4.5,0.0,0.0,0.0,0.0,0.0,0.0,0.0,0.0,0.0,24.3
Taquarendi,EBDA,Taquarendi,Taquarendi - EBDA,-10.834626,-40.701104,Norte,RPGA do Rio Salitre,0.0,0.0,0.0,0.0,0.0,0.0,0.0,0.0,0.0,0.0,22.5,0.0,0.0,0.0,0.0,0.0,0.0,0.0,0.0,0.0,0.0,0.0,0.0,0.0,0.0,0.0,0.0,0.0,0.0,22.5
Central,EBDA,Central,Central - EBDA,-11.151293,-42.11781,Norte,RPGA dos Rios Verde e Jacaré,0.0,0.0,0.0,0.0,0.0,0.0,0.0,1.0,0.0,0.5,0.0,25.0,0.0,0.0,16.0,0.0,0.0,0.0,0.0,0.0,0.0,0.0,0.0,0.0,0.0,0.0,0.0,0.0,0.0,42.5
Ibipeba,EBDA,Ibipeba,Ibipeba - EBDA,-11.634638,-42.034476,Norte,RPGA dos Rios Verde e Jacaré,0.0,0.0,0.0,0.0,0.0,0.0,0.0,0.0,0.0,15.0,6.3,40.8,0.0,0.0,0.0,0.0,0.0,0.0,0.0,0.0,0.0,0.0,0.0,0.0,0.0,0.0,0.0,0.0,0.0,62.1
Ibititá,EBDA,Ibititá,Ibititá - EBDA,-11.523108,-41.976085,Norte,RPGA dos Rios Verde e Jacaré,0.0,0.0,0.0,0.0,0.0,0.0,0.0,3.0,0.0,0.0,5.0,15.0,0.0,0.0,7.0,0.0,0.0,0.0,0.0,0.0,0.0,0.0,0.0,0.0,0.0,0.0,0.0,0.0,0.0,30.0
Irecê,EBDA,Irecê,Irecê - EBDA,-11.317966,-41.867804,Norte,RPGA dos Rios Verde e Jacaré,0.0,0.0,0.0,0.0,0.0,0.0,0.0,11.0,0.0,28.0,40.0,4.5,0.0,0.0,0.2,0.0,0.0,0.0,0.0,0.0,0.0,0.0,0.0,0.0,0.0,0.0,0.0,0.0,0.0,83.7
João Dourado,EBDA,João Dourado,João Dourado - EBDA,-11.334633,-41.651131,Norte,RPGA dos Rios Verde e Jacaré,0.0,0.0,0.0,0.0,0.0,0.0,0.0,0.0,0.0,15.0,32.0,5.0,0.0,0.0,2.0,0.0,0.0,0.0,0.0,0.0,0.0,0.0,0.0,0.0,0.0,0.0,0.0,0.0,0.0,54.0
Jussara,EBDA,Jussara,Jussara - EBDA,-11.051296,-40.96778,Norte,RPGA do Rio Salitre,11.0,0.0,0.0,0.0,0.0,0.0,0.0,0.0,2.0,4.0,18.0,1.0,0.0,0.0,1.0,0.0,0.0,1.0,0.0,0.0,0.0,0.0,0.0,0.0,0.0,0.0,0.0,0.0,0.0,38.0
Lapão,EBDA,Lapão,Lapão - EBDA,-11.367966,-41.817803,Norte,RPGA dos Rios Verde e Jacaré,0.0,0.0,0.0,0.0,0.0,0.0,0.0,0.0,0.0,12.4,20.6,4.5,0.0,0.0,0.5,0.0,0.0,0.0,0.0,0.0,0.0,0.0,0.0,0.0,0.0,0.0,0.0,0.0,0.0,38.0
Presidente Dutra,EBDA,Presidente Dutra,Presidente Dutra - EBDA,-11.284632,-41.651131,Norte,RPGA dos Rios Verde e Jacaré,0.0,0.0,0.0,0.0,0.0,0.0,0.0,0.0,0.0,0.0,46.4,15.8,0.0,0.0,0.0,0.0,0.0,0.0,0.0,0.0,0.0,0.0,0.0,0.0,0.0,0.0,0.0,0.0,0.0,62.2
Uibaí,EBDA,Uibaí,Uibaí - EBDA,-11.334632,-42.134477,Norte,RPGA dos Rios Verde e Jacaré,0.0,0.0,0.0,0.0,0.0,0.0,0.0,9.0,4.9,5.1,35.0,17.6,0.0,0.0,5.0,0.0,0.0,23.5,0.0,0.0,0.0,0.0,0.0,0.0,0.0,0.0,0.0,0.0,0.0,100.1
Remanso,A423,Remanso,Remanso - A423,-9.625693,-42.077214,Norte,RPGA do Lago de Sobradinho,45.0,0.0,0.0,0.0,0.0,0.0,0.0,0.0,0.0,5.8,2.2,23.2,0.0,0.0,0.0,0.6,0.0,0.0,0.4,0.6,0.0,0.0,0.0,0.0,0.0,0.0,0.0,0.0,0.0,77.8
Irecê,A424,Irecê,Irecê - A424,-11.328998,-41.864504,Norte,RPGA dos Rios Verde e Jacaré,0.0,0.0,0.0,0.0,0.0,0.0,0.0,0.0,3.0,0.0,35.2,32.4,1.0,0.0,0.0,5.2,0.0,0.0,0.0,0.2,0.0,0.0,0.0,0.0,0.0,0.0,0.0,0.0,0.0,77.0
Jussara,Arrecife,Jussara,Jussara - Arrecife,-11.065335,-41.974853,Norte,RPGA dos Rios Verde e Jacaré,3.4,4.8,0.0,0.0,0.0,0.0,0.0,0.0,1.4,0.2,3.8,21.8,0.2,0.0,0.0,0.6,0.0,0.0,0.0,8.8,0.0,0.0,0.0,0.0,0.0,0.0,0.0,0.0,0.0,45.0
Central,,Central,Central,-11.135391,-42.093468,Norte,RPGA dos Rios Verde e Jacaré,1.8,0.0,0.0,0.0,0.0,0.0,0.0,0.0,0.2,0.0,0.0,31.2,0.4,0.0,0.0,14.2,0.2,0.0,0.0,0.4,0.0,0.0,0.0,0.0,0.0,0.0,0.0,0.0,0.0,48.4
América Dourada,EBDA,América Dourada,América Dourada - EBDA,-11.384635,-41.584464,Norte,RPGA dos Rios Verde e Jacaré,0.0,0.0,0.0,0.0,0.0,0.0,0.0,0.0,0.0,0.0,25.0,0.0,0.0,0.0,0.0,0.0,0.0,0.0,0.0,0.0,0.0,0.0,0.0,0.0,0.0,0.0,0.0,0.0,0.0,25.0
São Gabriel,EBDA,São Gabriel,São Gabriel - EBDA,-11.134629,-41.867803,Norte,RPGA dos Rios Verde e Jacaré,0.0,0.0,0.0,0.0,0.0,0.0,0.0,0.0,0.0,33.5,24.5,0.0,0.0,0.0,0.0,0.0,0.0,0.0,0.0,0.0,0.0,0.0,0.0,0.0,0.0,0.0,0.0,0.0,0.0,58.0
Irecê,83182,Irecê,Irecê - 83182,-11.3,-41.866667,Norte,RPGA dos Rios Verde e Jacaré,0.0,0.0,0.0,0.0,0.0,0.0,0.0,0.0,7.1,0.0,35.6,44.6,3.8,0.0,0.0,0.6,0.0,0.0,0.0,0.2,0.0,0.0,0.0,0.0,0.0,0.0,0.0,0.0,0.0,91.9
Remanso,82979,Remanso,Remanso - 82979,-9.633333,-42.1,Norte,RPGA do Lago de Sobradinho,46.0,0.0,0.0,0.0,0.0,0.0,0.0,0.0,0.0,6.0,2.6,24.0,0.0,0.0,0.0,0.1,0.0,0.0,0.4,0.2,0.0,0.0,0.0,0.0,0.0,0.0,0.0,0.0,0.0,79.3
Delfino,A443,Umburanas,Umburanas (Delfino) - A443,-10.45492,-41.206996,Norte,RPGA do Rio Salitre,0.0,0.0,0.0,0.0,0.0,0.0,0.0,0.0,0.0,0.0,10.6,30.4,0.0,0.0,0.0,0.2,0.6,0.0,1.8,2.8,0.2,0.2,0.0,0.0,0.0,0.0,0.0,0.0,0.0,46.81
Juazeiro,UEP - EMBRAPA -EBDA - EBDA,Juazeiro,Juazeiro - UEP - EMBRAPA -EBDA - EBDA,-9.41293,-40.499706,Norte,RPGA dos Rios Macururé e Curaçá,1.0,0.0,0.0,0.0,0.0,0.0,0.0,0.0,0.0,110.4,11.0,17.8,0.2,23.6,6.3,0.0,0.0,40.0,0.0,0.0,0.0,0.0,0.0,0.0,0.0,0.0,0.0,0.0,0.0,210.3
Juazeiro,Est. Exp. Caraíbas - EBDA,Juazeiro,Juazeiro - Est. Exp. Caraíbas - EBDA,-9.418208,-40.510817,Norte,RPGA dos Rios Macururé e Curaçá,0.0,0.0,0.0,0.0,0.0,0.0,0.0,0.0,0.0,0.0,0.0,15.0,0.0,0.0,0.0,0.0,0.0,0.0,0.0,0.0,0.0,0.0,0.0,0.0,0.0,0.0,0.0,0.0,0.0,15.0
Várzea Nova 01,EBDA,Várzea Nova 01,Várzea Nova 01 - EBDA,-11.260191,-40.943058,Norte,RPGA do Rio Salitre,0.0,0.0,0.0,0.0,0.0,0.0,0.0,0.0,0.0,0.0,0.0,0.0,0.0,0.0,0.0,0.0,0.0,0.0,0.0,0.0,0.0,0.0,0.0,0.0,0.0,0.0,0.0,0.0,0.0,0.0
Irecê,VJ-CL-01,Irecê,Irecê - VJ-CL-01,-11.289166,-41.894166,Norte,RPGA dos Rios Verde e Jacaré,0.0,0.0,0.0,0.0,0.0,0.0,0.0,0.0,0.0,0.0,24.5,32.0,0.25,0.0,0.0,0.25,0.0,0.0,0.0,0.0,0.0,0.0,0.0,0.0,0.0,0.0,0.0,0.0,0.0,57.0
Jaguarari,IT-PR-28,Jaguarari,Jaguarari - IT-PR-28,-10.269489,-40.200344,Norte,RPGA do Rio Itapicuru,0.0,0.0,0.0,0.0,0.0,0.0,0.0,0.0,0.0,0.0,0.0,0.0,0.0,0.0,0.0,0.0,0.0,0.0,0.0,0.0,0.0,0.0,0.0,0.0,0.0,0.0,0.0,0.0,0.0,0.0
Taquarendi,,Taquarendi,Taquarendi,-10.893669,-40.687028,Norte,RPGA do Rio Salitre,0.0,0.0,0.0,0.2,0.0,0.0,0.0,0.0,0.0,0.0,5.2,1.6,0.0,0.0,0.0,0.0,0.2,0.0,0.6,1.0,0.2,0.0,0.0,0.0,0.0,0.0,0.0,0.0,0.0,9.0
Campo Formoso,EBDA,Campo Formoso,Campo Formoso - EBDA,-10.501287,-40.317761,Norte,RPGA do Rio Itapicuru,0.0,0.0,2.0,0.0,0.0,0.0,0.0,0.0,0.0,4.0,3.0,0.0,0.0,0.0,3.0,0.0,0.0,2.0,4.0,0.0,0.0,0.0,0.0,0.0,0.0,0.0,0.0,0.0,0.0,18.0
Jaguarari,EBDA,Jaguarari,Jaguarari - EBDA,-10.251284,-40.184423,Norte,RPGA do Rio Itapicuru,0.0,0.0,0.0,0.0,0.0,6.0,0.0,0.0,0.0,0.0,0.0,0.0,0.0,11.0,0.0,0.0,0.0,0.0,0.0,0.0,0.0,0.0,0.0,0.0,0.0,0.0,0.0,0.0,0.0,17.0
INMET,EBDA,Barreiras,Barreiras (INMET) - EBDA,-12.134635,-44.984551,Oeste,RPGA do Rio Grande,27.4,7.2,0.0,0.0,0.0,0.0,0.0,0.2,0.0,8.9,0.0,14.8,0.0,0.0,0.0,3.1,0.2,0.6,0.0,0.0,2.2,0.0,0.0,0.3,0.0,0.0,0.0,0.0,0.0,64.9
SEDE,EBDA,Formosa do Rio Preto,Formosa do Rio Preto (SEDE) - EBDA,-11.051281,-45.201218,Oeste,RPGA do Rio Grande,0.0,0.0,0.0,0.0,0.0,0.0,15.0,0.0,7.0,0.0,0.0,0.0,8.0,0.0,0.0,5.0,0.0,0.0,9.5,6.0,0.0,0.0,10.5,0.0,0.0,3.0,10.0,1.3,0.0,75.3
Form. Rio Preto,46550000,Barreiras,Barreiras (Form. Rio Preto) - 46550000,-11.154444,-45.009166,Oeste,RPGA do Rio Grande,27.2,7.1,0.0,0.0,0.0,0.0,0.0,0.0,0.6,1.0,0.0,15.9,0.0,0.0,0.0,2.9,0.0,0.8,0.0,0.0,1.4,0.0,0.0,0.8,0.0,0.0,0.0,0.0,0.0,57.7
COACERAL,GR-CL-02,Formosa do Rio Preto,Formosa do Rio Preto (COACERAL) - GR-CL-02,-10.561944,-45.693333,Oeste,RPGA do Rio Grande,22.5,0.0,0.0,0.0,0.0,0.0,0.0,0.75,8.25,32.25,0.0,0.5,0.0,7.5,0.0,1.75,0.5,0.25,0.0,1.5,0.0,0.0,0.0,15.25,0.25,0.0,20.75,0.25,0.0,112.25
Luís Eduardo Magalhães,A404,Luís Eduardo Magalhães,Luís Eduardo Magalhães - A404,-12.152394,-45.829745,Oeste,RPGA do Rio Grande,21.2,10.0,0.0,0.0,0.0,0.0,0.0,0.0,0.0,1.6,0.6,21.8,2.0,0.0,0.0,7.6,0.0,0.0,0.0,0.0,1.4,0.0,0.0,10.4,0.4,0.0,0.0,0.4,0.2,77.61
Barreiras,EBDA,Barreiras,Barreiras - EBDA,-12.084632,-45.6679,Oeste,RPGA do Rio Grande,17.2,0.0,0.0,0.0,0.0,0.0,0.0,0.0,0.0,0.0,30.0,7.9,0.0,0.0,6.6,0.0,0.0,0.8,0.0,0.0,0.0,0.0,9.5,1.7,0.0,0.0,0.0,0.0,28.0,101.7
São Desidério,R. Velha - GR-CL-01,São Desidério,São Desidério - R. Velha - GR-CL-01,-12.898055,-46.157222,Oeste,RPGA do Rio Grande,1.75,0.75,0.0,0.0,0.0,0.0,0.0,0.0,0.0,1.25,13.75,2.5,32.75,1.75,2.25,5.75,0.0,1.5,0.0,0.0,0.0,28.75,1.0,0.0,6.75,0.0,0.5,0.5,0.0,101.5
Fazenda Evandro,GR-PR-01,Formosa do Rio Preto,Formosa do Rio Preto (Fazenda Evandro) - GR-PR-01,-10.600581,-45.822752,Oeste,RPGA do Rio Grande,16.0,0.0,0.4,0.0,0.0,0.0,0.0,0.0,0.6,25.2,0.2,1.6,0.0,10.0,0.0,0.2,0.0,0.4,0.0,0.0,0.2,0.0,0.0,23.6,0.2,0.0,7.6,8.4,0.0,94.61
Barra do Tapuio,GR-PR-02,Formosa do Rio Preto,Formosa do Rio Preto (Barra do Tapuio) - GR-PR-02,-11.09476,-45.950259,Oeste,RPGA do Rio Grande,3.6,3.0,6.4,0.0,0.0,0.0,0.0,0.0,0.0,0.0,55.4,22.8,2.6,0.2,3.4,0.0,0.0,0.0,0.0,0.0,0.0,0.0,0.0,0.0,1.8,3.6,0.0,0.0,3.2,106.0
Restaurante Anel da Soja,,Restaurante Anel da Soja,Restaurante Anel da Soja,-11.598938,-46.005263,Oeste,RPGA do Rio Grande,0.2,31.8,3.8,0.2,0.0,0.0,0.0,0.0,0.0,0.0,6.8,0.2,13.8,2.8,5.4,0.4,4.8,0.0,0.0,0.2,0.0,1.8,0.2,0.0,11.0,0.2,0.0,2.6,9.4,95.61
Fazenda Santa Rita de Cássia,,Fazenda Santa Rita de Cássia,Fazenda Santa Rita de Cássia,-11.625053,-45.645252,Oeste,RPGA do Rio Grande,0.2,28.2,0.0,0.0,0.0,0.0,0.0,0.0,23.6,3.4,0.2,34.4,10.4,0.0,0.0,0.2,0.4,0.0,0.0,0.0,0.0,0.0,0.0,0.0,23.0,0.0,0.0,0.0,0.0,124.01
Algocel,,Algocel,Algocel,-11.758942,-46.205271,Oeste,RPGA do Rio Grande,3.8,2.0,7.8,0.2,0.0,0.0,0.0,0.0,0.0,0.0,0.6,10.2,17.0,1.6,3.0,0.0,0.2,0.0,0.0,0.0,0.0,5.2,0.0,0.0,1.4,0.0,0.0,7.0,2.4,62.4
Fazenda Vila Verde,,Fazenda Vila Verde,Fazenda Vila Verde,-12.032839,-46.054434,Oeste,RPGA do Rio Grande,3.6,13.8,16.8,0.0,0.0,0.0,0.0,0.0,0.0,0.0,0.0,7.8,10.0,5.2,0.0,0.0,3.6,0.0,0.0,0.0,0.0,0.0,0.0,0.0,7.6,5.0,0.0,2.0,0.0,75.4
Fazenda Poletto,GR-PR-11,Luiz Eduardo Magalhães,Luiz Eduardo Magalhães (Fazenda Poletto) - GR-PR-11,-12.07145,-45.896097,Oeste,RPGA do Rio Grande,40.8,9.4,0.0,0.0,0.0,0.0,0.0,0.0,0.0,0.0,1.6,28.8,3.0,0.2,0.0,5.8,3.4,0.6,0.2,0.0,0.0,0.0,0.0,5.0,2.4,0.2,10.4,0.0,0.0,111.81
Fazenda Novo Horizonte,GR-PR-13,Barreiras,Barreiras (Fazenda Novo Horizonte) - GR-PR-13,-12.064787,-45.560529,Oeste,RPGA do Rio Grande,36.6,10.0,0.0,0.0,0.0,0.0,0.0,0.0,0.0,0.8,1.6,4.0,3.8,1.4,0.0,5.4,0.2,0.0,0.0,0.0,0.0,3.0,1.6,0.2,2.0,0.0,0.0,0.2,0.2,71.0
Limoeiro,GR-PR-18,Barreiras,Barreiras (Limoeiro) - GR-PR-18,-12.293403,-45.544421,Oeste,RPGA do Rio Grande,32.4,20.2,0.0,0.0,0.0,0.0,0.0,0.4,0.2,25.0,12.0,2.4,3.2,3.6,0.0,5.4,0.0,0.0,0.0,0.0,0.2,0.4,0.2,0.2,0.0,0.0,0.6,0.0,0.8,107.2
Fazenda Pró Café,GR-PR-19,Barreiras,Barreiras (Fazenda Pró Café) - GR-PR-19,-12.160625,-45.330802,Oeste,RPGA do Rio Grande,2.4,4.2,0.4,0.2,0.0,0.0,0.0,0.0,0.0,45.6,0.8,17.4,0.0,1.2,0.0,5.6,0.0,0.0,0.0,0.0,0.0,0.2,0.2,0.0,0.0,0.0,0.0,0.0,0.0,78.2
Ponte do Fortunato,,Ponte do Fortunato,Ponte do Fortunato,-14.642348,-45.503045,Oeste,RPGA do Rio Carinhanha,1.0,0.5,0.25,0.0,0.0,0.0,0.0,0.0,0.0,0.25,0.0,2.0,4.0,0.0,0.0,0.0,0.0,0.0,2.25,0.0,0.0,0.25,0.0,0.0,0.0,0.0,0.0,0.0,0.0,10.5
Correntina,A416,Correntina,Correntina - A416,-13.332386,-44.617376,Oeste,"RPGA do Rio Corrente e Riachos do Ramalho, Serra Dourada e Brejo Velho",68.0,5.6,0.0,0.0,0.0,0.0,0.0,0.0,0.0,43.6,13.8,2.4,6.0,0.0,0.0,1.2,0.0,0.0,0.0,0.0,0.0,0.0,0.0,0.4,0.0,0.0,0.0,0.0,0.0,141.0
Barreiras,83236,Barreiras,Barreiras - 83236,-12.155556,-45.007778,Oeste,RPGA do Rio Grande,27.4,7.2,0.0,0.0,0.0,0.0,0.0,0.2,0.0,8.9,0.0,14.8,0.0,0.0,0.0,3.1,0.2,0.6,0.0,0.0,2.2,0.0,0.0,0.3,0.0,0.0,0.0,0.0,0.0,64.9
Correntina,83286,Correntina,Correntina - 83286,-13.332222,-44.617222,Oeste,"RPGA do Rio Corrente e Riachos do Ramalho, Serra Dourada e Brejo Velho",71.6,5.9,0.0,0.0,0.0,0.0,0.0,0.0,0.0,50.0,14.8,2.1,5.8,0.0,0.0,1.0,0.0,0.0,0.0,0.0,0.0,0.0,0.0,0.4,0.0,0.0,0.0,0.0,0.0,151.61
SEDE,EBDA,Riachão das Neves,Riachão das Neves (SEDE) - EBDA,-11.747407,-44.911215,Oeste,RPGA do Rio Grande,0.0,0.0,0.0,0.0,0.0,0.0,0.0,0.0,19.0,0.0,18.0,0.0,0.0,0.0,0.0,0.0,0.0,0.0,0.0,0.0,0.0,0.0,0.0,0.0,0.0,0.0,0.0,0.0,0.0,37.0
UEP,S. Francisco) - EBDA,Barreiras,Barreiras (UEP - S. Francisco) - EBDA,-12.167969,-44.984551,Oeste,RPGA do Rio Grande,0.0,0.4,0.0,0.0,0.0,0.0,0.0,0.0,0.0,0.0,0.0,22.4,0.0,0.0,0.0,0.0,0.0,0.0,0.0,0.0,0.0,0.0,0.0,2.4,0.0,0.0,0.0,1.8,0.0,27.0
Fz. Mutamba,EBDA,São Desidério,São Desidério (Fz. Mutamba) - EBDA,-12.364639,-44.974551,Oeste,RPGA do Rio Grande,11.0,0.0,0.0,0.0,0.0,0.0,0.0,0.0,0.0,0.0,13.1,0.0,0.0,0.0,13.3,0.0,0.0,0.0,0.0,0.0,6.5,0.0,0.0,0.0,0.0,0.0,0.0,0.0,0.0,43.91
Santa Inês,EBDA,Santa Inês,Santa Inês - EBDA,-13.28468,-39.834426,Recôncavo,RPGA do Recôncavo Sul,4.0,1.0,1.0,0.0,0.0,0.0,0.0,0.0,0.0,0.0,0.0,0.0,0.0,2.0,8.0,5.0,6.0,2.0,1.0,0.0,0.0,0.0,0.0,0.0,1.0,1.0,0.0,0.0,0.0,32.0
Santo Estêvão,EBDA,Santo Estêvão,Santo Estêvão - EBDA,-12.434665,-39.251074,Recôncavo,RPGA do Rio Paraguaçu,0.0,0.0,0.0,0.0,0.0,0.0,0.0,0.0,0.0,0.0,0.0,0.0,0.0,14.4,0.0,0.0,0.0,0.0,0.0,0.0,0.0,0.0,0.0,0.0,0.0,0.0,0.0,0.0,0.0,14.4
São Sebastião do Passé,EBDA,São Sebastião do Passé,São Sebastião do Passé - EBDA,-12.518004,-38.501056,Recôncavo,RPGA do Recôncavo Norte,0.0,0.0,0.0,11.0,0.0,0.0,0.0,0.0,0.0,0.0,0.0,0.0,0.0,0.0,0.0,0.0,0.0,0.0,0.0,0.0,0.0,0.0,0.0,1.7,5.4,0.0,0.0,0.0,0.0,18.1
Feira de Santana,Fz.C. Mocó - EBDA,Feira de Santana,Feira de Santana - Fz.C. Mocó - EBDA,-12.267996,-38.967732,Recôncavo,RPGA do Rio Paraguaçu,0.0,0.0,0.0,0.0,0.0,0.0,0.0,0.0,0.0,0.0,0.0,0.0,0.0,0.0,0.0,0.0,0.0,0.0,0.0,0.0,0.0,0.0,0.0,0.0,0.0,0.0,0.0,0.0,0.0,0.0
Conceição da Feira,EBDA,Conceição da Feira,Conceição da Feira - EBDA,-12.501335,-39.001068,Recôncavo,RPGA do Recôncavo Norte,0.0,0.0,0.0,0.0,0.0,0.0,0.0,0.0,0.0,0.0,0.0,0.0,0.0,0.0,1.5,0.0,8.0,0.0,0.0,3.0,0.0,0.0,0.0,0.0,0.0,0.0,0.0,0.0,0.0,12.5
Ondina,83229,Salvador,Salvador (Ondina) - 83229,-13.005278,-38.505833,Recôncavo,RPGA do Recôncavo Norte,1.7,0.5,5.5,0.4,0.0,0.0,0.0,0.0,0.0,0.0,0.9,0.0,0.0,0.0,2.4,14.9,0.4,7.0,3.6,5.2,2.3,0.0,0.0,0.0,5.2,13.1,3.0,4.8,0.0,70.9
Itatim,PG-PR-14,Itatim,Itatim - PG-PR-14,-12.720391,-39.700059,Recôncavo,RPGA do Rio Paraguaçu,0.0,2.25,0.0,0.0,0.0,0.0,0.0,0.0,0.0,0.0,18.25,0.0,0.0,0.0,0.0,0.0,0.75,0.0,0.0,0.0,0.0,0.0,0.0,0.0,0.0,0.0,0.0,0.0,0.0,21.25
Ituberá,EBDA,Ituberá,Ituberá - EBDA,-13.734692,-39.13441,Recôncavo,RPGA do Recôncavo Sul,0.0,0.0,0.0,0.0,0.0,0.0,0.0,0.0,0.0,0.0,0.0,0.0,0.0,0.0,0.0,0.0,0.0,0.0,0.0,0.0,0.0,0.0,0.0,0.0,0.0,0.0,0.0,0.0,0.0,0.0
Salvador,CIA,Salvador,Salvador - CIA,-12.865789,-38.365219,Recôncavo,RPGA do Recôncavo Norte,0.0,4.5,3.5,0.0,0.0,0.0,0.0,0.0,0.0,0.0,0.0,0.0,0.0,0.0,11.0,10.0,5.0,7.0,2.0,30.0,0.0,0.0,0.0,0.0,0.0,0.0,0.0,0.0,0.0,73.0
Feira de Santana,EBDA,Feira de Santana,Feira de Santana - EBDA,-12.268274,-38.96801,Recôncavo,RPGA do Rio Paraguaçu,0.0,0.0,0.0,0.0,0.0,0.0,0.0,0.0,0.0,0.0,0.0,0.0,0.0,0.0,1.9,0.0,0.0,0.0,0.0,0.0,0.0,0.0,0.0,0.0,0.0,0.0,0.0,0.0,0.0,1.9
Abaeté,RN-PR-01,Salvador,Salvador (Abaeté) - RN-PR-01,-12.945407,-38.361404,Recôncavo,RPGA do Recôncavo Norte,3.3,23.0,2.0,1.1,1.0,0.0,0.0,0.0,0.0,0.0,0.0,0.1,0.0,0.0,1.3,0.5,25.2,0.0,1.3,6.0,0.0,0.0,2.2,0.0,5.0,0.0,0.0,0.0,0.0,72.0
Rio Seco,EBDA,Amélia Rodrigues,Amélia Rodrigues (Rio Seco) - EBDA,-12.400777,-38.758839,Recôncavo,RPGA do Recôncavo Norte,9.0,0.0,0.0,0.0,0.0,0.0,0.0,0.0,0.0,0.0,0.0,0.0,0.0,0.0,5.2,0.0,0.0,0.0,0.0,0.0,0.0,0.0,0.0,0.0,0.0,0.0,0.0,0.0,0.0,14.2
Argoim,Rafael Jambeiro,Argoim,Argoim - Rafael Jambeiro,-12.551332,-39.531083,Recôncavo,RPGA do Rio Paraguaçu,1.0,0.0,0.0,3.0,7.0,0.0,0.0,0.0,0.0,0.0,0.0,0.0,0.0,0.0,0.0,2.0,5.0,3.0,1.0,0.0,0.0,0.0,0.0,0.0,0.0,0.0,0.0,0.0,0.0,22.0
Cruz das Almas,A406,Cruz das Almas,Cruz das Almas - A406,-12.675422,-39.08958,Recôncavo,RPGA do Rio Paraguaçu,0.0,0.0,0.2,6.0,4.4,0.2,0.2,0.0,0.0,0.0,0.0,0.0,0.0,0.0,6.2,9.8,1.0,3.2,6.8,9.6,2.2,0.2,0.8,0.0,1.4,0.0,0.2,0.0,0.0,52.41
Salvador,Canabrava,Salvador,Salvador - Canabrava,-12.924122,-38.429942,Recôncavo,RPGA do Recôncavo Norte,2.1,5.5,2.0,0.6,0.2,0.0,0.1,0.3,0.1,0.7,0.0,0.0,0.0,0.1,5.5,5.3,5.8,3.3,1.3,14.0,0.0,0.5,0.3,0.0,0.6,0.7,0.1,0.0,0.0,49.1
Salvador,Inema -Monte Serrat,Salvador,Salvador - Inema -Monte Serrat,-12.930789,-38.517167,Recôncavo,RPGA do Recôncavo Norte,4.4,1.0,1.5,2.0,0.0,1.2,0.0,0.0,0.0,0.0,0.0,0.0,0.0,0.0,5.6,18.2,6.4,0.5,1.8,4.7,0.9,0.0,0.0,0.0,1.3,0.0,8.8,0.0,0.0,58.3
Salvador,19 BC,Salvador,Salvador - 19 BC,-12.961069,-38.461056,Recôncavo,RPGA do Recôncavo Norte,3.8,2.2,0.5,1.1,0.3,0.0,0.3,0.0,0.0,1.5,0.0,0.0,0.0,0.3,1.1,1.7,1.8,0.5,0.5,0.0,0.0,1.1,0.2,0.0,0.0,1.5,0.3,0.0,0.0,18.7
Salvador,Base Naval/SSN,Salvador,Salvador - Base Naval/SSN,-12.796341,-38.489389,Recôncavo,RPGA do Recôncavo Norte,3.3,9.6,6.7,1.3,0.0,0.0,0.0,0.0,0.0,0.0,0.0,0.0,0.0,0.0,2.5,6.5,3.0,1.4,1.8,35.3,0.0,0.0,0.0,1.6,1.2,3.5,2.6,0.4,0.0,80.7
Salvador,Ilha Amarela,Salvador,Salvador - Ilha Amarela,-12.891344,-38.470778,Recôncavo,RPGA do Recôncavo Norte,2.6,17.8,1.6,0.0,0.0,0.0,0.0,0.0,0.0,0.0,0.0,0.0,0.0,0.0,1.6,22.3,0.8,2.9,0.9,10.9,0.0,0.1,0.3,0.0,6.7,1.0,1.9,0.2,0.0,71.61
Feira de Santana,A413,Feira de Santana,Feira de Santana - A413,-12.1962,-38.967384,Recôncavo,RPGA do Recôncavo Norte,15.6,0.2,0.0,0.0,0.0,0.0,0.0,0.0,0.0,0.0,0.0,0.0,0.0,0.0,3.8,1.2,2.0,0.0,3.6,4.8,0.2,0.0,0.0,0.0,0.0,0.0,0.0,0.4,0.2,32.0
Alagoinhas,83249,Alagoinhas,Alagoinhas - 83249,-12.148333,-38.425556,Recôncavo,RPGA do Recôncavo Norte,1.6,0.0,0.0,0.0,0.0,2.4,0.0,0.0,0.0,0.0,0.0,0.0,0.0,0.0,0.4,6.8,5.2,0.8,19.8,11.4,0.0,0.0,0.0,0.9,0.0,0.6,0.0,0.0,0.7,50.6
Cruz das Almas,83222,Cruz das Almas,Cruz das Almas - 83222,-12.666667,-39.083333,Recôncavo,RPGA do Rio Paraguaçu,0.0,0.0,0.0,6.2,4.8,0.2,0.0,0.0,0.0,0.0,0.0,0.0,0.0,0.0,6.5,9.8,0.5,3.2,7.2,10.9,2.0,0.0,0.7,0.0,1.3,0.0,0.1,0.0,0.0,53.4
Feira de Santana,83221,Feira de Santana,Feira de Santana - 83221,-12.196111,-38.967222,Recôncavo,RPGA do Recôncavo Norte,16.2,0.0,0.0,0.0,0.0,0.0,0.0,0.0,0.0,0.0,0.0,0.0,0.0,0.0,3.4,1.0,0.7,0.0,3.4,4.7,0.0,0.0,0.0,0.0,0.0,0.0,0.0,0.0,0.0,29.4
Amargosa,A434,Amargosa,Amargosa - A434,-13.009468,-39.616881,Recôncavo,RPGA do Recôncavo Sul,3.2,4.6,0.2,7.6,2.2,1.8,0.0,0.0,0.0,0.0,0.0,0.0,0.4,0.0,3.0,25.2,4.4,3.0,1.6,7.4,1.4,0.0,0.2,0.0,0.6,0.8,0.0,0.2,0.2,68.01
Valença,A444,Valença,Valença - A444,-13.34361,-39.12667,Recôncavo,RPGA do Recôncavo Sul,0.2,0.2,0.0,0.6,0.4,0.2,0.0,0.2,0.0,0.2,0.0,0.0,0.2,0.0,0.2,0.0,0.2,0.2,0.0,0.0,0.0,0.2,0.0,0.0,0.0,0.0,0.0,0.0,0.0,3.01
Mata de São João,ETA - Embasa,Mata de São João,Mata de São João - ETA - Embasa,-12.394946,-37.934649,Recôncavo,RPGA do Recôncavo Norte,0.0,0.0,0.0,3.2,0.0,0.0,0.0,0.0,0.0,0.0,0.0,0.0,0.0,0.0,3.9,0.0,0.0,18.8,3.3,0.9,0.0,0.0,0.0,1.8,0.0,0.0,0.0,2.5,0.0,34.4
Candeias,EMBASA,Candeias,Candeias - EMBASA,-12.663561,-38.533,Recôncavo,RPGA do Recôncavo Norte,3.6,0.6,0.5,4.4,0.2,0.2,0.0,0.0,0.0,0.0,0.0,0.0,0.0,0.0,4.6,3.0,2.9,0.1,8.6,12.9,0.5,0.1,0.0,4.7,0.4,0.4,6.8,0.2,0.1,54.81
Dias D´Ávila,EMBASA,Dias D´Ávila,Dias D´Ávila - EMBASA,-12.620505,-38.315217,Recôncavo,RPGA do Recôncavo Norte,0.0,0.4,0.0,5.2,0.82,0.0,0.0,0.0,0.0,0.0,0.0,0.0,0.0,0.0,6.67,4.0,6.5,0.0,0.0,32.0,1.5,0.4,0.0,2.1,1.3,0.0,0.0,0.0,0.0,60.89
São Sebastião do Passé-EMBASA,,São Sebastião do Passé-EMBASA,São Sebastião do Passé-EMBASA,-12.517449,-38.492165,Recôncavo,RPGA do Recôncavo Norte,0.0,0.0,0.0,12.4,0.0,0.0,0.0,0.0,0.0,0.0,0.0,0.0,0.0,0.0,6.8,7.0,0.0,0.0,5.4,7.3,0.0,0.0,0.0,1.3,0.0,0.0,0.0,0.0,0.0,40.2
Joanes II,322,Simões Filho,Simões Filho (Joanes II) - 322,-12.674147,-38.376254,Recôncavo,RPGA do Recôncavo Norte,0.0,2.0,1.8,0.0,0.0,0.0,0.0,0.0,0.0,0.0,0.0,0.0,0.0,0.0,1.4,1.0,9.0,0.0,10.5,6.8,0.5,0.0,0.0,15.0,0.0,0.2,16.1,0.0,0.2,64.51
Santa Helena,323,Camaçari,Camaçari (Santa Helena) - 323,-12.56202,-38.1606,Recôncavo,RPGA do Recôncavo Norte,14.2,0.0,0.0,0.0,0.0,0.8,0.0,0.0,0.0,0.0,0.0,0.0,0.0,0.0,3.7,4.3,0.2,18.4,5.4,0.0,0.0,0.0,0.3,0.4,1.2,11.0,0.8,0.0,0.0,60.7
Pedrão,EBDA,Pedrão,Pedrão - EBDA,-12.151329,-38.651056,Recôncavo,RPGA do Recôncavo Norte,0.0,0.0,0.0,0.0,0.0,0.0,0.0,0.0,0.0,0.0,0.0,0.0,0.0,0.0,0.0,0.0,0.0,10.0,17.5,0.0,0.0,0.0,0.0,0.0,0.0,0.0,0.0,0.0,0.0,27.5
Saubara,EBDA,Saubara,Saubara - EBDA,-12.734674,-38.784396,Recôncavo,RPGA do Recôncavo Norte,0.0,0.0,0.0,0.0,0.0,0.0,0.0,0.0,0.0,0.0,0.0,0.0,0.0,0.0,0.0,0.0,0.0,0.0,0.0,0.0,0.0,0.0,0.0,0.0,0.0,0.0,0.0,0.0,0.0,0.0
Igrapiuna,01 - EBDA,Igrapiuna,Igrapiuna - 01 - EBDA,-13.818028,-39.13441,Recôncavo,RPGA do Recôncavo Sul,18.4,8.4,0.0,11.0,9.0,0.0,0.0,0.3,0.0,0.0,0.0,5.1,0.0,1.4,22.7,14.8,5.6,6.0,15.5,2.5,2.9,1.2,10.7,0.0,5.0,2.2,1.6,0.5,0.0,144.8
Igrapiúna,02 - EBDA,Igrapiúna,Igrapiúna - 02 - EBDA,-13.82775,-39.143299,Recôncavo,RPGA do Recôncavo Sul,22.2,0.0,6.3,12.5,2.3,0.0,0.0,0.0,0.0,0.0,7.5,0.0,0.0,16.5,13.5,18.5,2.7,14.9,2.7,2.4,0.0,0.0,12.0,2.3,0.0,0.0,0.0,0.0,0.0,136.3
Taperoá,EBDA,Taperoá,Taperoá - EBDA,-13.539411,-39.099685,Recôncavo,RPGA do Recôncavo Sul,0.0,0.0,0.0,0.0,0.0,0.0,0.0,0.0,0.0,0.0,0.0,0.0,0.0,0.0,0.0,0.0,0.0,0.0,0.0,0.0,0.0,0.0,0.0,0.0,0.0,0.0,0.0,0.0,0.0,0.0
Salvador,Itapuã - RN-CL-01,Salvador,Salvador - Itapuã - RN-CL-01,-12.931388,-38.361111,Recôncavo,RPGA do Recôncavo Norte,2.4,9.9,2.0,0.7,0.4,0.0,0.1,0.2,0.1,0.5,0.0,0.0,0.0,0.1,4.5,4.1,10.7,2.5,1.3,12.0,0.0,0.4,0.8,0.0,1.7,0.5,0.1,0.0,0.0,55.0
Muritiba,PG-PR-12,Muritiba,Muritiba - PG-PR-12,-12.617895,-39.005591,Recôncavo,RPGA do Rio Paraguaçu,0.0,0.5,0.75,1.5,0.0,0.0,0.0,0.0,0.0,0.0,0.0,0.0,0.0,0.0,7.75,8.5,1.25,0.25,3.5,3.5,0.0,0.0,0.0,0.0,1.5,4.0,0.0,0.0,0.0,33.0
Amargosa,EBDA,Amargosa,Amargosa - EBDA,-13.034677,-39.601086,Recôncavo,RPGA do Recôncavo Sul,0.0,0.0,0.0,0.0,0.0,0.0,0.0,0.0,0.0,0.0,0.0,0.0,0.0,0.0,3.0,0.0,0.0,0.0,0.0,0.0,0.0,0.0,0.0,0.0,0.0,0.0,0.0,0.0,0.0,3.0
Coração de Maria,EBDA,Coração de Maria,Coração de Maria - EBDA,-12.234663,-38.751059,Recôncavo,RPGA do Recôncavo Norte,12.0,0.0,0.0,0.0,0.0,0.0,0.0,0.0,0.0,0.0,0.0,0.0,0.0,0.0,0.0,0.0,0.0,0.0,0.0,0.0,0.0,0.0,0.0,0.0,0.0,0.0,0.0,0.0,0.0,12.0
Irará,EBDA,Irará,Irará - EBDA,-12.034659,-38.767726,Recôncavo,RPGA do Recôncavo Norte,0.0,0.0,0.0,4.0,0.0,0.0,0.0,0.0,0.0,0.0,0.0,0.0,0.0,3.0,20.0,0.0,0.0,16.0,21.0,1.5,0.0,0.0,0.0,0.0,5.0,0.0,0.0,0.0,0.0,70.5
Santo Amaro,EBDA,Santo Amaro,Santo Amaro - EBDA,-12.551335,-38.701059,Recôncavo,RPGA do Recôncavo Norte,0.0,0.0,0.0,0.0,0.0,0.0,0.0,0.0,0.0,0.0,0.0,0.0,0.0,0.0,0.0,0.0,0.0,0.0,0.0,0.0,0.0,0.0,0.0,0.0,15.0,0.0,0.0,0.0,0.0,15.0
Conceição de Jacuípe,EBDA,Conceição de Jacuípe,Conceição de Jacuípe - EBDA,-12.317998,-38.767728,Recôncavo,RPGA do Recôncavo Norte,6.0,0.0,0.0,0.0,0.0,0.0,0.0,0.0,0.0,0.0,0.0,0.0,0.0,0.0,10.0,0.0,0.0,0.0,0.0,0.0,25.0,0.0,0.0,0.0,7.5,0.0,0.0,0.0,0.0,48.5
Itaparica,EBDA,Itaparica,Itaparica - EBDA,-12.884677,-38.684395,Recôncavo,RPGA do Recôncavo Sul,1.4,0.0,0.0,0.0,0.0,0.0,0.0,0.0,0.0,0.0,0.0,0.0,0.0,18.3,6.8,2.6,0.0,12.6,38.7,12.6,0.0,0.0,0.0,0.0,19.8,3.8,2.5,0.0,0.0,119.1
Muritiba,EBDA,Muritiba,Muritiba - EBDA,-12.618004,-38.984401,Recôncavo,RPGA do Rio Paraguaçu,0.0,0.0,0.0,0.0,0.0,0.0,0.0,0.0,0.0,0.0,0.0,0.0,0.0,0.0,0.0,0.0,0.0,0.0,0.0,0.0,0.0,0.0,0.0,0.0,0.0,0.0,0.0,0.0,0.0,0.0
Santo Antônio de Jesus,EBDA,Santo Antônio de Jesus,Santo Antônio de Jesus - EBDA,-12.96801,-39.267744,Recôncavo,RPGA do Recôncavo Sul,0.0,0.0,0.0,16.5,0.0,0.0,0.0,0.0,0.0,6.0,0.0,0.0,0.0,14.5,17.5,15.0,6.0,0.0,7.0,0.0,0.0,0.0,14.0,0.0,0.0,0.0,0.0,0.0,0.0,96.5
Gandu,EBDA,Gandu,Gandu - EBDA,-13.751359,-39.484419,Recôncavo,RPGA do Recôncavo Sul,1.7,2.5,7.4,12.7,8.0,9.1,0.0,0.0,0.0,0.0,0.0,0.0,13.6,0.0,2.5,5.3,8.7,10.0,10.0,7.3,0.0,0.0,0.0,12.0,7.0,0.0,0.0,0.0,0.0,117.8
Valença,EBDA,Valença,Valença - EBDA,-13.368019,-39.06774,Recôncavo,RPGA do Recôncavo Sul,17.0,37.0,3.0,3.0,3.0,3.0,0.0,0.0,0.0,0.0,0.0,20.0,0.0,0.0,12.0,22.0,7.4,7.4,7.4,7.4,7.4,7.4,7.4,0.0,2.0,2.0,2.0,0.0,0.5,178.31
Ubaíra,EBDA,Ubaíra,Ubaíra - EBDA,-13.268014,-39.667756,Recôncavo,RPGA do Recôncavo Sul,0.0,35.0,0.0,0.0,3.0,0.0,0.0,0.0,0.0,0.0,0.0,0.0,0.0,0.0,10.0,14.0,5.0,2.0,2.0,1.0,0.0,0.0,0.0,0.0,0.0,27.0,0.0,2.5,0.0,101.5
Castro Alves,EBDA,Castro Alves,Castro Alves - EBDA,-12.751338,-39.434413,Recôncavo,RPGA do Rio Paraguaçu,0.0,0.0,0.0,0.0,0.0,0.0,0.0,0.0,0.0,0.0,0.0,0.0,0.0,0.0,0.0,0.0,0.0,0.0,0.0,0.0,0.0,0.0,0.0,0.0,0.0,0.0,0.0,0.0,0.0,0.0
Cruz das Almas,EBDA,Cruz das Almas,Cruz das Almas - EBDA,-12.668004,-39.101071,Recôncavo,RPGA do Rio Paraguaçu,0.0,0.0,0.0,0.0,0.0,0.0,0.0,0.0,0.0,0.0,0.0,0.0,0.0,7.5,7.5,5.0,2.0,6.0,6.0,0.5,0.0,0.0,0.0,0.0,0.0,0.0,0.0,0.0,0.0,34.5
Conceição do Almeida,EBDA,Conceição do Almeida,Conceição do Almeida - EBDA,-12.768005,-39.16774,Recôncavo,RPGA do Recôncavo Sul,0.0,0.0,0.0,10.0,0.0,0.0,0.0,0.0,0.0,0.0,0.0,0.0,0.0,0.0,30.0,20.0,7.5,5.0,2.5,7.5,2.0,0.0,0.0,0.0,0.0,0.0,0.0,0.0,0.0,84.5
Alagoinhas,EBDA,Alagoinhas,Alagoinhas - EBDA,-12.134662,-38.434384,Recôncavo,RPGA do Recôncavo Norte,0.0,0.0,0.0,0.0,0.0,0.0,0.0,0.0,0.0,0.0,0.0,0.0,0.0,0.0,6.0,2.0,5.0,22.0,13.0,0.0,0.0,0.0,0.0,10.0,0.0,0.0,0.0,0.0,0.0,58.0
Aramari,EBDA,Aramari,Aramari - EBDA,-12.08466,-38.501053,Recôncavo,RPGA do Recôncavo Norte,0.0,0.0,0.0,0.0,0.0,0.0,0.0,0.0,0.0,0.0,0.0,0.0,0.0,0.0,1.0,0.0,0.0,11.0,14.4,0.0,0.0,0.0,0.0,0.0,0.0,0.0,0.0,0.0,0.0,26.4
Mata de São João,EBDA,Mata de São João,Mata de São João - EBDA,-12.534671,-38.30105,Recôncavo,RPGA do Recôncavo Norte,0.0,0.0,0.0,0.0,0.0,0.0,0.0,0.0,0.0,0.0,0.0,0.0,0.0,7.0,0.0,0.0,0.0,20.0,14.0,0.0,0.0,0.0,0.0,0.0,0.0,0.0,3.0,0.0,0.0,44.0
Catu,EBDA,Catu,Catu - EBDA,-12.351333,-38.384384,Recôncavo,RPGA do Recôncavo Norte,0.0,0.0,0.0,0.0,0.0,0.0,0.0,0.0,0.0,0.0,0.0,0.0,0.0,0.0,0.0,0.0,0.0,0.0,20.0,0.0,5.0,0.0,0.0,0.0,0.0,0.0,0.0,0.0,0.0,25.0
Espinheira,,Espinheira,Espinheira,-14.283478,-41.75792,Sudoeste,RPGA do Rio de Contas,0.0,0.0,0.0,0.0,2.0,0.0,0.0,0.0,0.0,0.0,1.25,0.0,0.0,4.75,0.0,0.5,0.0,1.25,0.0,0.0,0.0,0.0,0.0,0.0,0.0,0.0,0.0,0.0,0.0,9.75
Maracás,EBDA,Maracás,Maracás - EBDA,-13.43468,-40.434443,Sudoeste,RPGA do Rio de Contas,0.0,0.0,0.0,0.0,0.0,0.0,0.0,0.0,0.0,0.0,0.0,16.7,16.0,0.0,0.8,10.8,0.0,0.0,0.0,0.0,0.0,0.0,0.0,0.0,0.0,0.0,0.0,0.0,0.0,44.3
Tanhaçu,EBDA,Tanhaçu,Tanhaçu - EBDA,-14.018022,-41.234467,Sudoeste,RPGA do Rio de Contas,0.0,0.0,0.0,0.0,0.0,0.0,0.0,0.0,0.0,0.0,0.0,0.0,0.0,0.0,0.0,0.0,0.0,0.0,0.0,0.0,0.0,0.0,0.0,0.0,0.0,0.0,0.0,0.0,0.0,0.0
Anagé,EBDA,Anagé,Anagé - EBDA,-14.618034,-41.134467,Sudoeste,RPGA do Rio de Contas,0.0,0.0,0.0,4.5,0.0,0.0,0.0,0.0,0.0,0.0,0.0,1.3,1.3,0.0,0.3,0.0,0.0,1.8,0.0,0.0,0.0,0.0,0.0,0.0,0.0,0.0,0.0,0.0,0.0,9.2
Cândido Sales,EBDA,Cândido Sales,Cândido Sales - EBDA,-15.501383,-41.234473,Sudoeste,RPGA do Rio Pardo,3.8,4.5,0.0,0.0,6.7,0.0,0.0,0.0,0.0,0.0,0.0,1.6,0.0,0.0,0.0,0.4,0.0,7.3,0.0,0.0,0.0,0.0,0.0,0.0,0.0,0.0,0.0,0.0,0.0,24.3
Itambé,EBDA,Itambé,Itambé - EBDA,-15.251383,-40.617789,Sudoeste,RPGA do Rio Pardo,22.0,0.0,5.0,6.0,12.0,0.0,0.0,0.0,0.0,0.0,0.0,0.0,0.0,0.0,0.0,0.0,8.0,6.0,0.0,0.0,0.0,0.0,0.0,0.0,0.0,0.0,0.0,0.0,0.0,59.0
Ibicuí,EBDA,Ibicuí,Ibicuí - EBDA,-14.83471,-39.984437,Sudoeste,RPGA do Rio de Contas,13.0,1.5,0.0,0.0,10.5,0.0,0.0,0.0,0.0,0.0,0.0,0.0,0.0,0.0,0.0,7.0,0.0,0.0,0.0,0.0,0.0,0.0,0.0,0.0,0.0,0.0,0.0,0.0,0.0,32.0
Itapetinga,EBDA,Itapetinga,Itapetinga - EBDA,-15.251383,-40.251113,Sudoeste,RPGA do Rio Pardo,0.0,11.5,0.0,0.0,0.0,0.0,12.2,0.0,0.0,0.0,0.0,0.0,0.0,0.0,0.0,5.3,0.0,7.3,0.0,0.0,0.0,0.0,0.0,0.0,0.0,0.0,0.0,0.0,0.0,36.3
Itarantim,EBDA,Itarantim,Itarantim - EBDA,-15.651392,-40.067777,Sudoeste,RPGA do Rio Pardo,0.0,0.0,0.0,0.0,0.0,0.0,0.0,0.0,0.0,0.0,0.0,0.0,0.0,0.0,0.0,0.0,0.0,0.0,0.0,0.0,0.0,0.0,0.0,0.0,0.0,0.0,0.0,0.0,0.0,0.0
Macarani,EBDA,Macarani,Macarani - EBDA,-15.568056,-40.417786,Sudoeste,RPGA do Rio Pardo,6.0,3.0,0.0,0.0,5.0,0.0,0.0,0.0,0.0,0.0,0.0,3.0,0.0,0.0,7.0,0.0,0.0,0.0,0.0,3.0,0.0,0.0,0.0,0.0,0.0,0.0,0.0,0.0,0.0,27.0
Vitória da Conquista,EBDA,Vitória da Conquista,Vitória da Conquista - EBDA,-14.851374,-40.834461,Sudoeste,RPGA do Rio Pardo,5.8,0.0,0.0,0.5,5.0,0.0,0.0,0.0,0.0,0.0,4.0,0.0,0.0,0.8,3.3,4.7,2.8,0.0,0.0,0.0,0.0,0.0,0.0,0.0,0.0,0.0,0.0,0.0,0.0,26.91
Condeúba,EBDA,Condeúba,Condeúba - EBDA,-14.884701,-41.984489,Sudoeste,RPGA do Rio de Contas,0.0,0.0,0.0,0.0,0.0,0.0,0.0,0.0,0.0,0.0,0.0,0.0,0.0,0.0,15.0,0.0,0.0,0.0,0.0,0.0,0.0,0.0,0.0,0.0,0.0,0.0,0.0,0.0,0.0,15.0
Brumado,EBDA,Brumado,Brumado - EBDA,-14.201356,-41.651143,Sudoeste,RPGA do Rio de Contas,0.0,0.0,0.0,0.0,0.0,0.0,0.0,0.0,0.0,0.0,0.0,0.0,0.0,0.0,0.0,0.0,0.0,0.0,0.0,0.0,0.0,0.0,0.0,0.0,0.0,0.0,0.0,0.0,0.0,0.0
Jequié,EBDA,Jequié,Jequié - EBDA,-13.851356,-40.084435,Sudoeste,RPGA do Rio de Contas,6.0,0.0,0.0,5.5,0.0,0.0,0.0,0.0,0.0,0.0,0.0,0.0,0.0,0.0,7.6,0.0,5.5,10.0,0.0,0.0,0.0,0.0,0.0,0.0,0.0,0.0,0.0,0.0,0.0,34.6
Itiruçu,EBDA,Itiruçu,Itiruçu - EBDA,-13.534683,-40.151101,Sudoeste,RPGA do Rio de Contas,7.5,0.0,0.0,10.0,0.0,0.0,0.0,0.0,0.0,0.0,20.0,0.0,0.0,8.0,15.0,0.0,10.0,7.5,0.0,0.0,0.0,0.0,0.0,0.0,0.0,0.0,0.0,0.0,0.0,78.0
Ipiaú,EBDA,Ipiaú,Ipiaú - EBDA,-14.134698,-39.734428,Sudoeste,RPGA do Rio de Contas,0.0,6.0,2.4,13.2,19.4,5.2,0.0,0.0,0.0,0.0,0.0,2.6,0.0,0.0,3.4,13.4,10.7,4.5,1.2,0.0,0.0,0.0,0.0,2.6,0.0,0.0,0.0,0.0,0.0,84.61
Jaguaquara,EBDA,Jaguaquara,Jaguaquara - EBDA,-13.534684,-39.984431,Sudoeste,RPGA do Recôncavo Sul,3.0,0.0,0.0,2.5,0.0,0.0,0.0,0.0,0.0,0.0,0.0,1.0,0.0,1.0,10.0,6.0,0.0,0.0,0.0,0.0,0.0,0.0,0.0,0.0,0.0,0.0,0.0,0.0,0.0,23.5
Jaguaquara,RS-CL-01,Jaguaquara,Jaguaquara - RS-CL-01,-13.573055,-39.940833,Sudoeste,RPGA do Recôncavo Sul,0.25,6.75,0.0,3.25,8.0,1.0,0.0,0.0,0.0,0.0,0.0,0.0,0.5,0.0,5.0,13.0,7.25,9.0,5.75,3.5,1.0,0.0,0.0,0.0,0.0,0.0,0.0,0.0,0.0,64.25
Jequié,CO-CL-03,Jequié,Jequié - CO-CL-03,-13.873055,-40.071944,Sudoeste,RPGA do Rio de Contas,1.5,4.75,0.5,0.0,4.0,0.5,0.0,0.0,0.0,0.0,0.0,0.0,1.5,0.0,1.25,4.75,5.5,2.75,0.25,0.0,0.0,0.0,0.0,0.0,0.0,0.0,0.0,0.0,0.0,27.25
Vitória da Conquista,PA-CL-01,Vitória da Conquista,Vitória da Conquista - PA-CL-01,-14.886111,-40.800833,Sudoeste,RPGA do Rio Pardo,0.0,5.75,0.0,0.0,0.5,5.0,0.0,0.0,0.0,0.0,0.0,4.0,0.0,0.0,0.0,1.0,3.25,7.25,0.0,0.0,0.0,0.0,0.0,0.0,0.0,0.0,0.0,0.0,0.0,26.75
Barra do Choça,EBDA,Barra do Choça,Barra do Choça - EBDA,-14.868041,-40.651122,Sudoeste,RPGA do Rio Pardo,0.0,0.0,0.0,0.0,0.0,5.0,0.0,0.0,0.0,0.0,0.0,0.0,0.0,0.0,2.0,0.0,0.0,0.0,0.0,0.0,5.0,0.0,0.0,0.0,0.0,0.0,0.0,0.0,0.0,12.0
Santo Antônio,Tanhaçu,Santo Antônio,Santo Antônio - Tanhaçu,-14.271359,-41.284468,Sudoeste,RPGA do Rio de Contas,0.0,0.0,0.0,0.0,0.0,0.0,0.0,0.0,0.0,0.0,0.0,6.0,0.0,0.0,0.0,3.0,0.0,2.0,0.0,0.0,0.0,0.0,0.0,0.0,0.0,0.0,0.0,0.0,0.0,11.0
Itiruçu,A407,Itiruçu,Itiruçu - A407,-13.52629,-40.12055,Sudoeste,RPGA do Recôncavo Sul,0.0,0.0,0.0,0.0,0.0,0.6,0.4,0.0,0.4,0.0,0.0,0.0,0.0,0.0,2.8,0.6,0.2,0.0,0.2,0.0,0.2,0.0,0.0,0.2,0.0,0.0,0.0,0.0,0.0,5.6
Vitória da Conquista,A414,Vitória da Conquista,Vitória da Conquista - A414,-14.886428,-40.80133,Sudoeste,RPGA do Rio Pardo,0.2,6.2,0.4,0.0,0.6,1.2,0.0,0.0,0.0,0.0,0.0,2.8,0.0,0.0,0.0,1.4,3.8,7.6,0.0,0.0,0.0,0.0,0.0,0.0,0.0,0.0,0.0,0.0,0.0,24.2
Ituaçu,83292,Ituaçu,Ituaçu - 83292,-13.812778,-41.3,Sudoeste,RPGA do Rio de Contas,0.0,0.0,0.4,5.1,0.0,0.0,0.0,0.0,0.0,0.0,0.0,8.9,0.0,0.0,0.0,2.1,1.1,0.0,0.0,0.0,0.0,0.0,0.0,0.0,0.0,0.0,0.0,0.0,0.0,17.6
Vitória da Conquista,83344,Vitória da Conquista,Vitória da Conquista - 83344,-14.883333,-40.8,Sudoeste,RPGA do Rio Pardo,0.2,6.2,0.1,0.1,0.8,5.1,0.0,0.0,0.0,0.0,0.0,4.4,0.0,0.0,0.0,1.6,3.8,7.0,0.0,0.0,0.0,0.0,0.0,0.0,0.0,0.0,0.0,0.0,0.0,29.3
Jaguaquara,83295,Ituruçu,Ituruçu (Jaguaquara) - 83295,-13.527828,-40.119752,Sudoeste,RPGA do Recôncavo Sul,0.0,7.2,0.0,3.5,5.2,0.8,0.0,0.0,0.0,0.0,0.0,0.0,0.0,0.0,2.8,10.4,6.0,6.3,1.1,1.7,0.2,0.0,0.0,0.0,0.0,0.0,0.0,0.0,0.0,45.2
Brumado,A433,Brumado,Brumado - A433,-14.181886,-41.672281,Sudoeste,RPGA do Rio de Contas,0.0,0.0,0.0,0.0,0.0,0.0,0.0,0.0,0.0,2.0,0.0,0.2,2.4,0.0,0.0,3.0,0.4,7.8,0.0,0.0,0.0,0.0,0.0,0.0,0.0,0.0,0.0,0.0,0.0,15.8
Ipiaú,A445,Ipiaú,Ipiaú - A445,-14.171304,-39.692502,Sudoeste,RPGA do Rio de Contas,1.0,5.6,2.0,9.2,28.0,2.6,0.2,0.2,0.0,0.0,0.0,0.0,12.6,5.6,7.6,15.0,8.4,3.0,1.0,4.8,1.0,0.4,0.2,0.2,0.0,2.8,0.0,0.0,0.2,111.61
Jacaraci,EBDA,Jacaraci,Jacaraci - EBDA,-14.784698,-42.451167,Sudoeste,RPGA do Rio de Contas,0.0,0.0,0.0,0.0,0.0,0.0,0.0,0.0,0.0,0.0,0.0,0.0,0.0,0.0,0.0,0.0,0.0,0.0,0.0,0.0,0.0,0.0,0.0,0.0,0.0,0.0,0.0,0.0,0.0,0.0
Rio do Antônio,EBDA,Rio do Antônio,Rio do Antônio - EBDA,-14.318023,-42.117824,Sudoeste,RPGA do Rio de Contas,0.0,0.0,0.0,0.0,0.0,0.0,0.0,0.0,0.0,0.0,0.0,0.0,0.0,0.0,0.0,0.0,0.0,0.0,0.0,0.0,0.0,0.0,0.0,0.0,0.0,0.0,0.0,0.0,0.0,0.0
Malhada de Pedras,EBDA,Malhada de Pedras,Malhada de Pedras - EBDA,-14.389415,-41.880318,Sudoeste,RPGA do Rio de Contas,0.0,0.0,0.0,0.0,0.0,0.0,0.0,0.0,0.0,0.0,0.0,0.0,0.0,0.0,0.0,0.0,0.0,0.0,0.0,0.0,0.0,0.0,0.0,0.0,0.0,0.0,0.0,0.0,0.0,0.0
Tremedal,EBDA,Tremedal,Tremedal - EBDA,-14.977207,-41.411976,Sudoeste,RPGA do Rio de Contas,0.0,0.0,0.0,0.0,0.0,0.0,0.0,0.0,0.0,0.0,0.0,0.0,0.0,7.5,0.0,0.0,0.0,0.0,0.0,0.0,0.0,0.0,0.0,0.0,0.0,0.0,0.0,0.0,0.0,7.5
Anagé,CO-CL-01,Anagé,Anagé - CO-CL-01,-14.618055,-41.149722,Sudoeste,RPGA do Rio de Contas,0.0,0.0,0.0,0.0,4.5,0.0,0.0,0.0,0.0,0.0,0.0,0.0,1.25,1.25,0.0,0.25,0.0,1.5,0.25,0.0,0.0,0.0,0.0,0.0,0.0,0.0,0.0,0.0,0.0,9.0
Brumado,CO-CL-02,Brumado,Brumado - CO-CL-02,-14.207222,-41.778055,Sudoeste,RPGA do Rio de Contas,0.0,0.0,0.0,0.0,0.5,0.0,0.0,0.0,0.0,1.0,0.0,2.75,5.25,0.5,0.0,1.25,0.25,2.25,0.0,0.0,0.0,0.0,0.0,0.0,0.0,0.0,0.0,0.0,0.0,13.75
Planaltino,PG-PR-03,Planaltino,Planaltino - PG-PR-03,-13.259292,-40.373976,Sudoeste,RPGA do Recôncavo Sul,0.0,0.0,0.0,0.0,0.0,0.0,0.0,0.0,0.0,0.0,0.0,0.0,0.0,0.0,0.0,0.0,0.75,0.25,0.0,0.0,0.0,0.0,0.0,0.0,0.0,0.0,0.0,0.0,0.0,1.0
Tremedal,CO-PR-03,Tremedal,Tremedal - CO-PR-03,-14.980998,-41.410135,Sudoeste,RPGA do Rio de Contas,0.25,0.0,0.0,0.0,0.75,0.0,0.25,0.25,0.5,0.0,0.0,0.25,0.0,9.25,0.0,0.25,0.5,5.5,1.75,0.0,0.0,0.0,0.0,0.0,0.0,0.0,0.0,0.0,0.0,19.5
Potiraguá,EBDA,Potiraguá,Potiraguá - EBDA,-15.601392,-39.867771,Sul,RPGA do Rio Pardo,0.0,7.5,0.0,0.0,5.0,6.0,0.0,0.0,0.0,0.0,0.0,0.0,0.0,0.0,0.0,5.0,5.0,0.0,0.0,8.0,0.0,0.0,0.0,0.0,0.0,0.0,0.0,0.0,0.0,36.5
Camacã,EBDA,Camacã,Camacã - EBDA,-15.418056,-39.501095,Sul,RPGA do Rio Pardo,0.0,12.0,10.0,1.0,10.0,20.5,6.0,0.0,0.0,0.0,5.5,3.0,0.0,0.0,4.0,0.0,0.0,7.0,0.0,10.0,0.0,0.0,5.5,0.0,10.0,0.0,0.0,0.0,0.0,104.5
Mascote,EBDA,Mascote,Mascote - EBDA,-15.568061,-39.301089,Sul,RPGA do Rio Pardo,7.0,5.0,2.1,3.4,2.4,2.5,0.0,0.0,0.0,0.0,0.0,6.9,6.7,4.7,0.0,0.0,19.0,0.0,0.0,2.0,0.0,0.0,0.5,0.0,0.0,0.0,0.0,0.0,0.0,62.2
Coaraci,EBDA,Coaraci,Coaraci - EBDA,-14.634708,-39.551092,Sul,RPGA do Leste,39.2,11.4,2.4,11.8,35.6,3.2,0.0,0.0,0.0,0.0,0.0,0.8,1.4,1.0,6.6,9.4,9.0,5.6,0.0,0.0,2.6,0.0,0.0,10.8,2.4,0.0,0.0,0.0,0.0,153.21
Ibicaraí,EBDA,Ibicaraí,Ibicaraí - EBDA,-14.868046,-39.584428,Sul,RPGA do Leste,2.9,7.1,10.0,6.4,16.0,0.0,0.3,0.0,0.0,0.0,0.0,0.0,0.2,0.0,2.0,3.0,12.0,2.5,0.0,0.8,0.5,0.3,0.0,1.1,2.0,3.6,0.0,0.0,0.0,70.7
Ilhéus,01 - EBDA,Ilhéus,Ilhéus - 01 - EBDA,-14.784713,-39.05108,Sul,RPGA do Leste,19.3,5.0,2.5,0.0,0.0,0.0,0.0,0.0,0.0,0.0,0.0,0.0,13.0,0.0,18.1,59.0,0.0,5.0,0.0,18.0,0.0,9.5,14.0,0.0,0.0,0.0,1.5,0.0,8.0,172.9
Ubaitaba,EBDA,Ubaitaba,Ubaitaba - EBDA,-14.318037,-39.31775,Sul,RPGA do Rio de Contas,1.0,8.5,3.6,1.2,5.5,5.5,0.0,0.0,0.0,0.0,0.3,2.0,3.4,5.5,6.0,3.0,3.5,3.0,2.6,2.0,0.6,1.9,2.6,0.0,0.0,0.2,0.0,1.0,1.2,64.11
Itapebi,EBDA,Itapebi,Itapebi - EBDA,-15.968068,-39.534431,Sul,RPGA do Rio Jequitinhonha,0.0,11.0,0.0,0.0,2.0,5.0,5.0,0.0,0.0,0.0,0.0,0.0,0.0,0.0,0.0,0.0,5.0,13.0,0.0,0.0,0.0,0.0,0.0,0.0,1.0,10.0,0.0,0.0,0.0,52.0
Canavieiras,EBDA,Canavieiras,Canavieiras - EBDA,-15.684731,-38.95108,Sul,RPGA do Rio Pardo,0.3,13.2,0.0,20.0,9.7,6.6,0.6,0.0,0.0,0.1,0.4,0.0,0.0,0.0,6.3,10.0,4.7,5.1,0.3,12.1,0.0,0.0,7.8,0.0,1.8,4.1,0.0,0.0,0.0,103.1
Una,EBDA,Una,Una - EBDA,-15.301389,-39.084416,Sul,RPGA do Leste,19.5,12.7,9.0,3.5,11.0,16.2,1.8,0.5,0.0,0.0,0.0,0.5,22.4,7.7,8.3,5.4,18.9,4.8,2.2,4.0,0.0,0.0,2.5,10.0,0.0,0.0,0.5,0.0,0.0,161.4
Itanhém,EBDA,Itanhém,Itanhém - EBDA,-17.134752,-40.334459,Sul,"RPGA dos Rios Peruípe, Itanhém e Jucuruçu",0.0,8.0,7.0,2.5,1.5,0.0,0.0,0.0,0.0,0.0,0.0,0.0,0.0,0.4,2.5,15.5,0.5,14.8,0.0,0.0,0.0,0.0,0.0,0.0,1.1,0.5,0.0,0.0,0.0,54.31
Itamaraju,EBDA,Itamaraju,Itamaraju - EBDA,-17.068089,-39.534438,Sul,"RPGA dos Rios Peruípe, Itanhém e Jucuruçu",2.5,9.8,8.4,1.7,2.1,3.0,0.0,0.0,0.0,0.0,0.0,0.0,0.0,1.2,3.0,2.5,9.8,6.8,0.0,0.0,22.6,0.0,0.0,0.0,0.0,8.3,0.0,0.0,0.0,81.7
Camacã,,Camacã,Camacã,-15.418059,-39.051083,Sul,RPGA do Leste,0.0,12.0,10.0,1.0,10.0,20.5,6.0,0.0,0.0,0.0,5.5,3.0,0.0,0.0,4.0,0.0,0.0,7.0,0.0,10.0,0.0,0.0,5.5,0.0,10.0,0.0,0.0,0.0,0.0,104.5
Coaraci,,Coaraci,Coaraci,-14.634708,-39.551092,Sul,RPGA do Leste,39.2,11.4,2.4,11.8,35.6,3.2,0.0,0.0,0.0,0.0,0.0,0.8,1.4,1.0,6.6,9.4,9.0,5.6,0.0,0.0,2.6,0.0,0.0,10.8,2.4,0.0,0.0,0.0,0.0,153.21
Fz Nanci,53880000,Camacã,Camacã (Fz Nanci) - 53880000,-15.581395,-39.521095,Sul,RPGA do Rio Pardo,2.0,15.0,1.0,3.0,9.0,11.0,2.0,0.0,0.0,0.0,0.0,0.0,0.0,0.0,4.0,2.0,2.0,24.0,0.0,0.0,2.0,2.0,0.0,0.0,0.0,2.0,0.0,0.0,0.0,81.0
Caravelas,A405,Caravelas,Caravelas - A405,-17.739413,-39.258617,Sul,"RPGA dos Rios Peruípe, Itanhém e Jucuruçu",0.0,5.8,5.6,1.0,0.0,1.0,4.6,0.0,0.0,0.0,0.0,0.0,10.2,2.6,2.8,0.8,9.0,3.6,1.2,1.6,0.4,2.8,2.6,0.0,2.2,0.0,0.0,0.0,0.0,57.81
Ilhéus,A410,Ilhéus,Ilhéus - A410,-14.658803,-39.181438,Sul,RPGA do Leste,24.6,6.4,0.4,7.2,16.4,2.6,0.6,0.4,0.0,0.4,0.0,4.2,0.0,0.8,12.0,34.2,18.6,12.0,4.8,5.0,0.2,0.0,23.6,4.6,4.4,0.4,0.4,0.0,0.4,184.61
Canavieiras,83398,Canavieiras,Canavieiras - 83398,-15.666667,-38.95,Sul,RPGA do Rio Pardo,3.7,6.9,1.1,18.6,5.8,4.6,0.0,0.0,0.0,0.0,0.0,0.0,0.0,0.0,9.2,6.0,3.3,5.3,0.0,11.1,3.3,2.1,8.6,0.0,4.9,5.9,0.0,0.0,2.1,102.5
Caravelas,83498,Caravelas,Caravelas - 83498,-17.739167,-39.258333,Sul,"RPGA dos Rios Peruípe, Itanhém e Jucuruçu",0.0,6.0,4.0,0.9,0.0,0.9,3.7,0.0,0.0,0.0,0.0,0.0,9.8,2.2,2.2,0.8,7.8,2.6,0.8,1.6,0.3,2.6,2.0,0.0,2.2,0.0,0.0,0.0,0.0,50.4
Guaratinga,83446,Guaratinga,Guaratinga - 83446,-16.58,-39.78,Sul,"RPGA dos Rios dos Frades, Buranhém e Santo Antônio",7.0,6.4,5.1,0.9,2.4,3.1,0.5,0.0,0.0,0.0,0.0,0.0,0.0,0.0,1.0,6.8,5.3,7.0,2.7,0.0,2.7,0.0,0.0,0.0,4.5,3.5,8.1,0.0,0.0,67.0
Maraú,A438,Maraú,Maraú - A438,-13.90694,-38.97222,Sul,RPGA do Recôncavo Sul,29.8,13.2,2.2,16.8,9.8,2.6,0.2,0.0,0.0,0.0,0.2,25.0,0.0,0.0,21.6,14.8,4.4,2.4,21.4,15.8,6.0,0.6,8.2,13.4,0.0,0.2,4.0,0.0,1.6,214.21
Una,A437,Una,Una - A437,-15.280215,-39.09127,Sul,RPGA do Leste,24.6,9.6,9.2,1.2,18.0,2.6,10.0,0.2,0.0,0.0,0.8,1.4,0.4,1.0,13.6,7.0,14.2,5.0,9.2,2.0,0.2,0.0,3.4,0.0,0.2,13.4,0.0,1.6,5.0,153.8
Abrolhos,A422,Caravelas,Caravelas (Abrolhos) - A422,-17.79052,-39.22789,Sul,"RPGA dos Rios Peruípe, Itanhém e Jucuruçu",1.2,14.2,1.4,0.0,0.0,0.0,0.0,0.0,0.0,0.0,0.0,0.0,0.0,0.0,0.0,0.2,0.6,0.4,0.0,2.2,0.0,0.0,0.2,0.0,0.0,0.0,0.0,0.0,0.0,20.4
Belmonte,A447,Belmonte,Belmonte - A447,-16.08487,-39.21726,Sul,"RPGA dos Rios dos Frades, Buranhém e Santo Antônio",7.6,2.0,0.6,3.0,0.2,1.0,1.8,0.0,0.0,0.0,0.0,0.8,0.4,5.6,6.0,2.8,2.2,0.8,0.0,0.0,0.8,0.2,0.4,0.0,2.0,0.6,0.0,0.0,0.0,38.8
Ilhéus,02 - EBDA,Ilhéus,Ilhéus - 02 - EBDA,-14.790269,-39.050524,Sul,RPGA do Leste,0.0,16.0,0.0,27.0,20.0,0.0,0.0,0.0,0.0,0.0,6.0,0.0,0.0,0.0,12.3,0.0,64.0,0.0,25.2,0.0,0.0,0.0,0.0,0.0,0.0,0.0,0.0,0.0,0.0,170.5
Itapitanga,EBDA,Itapitanga,Itapitanga - EBDA,-14.424149,-39.567758,Sul,RPGA do Rio de Contas,0.0,0.0,0.0,0.0,0.0,0.0,0.0,0.0,0.0,0.0,0.0,0.0,0.0,0.0,0.0,0.0,0.0,0.0,0.0,0.0,0.0,0.0,0.0,0.0,0.0,0.0,0.0,0.0,0.0,0.0
Maraú,EBDA,Maraú,Maraú - EBDA,-14.104423,-39.015797,Sul,RPGA do Recôncavo Sul,10.0,15.0,5.0,15.0,0.0,0.0,0.0,0.0,0.0,0.0,0.0,20.0,0.0,10.0,15.0,20.0,0.0,5.0,0.0,2.0,0.0,0.0,10.0,0.0,0.0,10.0,0.0,0.0,0.0,137.0
Eunápolis,FB-CL-01,Eunápolis,Eunápolis - FB-CL-01,-16.290555,-39.579722,Sul,"RPGA dos Rios dos Frades, Buranhém e Santo Antônio",2.5,3.25,0.25,2.75,0.0,2.5,0.0,0.0,0.0,0.0,0.0,0.0,0.0,1.75,2.25,7.25,2.0,4.0,0.0,0.25,2.5,0.0,0.0,0.0,0.0,0.25,1.25,0.0,0.0,32.75
CPLAC,LE-CL-01,Ilhéus,Ilhéus (CPLAC) - LE-CL-01,-14.80184,-39.181444,Sul,RPGA do Leste,32.0,2.25,2.75,4.75,13.25,0.75,1.25,1.0,0.0,0.0,0.0,5.0,16.75,0.25,10.0,23.75,1.5,2.5,0.25,1.75,1.25,0.5,2.75,1.0,0.75,0.25,0.0,0.0,0.25,126.5
Teixeira de Freitas,PJ-CL-01,Teixeira de Freitas,Teixeira de Freitas - PJ-CL-01,-17.575555,-39.732777,Sul,"RPGA dos Rios Peruípe, Itanhém e Jucuruçu",0.25,1.5,8.5,0.0,6.0,0.5,0.0,0.0,0.0,0.0,0.0,0.0,0.0,0.0,7.5,1.25,11.5,1.5,13.25,0.0,0.0,0.0,0.0,0.0,0.0,3.75,0.0,0.0,0.0,55.5
SEDE,EBDA,Angical,Angical (SEDE) - EBDA,-12.001302,-44.684543,São Francisco,RPGA do Rio Grande,10.0,10.0,0.0,0.0,0.0,0.0,0.0,0.0,10.2,0.0,0.0,0.0,1.5,0.0,0.0,0.0,0.0,0.0,0.0,0.0,0.0,0.0,0.0,0.0,0.0,0.0,0.0,0.0,0.0,31.7
SEDE,EBDA,Baianópolis,Baianópolis (SEDE) - EBDA,-12.301308,-44.53454,São Francisco,RPGA do Rio Grande,10.0,0.0,0.0,0.0,0.0,0.0,0.0,0.0,19.0,0.0,55.0,0.0,0.0,0.0,0.0,0.0,0.0,0.0,0.0,15.0,0.0,0.0,0.0,0.0,0.0,0.0,0.0,0.0,0.0,99.0
SEDE,,Santa Rita de Cássia,Santa Rita de Cássia (SEDE),-11.001281,-44.517867,São Francisco,RPGA do Rio Grande,38.1,0.0,0.0,0.0,0.0,0.0,0.0,1.7,0.0,0.0,0.0,0.0,17.3,0.0,0.0,11.8,0.0,0.0,0.0,0.0,0.0,0.0,14.7,7.0,0.0,0.0,0.0,0.0,0.0,90.61
SEDE,EBDA,Wanderley,Wanderley (SEDE) - EBDA,-12.117972,-43.884524,São Francisco,RPGA do Rio Grande,11.4,0.0,0.0,0.0,0.0,0.0,2.8,0.0,25.5,2.8,0.0,19.8,0.0,0.0,13.0,0.0,0.0,0.0,2.8,0.0,0.0,0.0,0.0,3.0,0.0,0.0,0.0,0.0,0.0,81.1
Bom Jesus da Lapa,EBDA,Bom Jesus da Lapa,Bom Jesus da Lapa - EBDA,-13.251329,-43.417851,São Francisco,RPGA do Rio Carnaíba de Dentro,1.5,0.0,0.0,0.0,0.0,0.0,0.0,0.0,0.0,0.0,0.0,11.0,1.5,0.0,16.5,0.0,0.0,0.0,0.0,0.0,0.0,0.0,0.0,0.0,0.0,0.0,0.0,0.0,0.0,30.5
Carinhanha,EBDA,Carinhanha,Carinhanha - EBDA,-14.301347,-43.767864,São Francisco,"RPGA do Rio Corrente e Riachos do Ramalho, Serra Dourada e Brejo Velho",0.0,0.0,0.0,0.0,0.0,0.0,0.0,0.0,0.0,0.0,8.3,3.9,6.6,0.0,0.0,0.0,0.0,0.0,0.0,0.0,0.0,0.0,0.0,0.0,0.0,0.0,0.0,0.0,0.0,18.8
Ibotirama,EBDA,Ibotirama,Ibotirama - EBDA,-12.184644,-43.21784,São Francisco,RPGA dos Rios Paramirim e Santo Onofre,20.2,0.0,0.0,0.0,0.0,0.0,0.0,0.0,2.7,1.6,2.4,15.0,0.0,0.0,13.2,9.5,0.4,0.0,0.0,0.0,0.0,0.0,0.0,0.0,0.0,0.0,0.0,0.0,0.0,65.0
Paratinga,EBDA,Paratinga,Paratinga - EBDA,-12.684653,-43.184509,São Francisco,RPGA do Rio Carnaíba de Dentro,0.0,0.0,0.0,0.0,0.0,0.0,0.0,0.0,0.0,11.6,40.5,22.2,0.0,0.0,15.0,0.0,0.0,0.0,0.0,0.0,0.0,0.0,0.0,0.0,0.0,0.0,0.0,0.0,0.0,89.3
Riacho de Santana,EBDA,Riacho de Santana,Riacho de Santana - EBDA,-13.601338,-42.934507,São Francisco,RPGA do Rio Carnaíba de Dentro,0.0,0.0,0.0,0.0,0.0,0.0,0.0,0.0,0.0,26.6,24.8,5.8,0.0,0.0,2.4,0.0,0.0,0.0,0.0,0.0,0.0,0.0,0.0,0.0,0.0,0.0,0.0,0.0,0.0,59.6
Serra do Ramalho,EBDA,Serra do Ramalho,Serra do Ramalho - EBDA,-13.618002,-43.567857,São Francisco,"RPGA do Rio Corrente e Riachos do Ramalho, Serra Dourada e Brejo Velho",0.0,0.0,0.0,0.0,0.0,0.0,0.0,0.0,0.0,0.0,0.0,24.7,0.0,0.0,5.3,0.0,0.0,0.0,0.0,0.0,0.0,0.0,0.0,0.0,0.0,0.0,0.0,0.0,0.0,30.0
Santa Maria da Vitória,CT-PR-07,Santa Maria da Vitória,Santa Maria da Vitória - CT-PR-07,-13.384662,-44.184537,São Francisco,"RPGA do Rio Corrente e Riachos do Ramalho, Serra Dourada e Brejo Velho",0.0,0.0,0.0,0.0,0.0,0.0,0.0,0.0,1.5,0.0,0.0,5.2,0.0,0.0,0.0,0.0,0.0,0.0,0.0,0.0,0.0,0.0,0.0,0.0,0.0,0.0,0.0,0.0,0.0,6.7
Coribe,EBDA,Coribe,Coribe - EBDA,-13.834669,-44.451212,São Francisco,"RPGA do Rio Corrente e Riachos do Ramalho, Serra Dourada e Brejo Velho",12.5,0.0,0.0,0.0,0.0,0.0,0.0,0.0,0.0,0.0,0.0,0.0,0.0,0.0,15.0,0.0,0.0,0.0,0.0,0.0,14.0,0.0,0.0,0.0,0.0,0.0,0.0,0.0,0.0,41.5
Santana,EBDA,Santana,Santana - EBDA,-12.984656,-44.0512,São Francisco,"RPGA do Rio Corrente e Riachos do Ramalho, Serra Dourada e Brejo Velho",0.0,0.0,0.0,0.0,0.0,0.0,0.0,0.0,43.6,0.0,8.0,9.0,0.0,0.0,14.2,0.0,0.0,0.0,0.0,0.0,44.2,0.0,0.0,0.0,0.0,0.0,0.0,0.0,0.0,119.0
Barra,EBDA,Barra,Barra - EBDA,-11.084623,-43.151167,São Francisco,RPGA do Rio Grande,0.0,0.0,0.0,0.0,0.0,0.0,0.0,0.0,0.0,0.0,2.5,5.8,0.0,0.0,0.0,0.0,0.0,0.0,0.0,0.0,0.0,0.0,0.0,0.0,0.0,0.0,0.0,0.0,0.0,8.3
Gentio do Ouro,EBDA,Gentio do Ouro,Gentio do Ouro - EBDA,-11.417965,-42.501152,São Francisco,RPGA dos Rios Verde e Jacaré,0.0,0.0,0.0,0.0,0.0,0.0,0.0,5.6,0.0,2.1,1.3,14.8,0.0,0.0,3.9,0.0,0.0,0.0,0.0,0.0,0.0,0.0,0.0,0.0,0.0,0.0,0.0,0.0,0.0,27.7
Xique-Xique,EBDA,Xique-Xique,Xique-Xique - EBDA,-10.817951,-42.717822,São Francisco,RPGA dos Rios Paramirim e Santo Onofre,0.0,0.0,0.0,0.0,0.0,0.0,0.0,0.0,0.0,0.0,10.0,56.8,0.0,0.0,4.0,0.0,0.0,0.0,0.0,0.0,0.0,0.0,0.0,0.0,0.0,0.0,0.0,0.0,0.0,70.8
Brotas de Macaúbas,EBDA,Brotas de Macaúbas,Brotas de Macaúbas - EBDA,-12.001308,-42.617825,São Francisco,RPGA dos Rios Paramirim e Santo Onofre,7.9,0.0,0.0,12.3,0.0,0.0,0.0,0.0,0.0,0.0,0.0,0.0,0.0,0.0,21.9,0.0,0.0,0.0,0.0,0.0,0.0,0.0,0.0,0.0,0.0,0.0,0.0,0.0,0.0,42.1
Oliveira dos Brejinhos,EBDA,Oliveira dos Brejinhos,Oliveira dos Brejinhos - EBDA,-12.301314,-42.8845,São Francisco,RPGA dos Rios Paramirim e Santo Onofre,0.0,0.0,0.0,0.0,0.0,0.0,0.0,0.0,0.0,0.0,21.0,0.0,0.0,0.0,0.0,8.5,0.0,0.0,0.0,0.0,0.0,0.0,0.0,0.0,0.0,0.0,0.0,0.0,0.0,29.5
Caetité,EBDA,Caetité,Caetité - EBDA,-14.068017,-42.484498,São Francisco,RPGA do Rio de Contas,0.0,0.0,1.0,7.5,0.0,0.0,0.0,0.0,0.0,26.5,21.0,0.0,0.0,0.0,0.0,0.0,0.0,0.0,0.0,0.0,0.0,0.0,0.0,0.0,0.0,0.0,0.0,0.0,0.0,56.0
Urandi,EBDA,Urandi,Urandi - EBDA,-14.768029,-42.651173,São Francisco,RPGA do Rio Verde Grande,0.0,0.0,0.0,0.0,0.0,0.0,0.0,0.0,0.0,0.0,0.0,6.0,0.0,0.0,0.0,0.0,0.0,0.0,0.0,0.0,0.0,0.0,0.0,0.0,0.0,0.0,0.0,0.0,0.0,6.0
Paramirim,EBDA,Paramirim,Paramirim - EBDA,-13.434672,-42.234489,São Francisco,RPGA dos Rios Paramirim e Santo Onofre,7.0,0.0,0.0,0.0,0.0,0.0,0.0,0.0,0.0,8.0,15.0,0.0,5.0,0.0,12.0,0.0,0.0,0.0,0.0,0.0,0.0,0.0,0.0,0.0,0.0,0.0,0.0,0.0,0.0,47.0
Guanambí,EBDA,Guanambí,Guanambí - EBDA,-14.218017,-42.76784,São Francisco,RPGA do Rio Carnaíba de Dentro,0.0,0.0,0.0,0.0,0.0,0.0,0.0,0.0,0.0,0.0,42.0,59.0,45.0,0.0,0.0,0.0,0.0,0.0,0.0,0.0,0.0,0.0,0.0,0.0,0.0,0.0,0.0,0.0,0.0,146.0
Macaúbas,EBDA,Macaúbas,Macaúbas - EBDA,-13.017996,-42.684498,São Francisco,RPGA dos Rios Paramirim e Santo Onofre,0.0,0.0,0.0,0.0,0.0,0.0,0.0,0.0,0.0,0.0,9.0,11.0,0.0,0.0,0.0,0.0,0.0,0.0,0.0,0.0,0.0,0.0,0.0,0.0,0.0,0.0,0.0,0.0,0.0,20.0
Palmas do Monte Alto,EBDA,Palmas do Monte Alto,Palmas do Monte Alto - EBDA,-14.268017,-43.167849,São Francisco,RPGA do Rio Carnaíba de Dentro,0.0,0.0,0.0,0.0,0.0,0.0,0.0,0.0,0.0,0.0,37.0,13.0,0.0,0.0,0.0,0.0,0.0,0.0,0.0,0.0,0.0,0.0,0.0,0.0,0.0,0.0,0.0,0.0,0.0,50.0
Sítio do Mato,EBDA,Sítio do Mato,Sítio do Mato - EBDA,-13.167995,-43.501185,São Francisco,"RPGA do Rio Corrente e Riachos do Ramalho, Serra Dourada e Brejo Velho",0.0,0.0,0.0,0.0,0.0,0.0,0.0,0.0,5.5,18.5,15.5,11.3,15.5,9.7,11.3,0.0,0.0,0.0,0.0,0.0,0.0,0.0,0.0,0.0,0.0,0.0,0.0,0.0,0.0,87.3
Matina,EBDA,Matina,Matina - EBDA,-13.918012,-42.834506,São Francisco,RPGA do Rio Carnaíba de Dentro,0.0,0.0,0.0,0.0,0.0,0.0,0.0,0.0,0.0,0.0,30.0,0.0,0.0,0.0,0.0,0.0,0.0,0.0,0.0,0.0,0.0,0.0,0.0,0.0,0.0,0.0,0.0,0.0,0.0,30.0
Igaporã,EBDA,Igaporã,Igaporã - EBDA,-13.701341,-42.75117,São Francisco,RPGA do Rio Carnaíba de Dentro,0.0,0.0,0.0,0.0,0.0,0.0,0.0,0.0,0.0,0.0,27.5,37.0,40.0,0.0,0.0,0.0,0.0,0.0,0.0,0.0,0.0,0.0,0.0,0.0,0.0,0.0,0.0,0.0,0.0,104.5
Serra Dourada,EBDA - EBDA,Serra Dourada,Serra Dourada - EBDA - EBDA,-12.751317,-43.951194,São Francisco,"RPGA do Rio Corrente e Riachos do Ramalho, Serra Dourada e Brejo Velho",0.0,0.0,0.0,0.0,0.0,0.0,0.0,0.0,0.0,0.0,0.0,0.0,0.0,0.0,50.0,0.0,0.0,0.0,0.0,0.0,0.0,0.0,0.0,0.0,0.0,0.0,0.0,0.0,0.0,50.0
Iuiú,EBDA,Iuiú,Iuiú - EBDA,-14.40135,-43.551194,São Francisco,RPGA do Rio Carnaíba de Dentro,0.0,0.0,0.0,0.0,0.0,0.0,0.0,0.0,0.0,0.0,0.0,0.0,0.0,0.0,0.0,0.0,0.0,0.0,0.0,0.0,0.0,0.0,0.0,0.0,0.0,0.0,0.0,0.0,0.0,0.0
Malhada,EBDA,Malhada,Malhada - EBDA,-14.334683,-43.767866,São Francisco,RPGA do Rio Carnaíba de Dentro,0.0,0.0,0.0,0.0,0.0,0.0,0.0,0.0,0.0,0.0,15.0,20.0,0.0,0.0,0.0,0.0,0.0,0.0,0.0,0.0,0.0,0.0,0.0,0.0,0.0,0.0,0.0,0.0,0.0,35.0
Sebastião Laranjeiras,EBDA,Sebastião Laranjeiras,Sebastião Laranjeiras - EBDA,-14.534689,-42.967846,São Francisco,RPGA do Rio Verde Grande,0.0,0.0,0.0,0.0,0.0,0.0,0.0,0.0,0.0,0.0,0.0,0.0,0.0,40.0,14.0,0.0,0.0,0.0,0.0,0.0,0.0,0.0,0.0,0.0,0.0,0.0,0.0,0.0,0.0,54.0
Morpará,46360000,Morpará,Morpará - 46360000,-11.5583,-43.2825,São Francisco,RPGA dos Rios Paramirim e Santo Onofre,0.0,12.0,0.0,0.0,0.0,0.0,0.0,0.0,0.0,0.0,5.0,35.0,0.0,0.0,3.0,14.0,12.0,0.0,0.0,0.0,1.0,0.0,0.0,0.0,0.0,0.0,0.0,4.0,0.0,86.0
Santa Rita de Cássia,A415,Santa Rita de Cássia,Santa Rita de Cássia - A415,-11.002768,-44.524965,São Francisco,RPGA do Rio Grande,34.0,0.0,0.8,0.0,0.0,0.0,0.0,0.8,0.0,0.0,0.0,20.6,0.0,0.4,0.6,8.6,0.0,0.0,0.0,2.2,0.0,7.6,0.0,6.0,0.0,0.0,0.0,0.0,0.0,81.6
Barra,83179,Barra,Barra - 83179,-11.083333,-43.166667,São Francisco,RPGA do Rio Grande,8.4,0.0,2.8,0.0,0.0,0.0,0.0,0.0,0.3,1.3,5.5,5.6,0.0,0.0,0.0,2.0,0.0,0.0,0.0,0.0,0.0,0.0,0.0,0.0,4.8,0.0,0.0,0.0,0.0,30.7
Bom Jesus da Lapa,83288,Bom Jesus da Lapa,Bom Jesus da Lapa - 83288,-13.251389,-43.405278,São Francisco,RPGA do Rio Carnaíba de Dentro,0.0,1.3,0.0,0.0,0.0,0.0,0.0,0.0,0.0,0.3,0.0,0.8,12.5,0.8,0.0,10.4,0.0,5.8,2.4,0.0,0.0,1.6,0.0,0.0,0.0,0.0,0.0,0.0,0.0,35.91
Caetité,83339,Caetité,Caetité - 83339,-14.066667,-42.483333,São Francisco,RPGA do Rio de Contas,0.0,0.0,0.0,0.6,4.0,0.0,0.0,0.0,0.0,0.0,26.6,7.8,0.4,0.0,0.0,7.0,0.8,6.0,0.0,0.0,0.0,0.0,0.0,0.0,0.0,0.0,0.0,0.0,0.0,53.2
Carinhanha,83408,Carinhanha,Carinhanha - 83408,-14.283333,-43.766667,São Francisco,"RPGA do Rio Corrente e Riachos do Ramalho, Serra Dourada e Brejo Velho",0.0,0.0,0.0,0.0,0.0,0.0,0.0,0.0,0.0,0.0,0.0,12.5,3.5,3.8,0.0,0.0,0.0,0.0,0.0,0.0,0.0,0.0,0.0,0.0,0.0,0.0,0.0,0.0,0.0,19.8
Santa Rita de Cássia,83076,Santa Rita de Cássia,Santa Rita de Cássia - 83076,-11.016667,-44.516667,São Francisco,RPGA do Rio Grande,37.8,0.0,0.7,0.0,0.0,0.0,0.0,0.5,0.0,0.0,0.1,22.0,0.0,0.3,0.5,8.0,0.0,0.0,0.0,2.0,0.0,8.4,0.0,6.2,0.0,0.1,0.0,0.0,0.0,86.61
Guanambí,A426,Guanambí,Guanambí - A426,-14.208123,-42.749647,São Francisco,RPGA do Rio Carnaíba de Dentro,10.0,0.0,0.0,0.0,0.0,0.0,0.0,0.0,0.0,0.0,79.8,24.2,7.2,0.0,0.0,2.6,0.0,1.6,0.0,0.0,0.0,0.0,0.0,0.0,0.0,0.0,0.0,0.0,0.0,125.4
Buritirama,A432,Buritirama,Buritirama - A432,-10.722925,-43.651203,São Francisco,RPGA do Rio Grande,0.4,0.6,0.2,0.0,0.0,0.0,0.0,0.0,0.0,0.0,0.0,0.0,0.0,0.0,0.0,0.0,0.0,0.0,0.0,0.0,0.0,0.0,0.0,0.0,0.0,0.0,0.0,0.0,0.0,1.2
Barra,A429,Barra,Barra - A429,-11.084858,-43.138998,São Francisco,RPGA do Rio Grande,10.0,0.0,3.6,0.0,0.0,0.0,0.0,0.0,0.4,1.8,7.0,6.8,0.0,0.0,0.0,2.6,0.0,0.0,0.0,0.2,0.0,0.2,0.0,0.0,6.2,0.0,0.0,0.0,0.0,38.81
Ibotirama,A439,Ibotirama,Ibotirama - A439,-12.19306,-43.21342,São Francisco,RPGA dos Rios Paramirim e Santo Onofre,0.0,20.2,0.0,0.0,0.0,0.0,0.0,0.0,0.0,1.2,3.0,11.4,3.6,0.0,2.2,13.6,9.2,0.0,0.0,0.2,0.0,0.0,0.0,0.0,0.4,0.0,0.0,0.0,0.0,65.01
Feira da Mata,EBDA,Feira da Mata,Feira da Mata - EBDA,-14.218288,-44.268154,São Francisco,RPGA do Rio Carinhanha,0.0,0.0,0.0,0.0,0.0,0.0,0.0,0.0,0.0,0.0,24.7,10.7,31.6,0.0,32.7,0.0,0.0,0.0,0.0,0.0,0.0,0.0,0.0,0.0,0.0,0.0,0.0,0.0,0.0,99.7
Canápolis,EBDA,Canápolis,Canápolis - EBDA,-13.06799,-44.201203,São Francisco,"RPGA do Rio Corrente e Riachos do Ramalho, Serra Dourada e Brejo Velho",0.0,0.0,0.0,0.0,0.0,0.0,0.0,0.0,39.9,0.0,0.0,17.5,0.0,0.0,0.0,0.0,0.0,0.0,0.0,0.0,0.0,0.0,0.0,0.0,0.0,0.0,0.0,0.0,0.0,57.4
Brejolândia,EBDA,Brejolândia,Brejolândia - EBDA,-12.384644,-43.967861,São Francisco,"RPGA do Rio Corrente e Riachos do Ramalho, Serra Dourada e Brejo Velho",0.0,0.0,0.0,0.0,0.0,0.0,0.0,0.0,17.7,0.0,0.0,25.7,0.0,0.0,0.0,0.0,0.0,0.0,0.0,0.0,0.0,0.0,0.0,0.0,0.0,0.0,0.0,0.0,0.0,43.4
Boquira,EBDA,Boquira,Boquira - EBDA,-12.801323,-42.801167,São Francisco,RPGA dos Rios Paramirim e Santo Onofre,0.0,0.0,0.0,0.0,0.0,0.0,0.0,0.0,0.0,0.0,10.0,20.0,0.0,0.0,0.0,0.0,0.0,0.0,0.0,0.0,0.0,0.0,0.0,0.0,0.0,0.0,0.0,0.0,0.0,30.0
Botuporã,EBDA,Botuporã,Botuporã - EBDA,-13.301335,-42.551164,São Francisco,RPGA dos Rios Paramirim e Santo Onofre,0.0,0.0,0.0,12.3,0.0,0.0,0.0,0.0,0.0,0.0,23.8,2.4,0.0,0.0,2.3,0.0,0.0,0.0,0.0,0.0,0.0,0.0,0.0,0.0,0.0,0.0,0.0,0.0,0.0,40.8
Licínio de Almeida,EBDA,Licínio de Almeida,Licínio de Almeida - EBDA,-14.634693,-42.567837,São Francisco,RPGA do Rio Verde Grande,0.0,0.0,0.0,0.0,0.0,0.0,0.0,0.0,0.0,0.0,0.0,0.0,0.0,0.0,0.0,0.0,0.0,0.0,0.0,0.0,0.0,0.0,0.0,0.0,0.0,0.0,0.0,0.0,0.0,0.0
Ibipitanga,EBDA,Ibipitanga,Ibipitanga - EBDA,-12.801326,-42.467825,São Francisco,RPGA dos Rios Paramirim e Santo Onofre,0.0,0.0,0.0,0.0,0.0,0.0,0.0,0.0,0.0,0.0,0.0,0.0,0.0,0.0,0.0,0.0,0.0,0.0,0.0,0.0,0.0,0.0,0.0,0.0,0.0,0.0,0.0,0.0,0.0,0.0
Tanque Novo,EBDA,Tanque Novo,Tanque Novo - EBDA,-13.501338,-42.501164,São Francisco,RPGA dos Rios Paramirim e Santo Onofre,0.0,0.0,0.0,0.0,0.0,0.0,0.0,0.0,0.0,0.0,0.0,0.0,0.0,0.0,0.0,0.0,0.0,0.0,0.0,0.0,0.0,0.0,0.0,0.0,0.0,0.0,0.0,0.0,0.0,0.0
Fz. São Rafael,EBDA,Baianópolis,Baianópolis (Fz. São Rafael) - EBDA,-12.307697,-44.535931,São Francisco,RPGA do Rio Grande,0.0,0.0,0.0,0.0,0.0,0.0,0.0,0.0,0.0,0.0,0.0,39.0,0.0,0.0,0.0,0.0,0.0,0.0,0.0,0.0,4.0,0.0,0.0,0.0,0.0,0.0,3.0,0.0,0.0,46.0
Cascudeiro,EBDA,Baianópolis,Baianópolis (Cascudeiro) - EBDA,-12.528533,-44.480095,São Francisco,RPGA do Rio Grande,3.0,0.0,0.0,0.0,0.0,0.0,0.0,0.0,0.0,0.0,0.0,15.0,2.0,0.0,28.0,0.0,0.0,0.0,0.0,0.0,10.0,0.0,0.0,0.0,0.0,0.0,8.0,0.0,0.0,66.0
Caetité,CD-CL-01,Caetité,Caetité - CD-CL-01,-13.96659,-42.60482,São Francisco,RPGA do Rio Carnaíba de Dentro,0.0,0.0,0.0,0.0,0.0,0.0,0.0,0.0,0.0,0.0,15.5,50.25,0.5,0.0,0.0,1.0,0.25,1.25,0.0,0.0,0.0,0.0,0.0,0.0,0.0,0.0,0.0,0.0,0.0,68.75
Fazenda Piabanha,,Fazenda Piabanha,Fazenda Piabanha,-14.59737,-42.38433,São Francisco,RPGA do Rio de Contas,0.0,0.0,0.0,0.0,0.5,0.0,0.0,0.0,0.0,0.0,6.75,13.25,4.0,0.0,0.0,0.75,0.0,2.75,0.0,0.5,0.0,0.0,0.0,0.0,0.0,0.0,0.0,0.0,0.0,28.5
