nome_estacao,codigo,municipio,estacao,latitude,longitude,regiao,rpga,01_04_16,02_04_16,03_04_16,04_04_16,05_04_16,06_04_16,07_04_16,08_04_16,09_04_16,10_04_16,11_04_16,12_04_16,13_04_16,14_04_16,15_04_16,16_04_16,17_04_16,18_04_16,19_04_16,20_04_16,21_04_16,22_04_16,23_04_16,24_04_16,25_04_16,26_04_16,27_04_16,28_04_16,29_04_16,30_04_16,total
Itaberaba,A408,Itaberaba,Itaberaba - A408,-12.524062,-40.299714,Chapada Diamantina,RPGA do Rio Paraguaçu,1.2,0.0,0.4,3.6,0.6,0.8,0.2,0.0,0.0,0.0,0.0,1.2,2.4,0.2,0.4,0.6,0.2,0.4,0.4,0.4,0.4,0.2,0.0,0.0,0.0,0.0,0.0,0.0,0.0,0.0,13.6
Macajuba,A412,Macajuba,Macajuba - A412,-12.131694,-40.354222,Chapada Diamantina,RPGA do Rio Paraguaçu,0.8,0.0,1.6,1.2,1.6,1.8,0.2,0.0,0.0,0.0,0.8,4.0,4.8,7.2,2.6,0.0,1.0,1.4,1.2,1.2,0.0,0.0,0.0,0.0,0.0,0.0,0.0,0.0,0.0,0.0,31.4
Itaberaba,83244,Itaberaba,Itaberaba - 83244,-12.516667,-40.283333,Chapada Diamantina,RPGA do Rio Paraguaçu,1.0,0.0,0.0,3.0,0.4,0.5,0.5,0.0,0.0,0.0,0.0,1.1,2.4,1.2,5.0,0.0,1.6,3.4,5.8,0.5,0.0,0.0,0.0,0.0,0.0,0.0,0.0,0.0,0.0,0.0,26.4
Lençóis,83242,Lençóis,Lençóis - 83242,-12.5575,-41.388889,Chapada Diamantina,RPGA do Rio Paraguaçu,0.0,0.0,0.0,0.0,0.0,0.1,0.0,0.0,0.0,1.5,0.0,0.0,10.4,0.0,0.4,0.0,0.0,0.3,0.0,0.3,0.1,0.0,0.0,0.0,0.3,0.0,0.0,0.0,0.0,0.0,13.41
Morro do Chapéu,83184,Morro do Chapéu,Morro do Chapéu - 83184,-11.216667,-41.216667,Chapada Diamantina,RPGA do Rio Salitre,0.0,0.0,0.0,0.6,0.4,0.8,0.0,0.0,0.0,0.0,0.0,0.0,0.2,0.2,0.6,0.3,0.0,1.4,2.0,1.0,0.0,0.0,0.0,0.0,0.0,0.0,0.0,0.0,0.0,0.0,7.5
Piatã,A430,Piatã,Piatã - A430,-13.155681,-41.774125,Chapada Diamantina,RPGA do Rio de Contas,0.0,0.0,0.0,0.0,0.0,0.0,0.0,0.0,0.0,0.0,0.0,0.0,2.2,0.0,0.0,0.0,0.0,0.0,0.0,0.0,0.2,0.0,0.0,0.0,0.0,0.0,0.0,0.0,0.0,0.0,2.41
Lençóis,A425,Lençóis,Lençóis - A425,-12.557854,-41.388808,Chapada Diamantina,RPGA do Rio Paraguaçu,0.0,0.0,0.0,0.0,0.0,0.2,0.0,0.0,0.0,1.6,0.0,0.0,11.4,0.0,0.4,0.0,0.0,0.2,0.0,0.2,0.0,0.0,0.0,0.0,0.2,0.0,0.0,0.0,0.0,0.0,14.2
Itaetê,,Itaetê,Itaetê,-12.991944,-40.960833,Chapada Diamantina,RPGA do Rio Paraguaçu,0.0,0.2,0.0,0.0,0.0,0.0,0.0,0.0,0.0,1.4,0.0,0.0,5.4,0.0,0.0,0.0,1.4,0.0,0.2,0.8,0.2,0.0,0.0,0.0,0.0,0.0,0.0,0.0,0.0,0.0,9.6
Lagoa Bonita,PG-PR-15,Iacú,Iacú (Lagoa Bonita) - PG-PR-15,-12.931506,-40.226468,Chapada Diamantina,RPGA do Rio Paraguaçu,1.25,2.0,2.5,1.75,1.25,8.25,3.75,0.0,0.0,6.5,0.0,10.0,7.75,8.75,13.0,0.0,3.0,13.75,2.75,1.0,0.25,0.5,0.0,0.0,1.5,0.0,0.0,0.0,0.0,0.0,89.5
Boa Vista Tupim,PG-PR-17,Boa Vista Tupim,Boa Vista Tupim - PG-PR-17,-12.65622,-40.589813,Chapada Diamantina,RPGA do Rio Paraguaçu,0.0,0.0,0.0,2.25,0.25,0.0,0.0,0.0,0.0,0.0,0.0,0.0,3.5,0.25,0.0,0.0,0.0,0.75,0.0,0.25,0.0,0.0,0.0,0.0,0.0,0.0,0.0,0.0,0.0,0.0,7.25
Ruy Barbosa,PG-PR-18,Ruy Barbosa,Ruy Barbosa - PG-PR-18,-12.285653,-40.513698,Chapada Diamantina,RPGA do Rio Paraguaçu,0.0,0.0,0.0,2.0,0.0,0.0,0.0,0.0,0.0,0.0,0.0,0.0,1.5,1.5,0.75,0.0,0.25,0.5,1.75,0.0,0.0,0.0,0.0,0.0,0.0,0.0,0.0,0.0,0.0,0.0,8.25
Wagner,PG-PR-22,Wagner,Wagner - PG-PR-22,-12.289538,-41.161774,Chapada Diamantina,RPGA do Rio Paraguaçu,0.0,0.0,0.0,0.25,0.25,0.0,0.0,0.0,0.0,0.0,0.0,0.75,0.5,0.0,0.5,0.0,0.0,1.0,0.0,0.0,0.0,0.0,0.0,0.0,0.0,0.0,0.0,0.0,0.0,0.0,3.25
Guiné,PG-PR-24,Mucugê,Mucugê (Guiné) - PG-PR-24,-12.771772,-41.540679,Chapada Diamantina,RPGA do Rio Paraguaçu,0.0,0.0,0.0,0.0,0.0,0.0,0.0,0.0,0.0,0.0,0.0,0.0,2.5,0.0,0.0,0.25,0.0,0.0,0.0,0.0,0.0,0.0,0.0,0.0,0.0,0.0,0.0,0.0,0.0,0.0,2.75
Olho D'Água do Francisco,,Olho D'Água do Francisco,Olho D'Água do Francisco,-12.307034,-42.079028,Chapada Diamantina,RPGA dos Rios Verde e Jacaré,0.0,0.0,0.0,0.0,0.0,0.0,0.0,0.0,0.0,0.0,0.0,0.0,0.0,0.0,0.0,0.0,0.0,0.0,0.0,0.0,0.0,0.0,0.0,0.0,0.0,0.0,0.0,0.0,0.0,0.0,0.0
Ibiaporã,PG-CL-01,Mundo Novo,Mundo Novo (Ibiaporã) - PG-CL-01,-12.05379,-40.83722,Chapada Diamantina,RPGA do Rio Paraguaçu,1.0,0.0,1.5,1.75,1.0,0.0,0.0,0.0,0.0,0.0,0.0,3.0,4.5,2.5,3.25,0.0,0.0,3.25,0.5,3.25,0.0,0.0,0.0,0.0,0.25,0.0,0.0,0.0,0.0,0.25,26.0
Marcionílio Souza,PG-CL-03,Marcionílio Souza,Marcionílio Souza - PG-CL-03,-13.00021,-40.537783,Chapada Diamantina,RPGA do Rio Paraguaçu,0.25,0.25,0.0,0.0,0.5,0.0,0.0,0.0,0.0,0.0,0.0,0.0,5.25,0.0,0.0,0.0,0.25,0.0,0.25,0.0,1.25,0.25,0.0,0.0,0.0,0.0,0.0,0.0,0.0,0.0,8.25
Seabra,PG-PR-01,Seabra,Seabra - PG-PR-01,-12.428149,-41.770409,Chapada Diamantina,RPGA do Rio Paraguaçu,0.0,0.0,0.0,0.0,0.0,0.0,0.0,0.0,0.0,0.0,0.0,0.0,3.5,0.0,0.0,0.0,0.0,0.0,0.0,0.0,0.0,0.0,0.0,0.0,0.0,0.0,0.0,0.0,0.0,0.0,3.5
Iraquara,PG-PR-02,Iraquara,Iraquara - PG-PR-02,-12.255093,-41.61679,Chapada Diamantina,RPGA do Rio Paraguaçu,0.0,0.0,0.0,0.0,0.0,0.0,0.0,0.0,0.0,1.0,0.0,0.5,1.5,0.0,0.0,0.0,0.0,0.25,0.5,0.0,0.0,0.0,0.0,0.0,0.0,0.0,0.0,0.0,0.0,0.0,3.75
Baixa Grande,PG-PR-08,Baixa Grande,Baixa Grande - PG-PR-08,-11.908701,-40.183683,Chapada Diamantina,RPGA do Rio Paraguaçu,0.0,0.25,0.0,0.0,0.0,0.0,0.0,2.0,0.0,1.0,0.0,0.0,0.0,0.0,0.0,0.0,0.25,0.0,0.0,0.0,0.0,0.0,0.0,0.0,0.75,0.75,0.0,0.0,2.0,0.0,7.0
Tapiramutá,PG-PR-09,Tapiramutá,Tapiramutá - PG-PR-09,-11.838502,-40.791761,Chapada Diamantina,RPGA do Rio Paraguaçu,0.0,0.25,1.5,2.0,0.25,0.25,0.0,0.0,0.0,0.0,0.0,0.0,2.75,1.0,1.75,0.0,0.75,3.5,1.5,1.75,0.0,0.0,0.0,0.0,0.0,0.0,0.0,0.0,0.0,0.0,17.25
Ventura,PG-PR-10,Morro do Chapéu,Morro do Chapéu (Ventura) - PG-PR-10,-11.650911,-40.951765,Chapada Diamantina,RPGA do Rio Paraguaçu,0.0,0.0,0.0,0.25,0.0,0.0,0.0,0.0,0.0,0.0,0.0,0.0,0.0,1.0,0.25,0.0,0.0,1.5,0.5,0.5,0.0,0.0,0.0,0.0,0.0,0.0,0.0,0.0,0.0,0.0,4.0
Bonito,PG-PR-11,Bonito,Bonito - PG-PR-11,-11.98993,-41.25429,Chapada Diamantina,RPGA do Rio Paraguaçu,0.0,0.5,0.25,5.25,2.25,0.75,0.0,0.0,0.0,0.0,0.0,1.0,3.0,2.0,4.5,0.0,1.0,6.25,1.0,2.25,0.0,0.0,0.0,0.0,0.0,0.0,0.0,0.0,0.0,0.0,30.0
Piatã,CO-CL-04,Piatã,Piatã - CO-CL-04,-13.164166,-41.770833,Chapada Diamantina,RPGA do Rio de Contas,0.0,0.5,0.0,0.0,0.0,0.0,0.0,0.0,0.0,0.0,0.0,0.0,19.0,0.0,0.0,0.25,0.75,0.25,0.25,0.0,0.75,0.0,0.0,0.0,0.0,0.0,0.0,0.0,0.0,0.0,21.75
PC Ponte Rio Capivari,51326200,Itaberaba,Itaberaba (PC Ponte Rio Capivari) - 51326200,-12.51429,-39.93422,Chapada Diamantina,RPGA do Rio Paraguaçu,0.8,0.0,2.8,9.3,0.0,6.2,0.6,0.0,0.0,0.0,0.0,7.3,1.1,5.0,2.1,0.0,1.1,0.0,3.9,0.0,0.0,0.0,0.0,0.0,0.0,0.0,0.0,0.0,0.0,0.0,40.21
Palmeiras,EBDA,Palmeiras,Palmeiras - EBDA,-12.46799,-41.617801,Chapada Diamantina,RPGA do Rio Paraguaçu,0.0,0.0,0.0,0.0,0.0,0.0,0.0,0.0,0.0,0.0,0.0,0.0,0.0,0.0,7.5,0.0,0.0,0.0,0.0,0.0,0.0,0.0,0.0,0.0,0.0,0.0,0.0,0.0,0.0,0.0,7.5
Curaçá,A448,Curaçá,Curaçá - A448,-9.0013,-39.9124,Nordeste,RPGA dos Rios Macururé e Curaçá,0.0,0.0,0.0,0.0,0.0,2.0,0.0,0.0,0.0,0.0,0.0,0.0,0.0,0.0,10.4,0.0,0.0,0.0,0.0,0.0,0.0,0.0,0.0,0.0,0.0,0.0,0.0,0.0,0.0,0.0,12.4
Paulo Afonso,A411,Paulo Afonso,Paulo Afonso - A411,-9.379325,-38.227424,Nordeste,RPGA dos Rios Macururé e Curaçá,0.0,0.0,0.0,0.0,0.0,1.0,0.0,0.0,0.0,0.0,0.0,0.0,0.0,0.4,0.2,0.0,0.0,5.6,0.2,0.0,0.0,0.0,0.0,0.0,0.0,0.0,0.0,0.0,0.0,0.0,7.4
Cipó,83192,Cipó,Cipó - 83192,-11.083333,-38.516667,Nordeste,RPGA do Rio Itapicuru,0.0,0.0,0.0,0.0,0.0,0.0,1.3,0.0,0.0,0.0,0.0,0.0,0.0,2.4,7.9,0.8,0.0,9.8,1.2,0.0,0.0,0.0,0.0,0.0,0.0,0.0,0.0,0.0,0.0,0.0,23.41
Jacobina,83186,Jacobina,Jacobina - 83186,-11.172778,-40.534167,Nordeste,RPGA do Rio Itapicuru,0.0,0.0,0.0,0.0,0.0,0.8,0.0,0.0,0.0,2.1,0.0,0.4,0.0,3.9,4.7,0.0,0.0,7.7,0.0,0.0,0.0,0.0,0.0,0.0,0.0,0.0,0.0,0.0,0.0,0.0,19.6
Monte Santo,83090,Monte Santo,Monte Santo - 83090,-10.4425,-39.331111,Nordeste,RPGA do Rio Itapicuru,0.0,0.0,0.0,0.0,0.0,0.0,0.0,0.0,0.0,0.0,0.0,0.0,0.0,3.1,4.8,0.0,0.0,0.3,0.7,0.0,0.0,0.0,0.0,0.0,0.0,0.0,0.0,0.0,0.0,0.0,8.9
Serrinha,83190,Serrinha,Serrinha - 83190,-11.633333,-38.966667,Nordeste,RPGA do Recôncavo Norte,0.0,0.0,0.0,0.0,0.0,0.0,0.1,0.0,0.0,5.2,0.0,0.0,0.0,18.4,0.4,0.0,0.0,6.0,2.6,0.0,0.0,0.0,0.0,0.0,0.0,0.0,0.0,0.0,0.1,0.0,32.8
Conde,A431,Conde,Conde - A431,-12.03622,-37.68322,Nordeste,RPGA do Rio Itapicuru,1.6,0.2,0.0,0.0,0.2,0.2,9.4,0.2,0.0,0.0,2.4,0.2,0.0,37.8,4.4,1.0,0.0,14.8,0.0,0.0,0.0,0.0,0.0,0.0,0.0,0.0,0.0,0.0,0.6,0.0,73.0
Uauá,A435,Uauá,Uauá - A435,-9.833617,-39.495631,Nordeste,RPGA do Rio Vaza-Barris,0.0,0.0,0.0,0.0,0.0,0.6,0.0,0.0,0.0,0.0,0.0,0.0,0.0,0.2,1.2,0.0,0.0,0.0,0.0,0.0,0.0,0.0,0.0,0.0,0.0,0.0,0.0,0.0,0.0,0.0,2.0
Euclides da Cunha,A442,Euclides da Cunha,Euclides da Cunha - A442,-10.537233,-38.996605,Nordeste,RPGA do Rio Itapicuru,0.0,0.0,0.0,0.0,0.0,0.0,0.0,0.0,0.0,0.0,0.0,0.0,0.4,0.0,0.0,0.0,0.0,0.0,0.0,0.0,0.0,0.0,0.0,0.0,0.0,0.0,0.0,0.0,0.0,0.0,0.4
Queimadas,A436,Queimadas,Queimadas - A436,-10.984645,-39.617009,Nordeste,RPGA do Rio Itapicuru,0.0,0.0,0.0,0.0,0.0,0.0,0.0,0.0,0.0,0.0,0.0,1.0,0.0,19.0,2.0,0.2,0.0,2.0,1.0,1.0,0.0,0.0,0.0,0.0,0.0,0.0,0.0,0.0,0.0,0.0,26.2
Jacobina,A440,Jacobina,Jacobina - A440,-11.205136,-40.464979,Nordeste,RPGA do Rio Itapicuru,0.0,0.0,0.0,0.0,0.0,0.6,0.0,0.0,0.0,31.2,0.0,0.8,0.2,10.4,5.6,0.6,0.0,5.4,0.0,0.0,0.4,0.0,0.0,0.0,0.2,0.0,0.0,0.0,0.0,0.0,55.41
Serrinha,A441,Serrinha,Serrinha - A441,-11.664586,-39.022946,Nordeste,RPGA do Rio Paraguaçu,0.2,0.0,0.0,0.0,0.0,0.0,0.2,0.0,0.0,1.8,0.0,0.0,0.0,19.2,1.0,0.0,0.0,5.0,2.0,0.2,0.0,0.0,0.0,0.0,0.0,0.0,0.0,0.0,0.2,0.0,29.8
Senhor do Bonfim,A428,Senhor do Bonfim,Senhor do Bonfim - A428,-10.443072,-40.148244,Nordeste,RPGA do Rio Itapicuru,0.0,0.0,0.0,0.0,0.0,0.0,0.0,0.0,0.0,0.0,2.4,1.0,0.2,1.0,8.6,0.2,0.0,2.4,0.0,0.0,0.0,0.0,0.0,0.0,0.0,0.0,0.0,0.0,0.0,0.0,15.8
Pedras Altas,50430000,Capim Grosso,Capim Grosso (Pedras Altas) - 50430000,-11.18288,-40.04725,Nordeste,RPGA do Rio Itapicuru,0.0,0.0,0.0,0.0,0.0,0.0,0.2,0.0,0.0,0.0,0.0,0.0,0.0,18.6,4.8,0.0,0.0,0.8,0.0,0.0,0.0,0.0,0.0,0.0,0.0,0.0,0.0,0.0,0.0,0.0,24.41
Ponto Novo,50380000,Ponto Novo,Ponto Novo - 50380000,-10.845,-40.1128,Nordeste,RPGA do Rio Itapicuru,0.0,0.0,0.0,0.0,0.0,0.0,0.0,0.0,0.0,0.0,0.0,1.4,0.0,7.2,3.8,0.0,0.4,1.2,0.8,0.2,0.0,0.0,0.0,0.0,0.0,0.0,0.0,0.0,0.0,0.0,15.0
Ipirá,PG-CL-02,Ipirá,Ipirá - PG-CL-02,-12.14986,-39.76454,Nordeste,RPGA do Rio Paraguaçu,0.0,0.0,1.5,0.0,0.0,0.0,0.25,0.0,0.0,0.0,0.0,1.0,1.25,5.75,0.25,0.0,0.0,3.0,1.0,0.0,0.0,0.0,0.0,0.0,0.0,0.0,0.0,0.0,0.0,0.0,14.0
Serrinha,RN-CL-02,Serrinha,Serrinha - RN-CL-02,-11.648333,-38.982777,Nordeste,RPGA do Recôncavo Norte,0.5,0.25,1.75,2.25,1.5,0.25,0.5,0.25,1.0,0.75,0.25,0.25,1.5,7.0,1.5,1.0,3.25,3.5,0.75,1.25,0.25,0.0,1.75,0.5,0.5,0.75,0.0,0.0,0.0,0.0,33.0
Pé de Serra,PG-PR-06,Pé de Serra,Pé de Serra - PG-PR-06,-11.833423,-39.623663,Nordeste,RPGA do Rio Paraguaçu,0.0,0.0,0.0,0.0,1.0,0.0,0.0,0.0,0.0,0.0,0.0,0.0,0.0,16.0,0.25,0.0,0.0,2.75,0.0,0.5,0.0,0.0,0.0,0.0,0.0,0.0,0.0,0.0,0.0,0.25,20.75
Centro,293010501A,Senhor do Bonfim,Senhor do Bonfim (Centro) - 293010501A,-10.464,-40.19,Nordeste,RPGA do Rio Itapicuru,0.0,0.0,0.0,0.0,0.0,0.0,0.0,0.0,0.0,0.0,0.2,0.8,0.4,0.2,5.3,0.6,0.0,1.2,0.0,0.0,0.0,0.0,0.0,0.0,0.0,0.0,0.0,0.0,0.0,0.0,8.7
Itapeipu,IT-PR-34,Jacobina,Jacobina (Itapeipu) - IT-PR-34,-11.315629,-40.356742,Nordeste,RPGA do Rio Itapicuru,0.0,0.0,0.0,0.0,0.0,0.25,0.0,0.0,0.0,0.0,0.0,0.25,0.0,6.75,2.5,0.0,0.0,4.0,0.5,0.0,0.0,0.0,0.0,0.0,0.0,0.0,0.0,0.0,0.0,0.0,14.25
Tombador Araújo,IT-PR-36,Jacobina,Jacobina (Tombador Araújo) - IT-PR-36,-11.168677,-40.670642,Nordeste,RPGA do Rio Itapicuru,0.0,0.0,0.0,0.0,0.0,0.0,0.0,0.0,0.0,0.0,0.0,0.0,0.0,6.25,4.5,0.0,0.0,5.75,0.0,0.0,0.0,0.0,0.0,0.0,0.0,0.0,0.0,0.0,0.0,0.0,16.5
Conceição do Coité,IT-PR-14,Conceição do Coité,Conceição do Coité - IT-PR-14,-11.526752,-39.313095,Nordeste,RPGA do Rio Itapicuru,0.0,0.0,0.0,0.0,0.0,0.0,0.0,0.0,0.0,0.0,0.0,0.0,0.0,13.5,0.75,0.0,0.0,0.25,1.5,0.0,0.0,0.0,0.0,0.0,0.0,0.0,0.0,0.0,0.0,0.0,16.0
Riacho da Onça,IT-PR-15,Queimadas,Queimadas (Riacho da Onça) - IT-PR-15,-11.24424,-39.790055,Nordeste,RPGA do Rio Itapicuru,0.0,0.0,0.0,0.0,0.0,0.0,0.0,0.0,0.0,0.0,0.0,0.0,0.0,19.0,1.25,0.0,0.0,0.0,0.25,0.0,0.0,0.0,0.0,0.0,0.0,0.0,0.0,0.0,0.0,0.0,20.5
Santaluz,IT-PR-17,Santaluz,Santaluz - IT-PR-17,-11.24831,-39.37563,Nordeste,RPGA do Rio Itapicuru,0.0,0.0,0.0,0.0,0.0,0.0,0.25,0.0,0.0,0.0,0.0,0.0,0.0,15.75,1.5,0.0,0.0,1.0,0.25,0.25,0.0,0.0,0.0,0.0,0.0,0.0,0.0,0.0,0.0,0.0,19.0
Cansanção,IT-PR-20,Cansanção,Cansanção - IT-PR-20,-10.702836,-39.543932,Nordeste,RPGA do Rio Itapicuru,0.0,0.75,0.25,0.5,0.25,0.0,0.5,0.25,0.0,0.0,0.25,0.0,1.0,4.25,1.75,1.5,0.75,5.75,1.5,1.0,0.0,0.25,0.5,0.0,0.0,0.0,0.0,0.25,0.0,1.25,22.5
Açude Monteiro,IT-PR-23,Nordestina,Nordestina (Açude Monteiro) - IT-PR-23,-10.77645,-39.559491,Nordeste,RPGA do Rio Itapicuru,0.0,0.0,0.0,0.0,0.0,0.0,0.0,0.0,0.0,0.0,0.0,0.0,0.0,6.75,3.0,0.0,0.0,1.75,0.0,0.0,0.0,0.0,0.0,0.0,0.0,0.0,0.0,0.0,0.0,0.0,11.5
Pedra Vermelha,IT-PR-24,Monte Santo,Monte Santo (Pedra Vermelha) - IT-PR-24,-10.454497,-39.559488,Nordeste,RPGA do Rio Itapicuru,0.0,0.0,0.0,0.0,0.0,0.0,0.0,0.0,0.0,0.0,0.0,0.0,0.0,5.5,0.75,0.0,0.0,0.0,0.25,0.0,0.0,0.0,0.0,0.0,0.0,0.0,0.0,0.0,0.0,0.0,6.5
Quijingue,IT-PR-25,Quijingue,Quijingue - IT-PR-25,-10.783951,-39.20809,Nordeste,RPGA do Rio Itapicuru,0.25,0.25,0.0,0.0,0.0,0.0,0.0,0.0,0.0,0.0,0.0,0.0,2.5,5.25,0.25,0.0,0.0,2.5,0.25,0.0,0.0,0.0,0.0,0.0,0.0,0.0,0.0,0.0,0.0,0.0,11.25
Conde,IT-PR-31,Conde,Conde - IT-PR-31,-11.813434,-37.616927,Nordeste,RPGA do Rio Itapicuru,0.5,0.0,0.25,0.5,0.25,0.0,5.25,0.0,0.0,0.0,3.0,0.0,0.0,13.5,3.75,1.25,0.0,7.5,0.5,0.0,0.0,0.0,0.75,0.0,0.75,0.0,0.0,0.0,0.0,0.75,38.5
Curral Falso,IT-PR-01,Ribeira do Pombal,Ribeira do Pombal (Curral Falso) - IT-PR-01,-10.697843,-38.5714,Nordeste,RPGA do Rio Itapicuru,0.0,2.5,0.0,0.0,0.0,0.25,0.0,0.0,0.0,0.0,0.0,0.0,0.75,3.0,0.5,0.0,0.0,0.0,0.0,0.0,0.0,0.0,0.0,0.0,0.0,0.0,0.0,0.0,0.0,0.0,7.0
Aribicé,IT-PR-02,Euclides da Cunha,Euclides da Cunha (Aribicé) - IT-PR-02,-10.557835,-38.793352,Nordeste,RPGA do Rio Itapicuru,0.0,0.75,0.0,0.0,0.0,0.0,0.0,0.0,0.0,0.0,0.0,0.0,0.0,2.5,0.75,0.0,0.0,0.0,0.25,0.0,0.0,0.0,0.0,0.0,0.0,0.0,0.0,0.0,0.0,0.0,4.25
BR 116 E. Cunha / Tucano,IT-PR-05,Quijingue,Quijingue (BR 116 E. Cunha / Tucano) - IT-PR-05,-10.7105,-38.9227,Nordeste,RPGA do Rio Itapicuru,0.0,0.0,0.0,0.0,0.0,0.0,0.0,0.0,0.0,0.0,0.0,0.0,0.0,2.5,5.0,0.0,0.0,0.25,0.0,0.0,0.0,0.0,0.0,0.0,0.0,0.0,0.0,0.0,0.0,0.0,7.75
Crisópolis,IT-PR-08,Crisópolis,Crisópolis - IT-PR-08,-11.510923,-38.120832,Nordeste,RPGA do Rio Itapicuru,0.0,0.0,0.0,0.0,0.0,0.0,0.0,0.0,0.0,0.0,0.25,0.0,0.0,6.25,8.5,0.25,0.5,12.75,0.5,0.0,0.0,0.0,0.0,0.0,0.0,0.0,0.0,0.0,0.5,0.0,29.5
Fazenda Laranjeiras III,IT-PR-09,Araci,Araci (Fazenda Laranjeiras III) - IT-PR-09,-11.334248,-38.968638,Nordeste,RPGA do Rio Itapicuru,0.0,0.25,0.0,0.0,0.0,0.0,0.5,0.0,0.0,0.0,0.0,0.25,0.0,21.5,1.75,0.25,0.0,5.0,1.0,0.0,0.0,0.0,0.0,0.0,0.0,0.0,0.0,0.0,0.0,0.0,30.5
Olindina,IT-PR-11,Olindina,Olindina - IT-PR-11,-11.343693,-38.318892,Nordeste,RPGA do Rio Itapicuru,0.25,0.0,0.0,0.0,0.0,0.0,0.0,0.0,0.0,0.0,0.0,0.0,0.0,4.75,5.25,1.25,0.0,1.75,0.0,0.0,0.0,0.0,0.0,0.0,0.0,0.0,0.0,0.0,0.0,0.0,13.25
Itapicuru,IT-PR-12,Itapicuru,Itapicuru - IT-PR-12,-11.321193,-38.225003,Nordeste,RPGA do Rio Itapicuru,0.75,0.0,0.0,0.0,0.0,0.0,0.0,0.0,0.0,0.0,0.0,0.0,0.0,3.75,7.5,0.5,0.25,2.25,0.25,0.0,0.0,0.0,0.0,0.0,0.0,0.0,0.0,0.0,0.0,0.0,15.25
Boa Hora,IT-PR-13,Ribeira do Amparo,Ribeira do Amparo (Boa Hora) - IT-PR-13,-10.965,-38.5234,Nordeste,RPGA do Rio Itapicuru,0.0,0.0,0.0,0.0,0.0,0.0,0.0,0.0,0.0,0.0,0.0,0.0,2.75,10.5,0.25,0.25,0.0,7.75,1.25,0.0,0.0,0.0,0.0,0.0,0.0,0.0,0.0,0.0,0.0,0.0,22.75
Jeremoabo,A450,Jeremoabo,Jeremoabo - A450,-10.0807,-38.3459,Nordeste,RPGA do Rio Vaza-Barris,0.0,0.0,0.0,0.0,1.0,20.8,0.0,0.0,0.0,0.0,0.0,0.0,0.0,0.0,0.4,0.0,0.0,2.4,0.0,0.0,0.0,0.0,0.0,0.0,5.4,0.2,0.0,0.0,0.0,0.0,30.2
Malhada da Areia,291840702A,Juazeiro,Juazeiro (Malhada da Areia) - 291840702A,-9.44181,-40.51381,Norte,RPGA dos Rios Macururé e Curaçá,0.0,0.0,0.0,0.0,0.0,0.0,0.0,0.0,0.0,0.0,0.0,0.0,0.0,0.0,2.2,0.0,0.0,0.0,0.0,0.0,0.0,0.0,0.0,0.0,0.0,0.0,0.0,0.0,0.0,0.0,2.2
Maria Gorete,291840703A,Juazeiro,Juazeiro (Maria Gorete) - 291840703A,-9.42014,-40.49909,Norte,RPGA dos Rios Macururé e Curaçá,0.0,0.0,0.0,0.0,0.0,0.0,0.0,0.0,0.0,0.0,0.0,0.0,0.0,0.0,4.2,0.0,0.0,0.0,0.0,0.0,0.0,0.0,0.0,0.0,0.0,0.0,0.0,0.0,0.0,0.0,4.2
João Paulo II,291840704A,Juazeiro,Juazeiro (João Paulo II) - 291840704A,-9.47067,-40.49805,Norte,RPGA dos Rios Macururé e Curaçá,0.0,0.0,0.0,0.0,0.0,0.0,0.0,0.0,0.0,0.0,0.0,0.0,0.0,0.0,2.6,0.0,0.0,0.0,0.0,0.0,0.0,0.0,0.0,0.0,0.0,0.0,0.0,0.0,0.0,0.0,2.6
Lapão,291915701A,Lapão,Lapão - 291915701A,-11.38,-41.83,Norte,RPGA dos Rios Verde e Jacaré,0.0,0.0,0.0,0.0,0.0,0.0,0.0,0.0,0.0,0.0,0.0,0.0,0.0,0.0,0.0,0.0,0.0,0.0,0.0,0.0,0.0,0.0,0.0,0.0,0.0,0.0,0.0,0.0,0.0,0.0,0.0
Irecê,83182,Irecê,Irecê - 83182,-11.3,-41.866667,Norte,RPGA dos Rios Verde e Jacaré,0.0,0.0,0.0,0.0,0.0,0.0,0.0,0.0,0.0,1.2,0.0,0.0,0.0,0.0,0.0,0.0,0.0,0.0,0.0,0.0,0.0,0.0,0.0,0.0,0.0,0.0,0.0,0.0,0.0,0.0,1.2
Remanso,82979,Remanso,Remanso - 82979,-9.633333,-42.1,Norte,RPGA do Lago de Sobradinho,0.0,0.0,0.0,0.0,0.0,0.0,0.0,0.0,0.0,0.0,0.0,0.0,0.0,0.0,0.0,0.0,0.0,0.0,0.0,0.0,0.0,0.0,0.0,0.0,0.0,0.0,0.0,0.0,0.0,0.0,0.0
Delfino,A443,Umburanas,Umburanas (Delfino) - A443,-10.45492,-41.206996,Norte,RPGA do Rio Salitre,0.0,0.0,0.0,0.0,0.0,0.0,0.0,0.0,0.0,0.0,0.0,0.0,0.0,0.0,0.4,0.0,0.0,0.4,0.0,0.0,0.0,0.0,0.0,0.0,0.0,0.0,0.0,0.0,0.0,0.0,0.8
Remanso,A423,Remanso,Remanso - A423,-9.625693,-42.077214,Norte,RPGA do Lago de Sobradinho,0.0,0.0,0.0,0.0,0.0,0.0,0.0,0.0,0.0,0.0,0.0,0.0,0.0,0.0,0.0,0.0,0.0,0.0,0.0,0.0,0.0,0.0,0.0,0.0,0.0,0.0,0.0,0.0,0.0,0.0,0.0
Irecê,A424,Irecê,Irecê - A424,-11.328998,-41.864504,Norte,RPGA dos Rios Verde e Jacaré,0.0,0.0,0.0,0.0,0.0,0.0,0.0,0.0,0.0,0.4,0.2,0.0,0.0,0.0,0.0,0.0,0.0,0.0,0.0,0.0,0.0,0.0,0.0,0.0,0.0,0.0,0.0,0.0,0.0,0.0,0.61
Casa Nova,Faz. Santa Felicidade,Casa Nova,Casa Nova - Faz. Santa Felicidade,-9.333333,-40.8,Norte,RPGA do Lago de Sobradinho,0.0,0.0,0.0,0.0,0.0,0.0,0.0,0.0,0.0,0.0,0.0,0.0,0.0,0.0,2.8,0.0,0.0,0.0,0.0,0.0,0.0,0.0,0.0,0.0,0.0,0.0,0.0,0.0,0.0,0.0,2.8
Juazeiro,Fazenda Brasil Uvas,Juazeiro,Juazeiro - Fazenda Brasil Uvas,-9.316666,-40.183333,Norte,RPGA dos Rios Macururé e Curaçá,0.0,0.0,0.0,0.0,0.0,0.0,0.0,0.0,0.0,0.0,0.0,0.0,0.0,0.3,0.0,0.0,0.0,0.3,0.0,0.0,0.0,0.0,0.0,0.0,0.0,0.0,0.0,0.0,0.0,0.0,0.6
Jaguarari,Pilar,Jaguarari,Jaguarari - Pilar,-9.85,-39.933333,Norte,RPGA dos Rios Macururé e Curaçá,0.0,0.0,0.0,0.0,0.0,0.0,0.0,0.0,0.0,0.0,0.0,0.0,0.0,0.0,0.0,0.0,0.0,0.0,0.0,0.0,0.0,0.0,0.0,0.0,0.0,0.0,0.0,0.0,0.0,0.0,0.0
Juazeiro,Santa Helena,Juazeiro,Juazeiro - Santa Helena,-9.566666,-40.3,Norte,RPGA dos Rios Macururé e Curaçá,0.0,0.0,0.0,0.0,0.0,0.0,0.0,0.0,0.0,0.0,0.0,0.0,0.0,0.0,0.0,0.0,0.0,0.0,0.0,0.0,0.0,0.0,0.0,0.0,0.0,0.0,0.0,0.0,0.0,0.0,0.0
Juazeiro,Salitre,Juazeiro,Juazeiro - Salitre,-9.5,-40.633333,Norte,RPGA dos Rios Macururé e Curaçá,0.0,0.0,0.0,0.0,0.0,0.0,0.0,0.0,0.0,0.0,0.0,0.0,0.0,0.1,0.0,0.0,0.0,0.0,0.0,0.0,0.0,0.0,0.0,0.0,0.0,0.0,0.0,0.0,0.0,0.0,0.1
Irecê,VJ-CL-01,Irecê,Irecê - VJ-CL-01,-11.289166,-41.894166,Norte,RPGA dos Rios Verde e Jacaré,0.0,0.0,0.0,0.0,0.0,0.0,0.0,0.0,0.0,0.0,0.0,0.0,0.0,0.0,0.0,0.0,0.0,0.0,0.0,0.0,0.0,0.0,0.0,0.0,0.0,0.0,0.0,0.0,0.0,0.0,0.0
Santa Rosa,SM-PR-01,Jaguarari,Jaguarari (Santa Rosa) - SM-PR-01,-10.098374,-39.869774,Norte,RPGA dos Rios Macururé e Curaçá,0.0,0.0,0.0,0.0,0.0,0.0,0.0,0.0,0.0,0.0,0.0,0.0,0.0,0.0,3.0,0.0,0.0,0.0,0.0,0.0,0.0,0.0,0.0,0.0,0.0,0.0,0.0,0.0,0.0,0.0,3.0
Juazeiro,Mandacaru,Juazeiro,Juazeiro - Mandacaru,-9.4,-40.433333,Norte,RPGA dos Rios Macururé e Curaçá,0.0,0.0,0.0,0.0,0.0,0.0,0.0,0.0,0.0,0.0,0.0,0.0,0.0,2.8,0.0,0.0,0.0,0.0,0.0,0.0,0.0,0.0,0.0,0.0,0.0,0.0,0.0,0.0,0.0,0.0,2.8
Campo Formoso,IT-PR-27,Campo Formoso,Campo Formoso - IT-PR-27,-10.510327,-40.332849,Norte,RPGA do Rio Itapicuru,0.0,0.0,0.0,0.0,0.0,0.5,0.25,0.0,0.25,0.0,0.0,2.25,0.5,0.25,3.0,0.0,0.0,6.5,0.25,0.0,0.0,0.0,0.0,0.0,0.0,0.0,0.0,0.0,0.0,0.0,13.75
Mirangaba,IT-PR-29,Mirangaba,Mirangaba - IT-PR-29,-10.954784,-40.574527,Norte,RPGA do Rio Itapicuru,0.25,0.0,0.0,0.0,0.0,0.25,0.0,0.0,0.0,0.0,0.0,2.75,0.0,3.0,2.25,0.0,0.0,5.25,0.0,0.0,0.0,0.0,0.0,0.0,0.0,0.0,0.0,0.0,0.0,0.0,13.75
Olho D'Água,,Olho D'Água,Olho D'Água,-10.700331,-40.601468,Norte,RPGA do Rio Salitre,0.6,0.0,0.0,0.0,0.0,0.0,0.0,0.0,0.0,0.0,0.0,0.0,0.2,0.0,1.0,0.0,0.0,2.0,0.0,0.0,0.0,0.0,0.0,0.0,0.0,0.0,0.0,0.0,0.0,0.0,3.8
Correntina,A416,Correntina,Correntina - A416,-13.332386,-44.617376,Oeste,"RPGA do Rio Corrente e Riachos do Ramalho, Serra Dourada e Brejo Velho",0.0,0.0,0.0,0.0,0.0,0.0,0.0,0.0,0.0,0.0,0.0,0.0,0.0,0.0,0.0,0.0,0.0,0.0,0.0,0.0,0.0,0.0,0.0,0.0,0.0,0.0,0.0,0.0,0.0,0.0,0.0
Correntina,83286,Correntina,Correntina - 83286,-13.332222,-44.617222,Oeste,"RPGA do Rio Corrente e Riachos do Ramalho, Serra Dourada e Brejo Velho",0.0,0.0,0.0,0.0,0.0,0.0,0.0,0.0,0.0,0.0,0.0,0.0,0.0,0.0,0.0,0.0,0.0,0.0,0.0,0.0,0.0,0.0,0.0,0.0,0.0,0.0,0.0,0.0,0.0,0.0,0.0
Form. Rio Preto,46550000,Barreiras,Barreiras (Form. Rio Preto) - 46550000,-11.154444,-45.009166,Oeste,RPGA do Rio Grande,0.0,0.0,0.0,0.0,0.0,0.0,0.0,0.0,0.0,5.0,4.1,0.0,0.0,0.0,0.0,0.0,0.0,0.0,0.0,0.0,0.0,0.0,0.0,0.0,0.0,0.0,0.0,0.0,0.0,0.0,9.1
PCH Pres. Goulart-J,45600000,Correntina,Correntina (PCH Pres. Goulart-J) - 45600000,-13.3344,-44.6208,Oeste,"RPGA do Rio Corrente e Riachos do Ramalho, Serra Dourada e Brejo Velho",0.0,0.0,0.0,0.0,0.0,0.0,0.0,0.0,0.0,0.0,0.0,0.0,0.0,0.0,0.0,0.0,0.0,0.0,0.0,0.0,0.0,0.0,0.0,0.0,0.0,0.0,0.0,0.0,0.0,0.0,0.0
PCH Pres. Goulart-M1,45588000,Correntina,Correntina (PCH Pres. Goulart-M1) - 45588000,-13.3408,-44.6414,Oeste,"RPGA do Rio Corrente e Riachos do Ramalho, Serra Dourada e Brejo Velho",0.0,0.0,0.0,0.0,0.0,0.0,0.0,0.0,0.0,0.0,0.0,0.0,0.0,0.0,0.0,0.0,0.0,0.0,0.0,0.0,0.0,0.0,0.0,0.0,0.0,0.0,0.0,0.0,0.0,0.0,0.0
PCH Sítio Grande-J,46453500,São Desidério,São Desidério (PCH Sítio Grande-J) - 46453500,-12.4286,-45.1528,Oeste,RPGA do Rio Grande,0.0,0.0,0.0,0.0,0.0,0.0,0.0,0.0,0.0,0.0,0.0,2.6,0.0,0.0,0.0,0.0,0.0,0.0,0.0,0.0,0.0,0.0,0.0,0.0,0.0,0.0,0.0,0.0,0.0,0.0,2.6
Barreiras,A402,Barreiras,Barreiras - A402,-12.124715,-45.027049,Oeste,RPGA do Rio Grande,0.0,0.0,0.0,0.0,0.0,0.0,0.0,0.0,0.0,9.8,1.4,0.8,0.0,0.0,0.0,0.0,0.0,0.0,0.0,0.0,0.0,0.0,0.0,0.0,0.0,0.0,0.0,0.0,0.0,0.0,12.01
Luís Eduardo Magalhães,A404,Luís Eduardo Magalhães,Luís Eduardo Magalhães - A404,-12.152394,-45.829745,Oeste,RPGA do Rio Grande,0.0,0.0,0.0,0.0,0.0,0.0,0.0,0.0,0.0,0.0,0.0,0.0,0.0,0.0,0.0,0.0,0.0,0.0,0.0,0.0,0.0,0.0,0.0,0.0,0.0,0.0,0.0,0.0,0.0,0.0,0.0
São Desidério,R. Velha - GR-CL-01,São Desidério,São Desidério - R. Velha - GR-CL-01,-12.898055,-46.157222,Oeste,RPGA do Rio Grande,0.0,0.0,0.0,0.0,0.0,0.0,0.0,0.0,0.0,0.0,103.25,0.0,0.0,0.0,0.0,0.0,0.0,0.0,0.0,0.0,0.0,0.0,0.0,0.0,0.0,0.0,0.0,0.25,0.0,5.75,109.25
Cruz das Almas,A406,Cruz das Almas,Cruz das Almas - A406,-12.675422,-39.08958,Recôncavo,RPGA do Rio Paraguaçu,0.8,1.6,1.8,3.2,3.0,5.2,1.4,0.2,0.0,0.0,0.0,11.6,4.6,4.8,13.6,0.2,0.0,5.2,8.0,0.4,0.0,0.2,0.0,0.8,0.2,0.0,0.2,0.0,0.0,0.0,67.01
Santo Amaro,292860406H,Santo Amaro,Santo Amaro - 292860406H,-12.5293,-38.7339,Recôncavo,RPGA do Recôncavo Norte,0.0,0.2,0.0,0.0,0.0,0.0,0.0,0.0,0.0,0.0,0.0,4.6,1.6,8.4,7.4,0.0,0.0,5.0,0.4,0.2,0.0,0.0,0.0,0.0,0.0,0.0,0.0,0.0,0.0,0.0,27.8
Salvador,Canabrava,Salvador,Salvador - Canabrava,-12.924122,-38.429942,Recôncavo,RPGA do Recôncavo Norte,1.3,0.3,0.4,0.3,1.7,6.7,1.9,0.0,0.0,0.0,1.0,11.3,2.1,16.5,8.6,0.7,0.7,5.2,8.6,0.9,0.0,0.9,0.2,4.8,2.7,0.0,0.0,0.0,0.0,0.7,77.51
Feira de Santana,A413,Feira de Santana,Feira de Santana - A413,-12.1962,-38.967384,Recôncavo,RPGA do Recôncavo Norte,0.0,0.0,0.0,0.0,0.0,0.2,0.0,0.0,0.0,0.0,0.0,0.0,0.2,17.6,6.4,0.4,0.0,4.0,0.0,0.0,0.0,0.0,0.0,0.0,0.0,0.0,0.0,0.0,0.0,0.0,28.8
Alagoinhas,83249,Alagoinhas,Alagoinhas - 83249,-12.148333,-38.425556,Recôncavo,RPGA do Recôncavo Norte,1.2,0.6,2.2,1.5,0.0,0.6,1.8,0.0,0.8,0.0,0.0,2.0,4.0,42.0,2.9,0.0,0.0,11.4,5.2,1.8,0.0,0.0,0.0,0.0,0.6,0.0,0.0,0.0,0.0,0.0,78.6
Feira de Santana,83221,Feira de Santana,Feira de Santana - 83221,-12.196111,-38.967222,Recôncavo,RPGA do Recôncavo Norte,0.0,0.0,0.0,0.0,0.0,0.0,0.0,0.0,0.0,0.0,0.0,0.0,0.0,12.0,6.6,0.0,0.0,4.8,0.0,0.0,0.0,0.0,0.0,0.0,0.0,0.0,0.0,0.0,0.0,0.0,23.41
Amargosa,A434,Amargosa,Amargosa - A434,-13.009468,-39.616881,Recôncavo,RPGA do Recôncavo Sul,3.4,6.2,8.0,5.0,2.0,1.8,0.0,0.0,0.0,0.0,0.0,4.8,6.2,1.8,2.8,0.8,2.2,2.0,5.4,4.2,0.6,2.8,0.2,2.6,2.8,0.0,0.0,0.0,0.0,0.0,65.61
Valença,A444,Valença,Valença - A444,-13.34361,-39.12667,Recôncavo,RPGA do Recôncavo Sul,0.0,9.4,6.0,16.2,3.2,8.2,0.2,0.0,0.0,1.0,0.2,6.4,5.0,2.6,5.0,0.2,6.0,8.0,15.8,0.8,3.0,0.2,0.0,10.8,2.2,0.8,0.0,0.0,1.4,0.4,113.01
Mata de São João,ETA - Embasa,Mata de São João,Mata de São João - ETA - Embasa,-12.394946,-37.934649,Recôncavo,RPGA do Recôncavo Norte,1.8,0.0,0.0,1.4,0.0,0.0,1.8,0.0,0.0,0.0,1.3,18.5,0.0,11.0,62.7,0.2,0.8,26.3,11.6,0.0,0.0,0.0,0.0,0.0,0.0,0.0,0.0,0.0,0.0,0.0,137.4
Candeias,EMBASA,Candeias,Candeias - EMBASA,-12.663561,-38.533,Recôncavo,RPGA do Recôncavo Norte,0.0,0.5,0.0,0.0,1.7,0.7,0.3,0.0,0.0,0.0,0.0,8.7,1.3,15.9,6.4,0.0,0.0,4.1,0.0,0.0,0.0,0.0,0.0,0.0,0.0,0.0,0.0,0.0,0.0,0.0,39.6
Dias D´Ávila,EMBASA,Dias D´Ávila,Dias D´Ávila - EMBASA,-12.620505,-38.315217,Recôncavo,RPGA do Recôncavo Norte,0.0,0.0,0.3,0.0,3.0,7.9,0.2,0.0,0.0,0.0,0.0,2.2,1.3,14.0,2.3,0.0,0.0,6.6,10.9,0.0,0.0,0.0,0.0,0.0,0.7,0.0,0.0,0.0,0.0,0.5,49.9
São Sebastião do Passé-EMBASA,,São Sebastião do Passé-EMBASA,São Sebastião do Passé-EMBASA,-12.517449,-38.492165,Recôncavo,RPGA do Recôncavo Norte,1.0,0.0,0.0,0.0,0.0,0.0,7.3,0.0,0.0,0.0,0.0,0.0,2.5,15.9,6.4,0.0,0.0,5.3,7.4,0.0,0.0,0.0,0.0,0.0,0.0,0.0,0.0,0.0,0.0,0.0,45.8
Joanes II,322,Simões Filho,Simões Filho (Joanes II) - 322,-12.674147,-38.376254,Recôncavo,RPGA do Recôncavo Norte,1.1,0.0,0.0,0.0,3.2,3.3,0.2,0.0,0.0,0.0,0.0,7.2,3.4,8.1,3.0,0.0,0.0,4.1,5.8,0.0,0.0,0.0,0.0,0.0,0.0,0.0,0.0,0.0,0.0,0.0,39.4
Santa Helena,323,Camaçari,Camaçari (Santa Helena) - 323,-12.56202,-38.1606,Recôncavo,RPGA do Recôncavo Norte,4.1,0.0,0.0,0.0,0.0,2.1,0.5,0.0,0.0,0.0,0.0,0.0,0.3,28.4,8.6,1.0,0.0,6.8,6.9,0.0,0.0,0.0,0.0,0.0,0.0,0.0,0.0,0.0,0.0,2.8,61.5
Ondina,83229,Salvador,Salvador (Ondina) - 83229,-13.005278,-38.505833,Recôncavo,RPGA do Recôncavo Norte,0.6,0.3,0.0,0.0,2.0,3.6,1.5,0.0,0.0,0.0,0.0,13.3,0.4,12.6,2.3,0.0,0.0,17.6,5.2,0.0,0.0,0.8,1.0,6.8,0.7,0.0,0.0,0.0,0.0,0.0,68.7
Feira de Santana,PG-PR-13,Feira de Santana,Feira de Santana - PG-PR-13,-12.268161,-38.96642,Recôncavo,RPGA do Rio Paraguaçu,1.0,0.0,0.0,0.0,0.0,0.0,0.25,0.0,0.0,0.0,0.0,0.5,0.25,12.25,5.0,0.0,0.0,11.75,0.5,0.0,0.0,0.0,0.0,0.0,0.0,0.0,0.0,0.0,0.0,0.0,31.5
Itatim,PG-PR-14,Itatim,Itatim - PG-PR-14,-12.720391,-39.700059,Recôncavo,RPGA do Rio Paraguaçu,0.25,0.25,0.75,0.0,0.0,0.0,0.0,0.0,0.0,0.0,0.0,5.5,1.25,0.25,4.0,0.0,0.5,0.75,7.5,1.25,0.25,0.0,0.0,0.0,1.25,0.0,0.0,0.0,0.0,0.0,23.75
Centro,292740802A,Salvador,Salvador (Centro) - 292740802A,-12.97821,-38.515945,Recôncavo,RPGA do Recôncavo Norte,0.0,0.0,0.2,1.2,8.7,7.1,5.9,0.0,0.0,0.0,0.2,21.9,1.4,11.8,0.6,0.0,0.0,23.1,4.3,0.2,0.0,2.9,0.0,13.0,0.6,0.0,0.0,0.0,0.0,0.0,103.11
São tomé de Paripe,292740806A,Salvador,Salvador (São tomé de Paripe) - 292740806A,-12.795508,-38.489389,Recôncavo,RPGA do Recôncavo Norte,0.2,0.2,0.0,0.0,0.0,3.2,1.0,0.2,0.0,0.0,0.0,3.0,0.2,7.3,6.7,0.0,0.0,7.3,2.4,0.0,0.0,0.0,0.0,2.8,3.1,0.0,0.0,0.0,0.0,1.6,39.2
Federação,292740803A,Salvador,Salvador (Federação) - 292740803A,-13.000791,-38.511056,Recôncavo,RPGA do Recôncavo Norte,0.2,0.2,0.0,0.0,3.8,3.4,6.1,0.0,0.0,0.0,0.2,16.1,0.2,12.2,1.4,0.0,0.0,17.9,4.5,0.0,0.0,0.2,1.2,6.1,0.8,0.0,0.0,0.0,0.0,0.0,74.5
Nova Esperança,292740818A,Salvador,Salvador (Nova Esperança) - 292740818A,-12.861,-38.368,Recôncavo,RPGA do Recôncavo Norte,3.8,1.0,0.2,0.8,0.0,3.5,0.0,0.0,0.0,0.0,0.0,5.9,2.0,15.9,11.5,0.0,1.0,9.9,12.5,1.0,0.0,0.4,0.0,4.5,0.6,0.0,0.0,0.0,0.0,0.6,75.1
Águas Claras,292740808A,Salvador,Salvador (Águas Claras) - 292740808A,-12.8944,-38.441889,Recôncavo,RPGA do Recôncavo Norte,0.0,0.0,0.0,2.2,1.4,4.4,5.2,3.4,0.6,0.0,0.6,12.0,7.6,15.4,4.9,2.6,0.0,28.9,3.4,0.2,0.0,0.0,0.0,4.7,4.3,0.0,0.0,0.0,0.0,4.7,106.5
Alto do Peru,292740812A,Salvador,Salvador (Alto do Peru) - 292740812A,-12.939122,-38.486334,Recôncavo,RPGA do Recôncavo Norte,0.0,0.0,0.6,0.0,2.0,8.1,4.2,0.0,0.0,0.0,2.2,15.3,2.6,17.0,9.4,0.4,0.6,3.2,4.2,1.2,0.0,0.6,0.2,5.5,4.5,0.0,0.0,0.0,0.0,0.0,81.8
CAB,292740811A,Salvador,Salvador (CAB) - 292740811A,-12.943354,-38.421264,Recôncavo,RPGA do Recôncavo Norte,0.0,0.0,0.0,0.0,4.5,14.2,0.0,0.0,0.0,0.0,0.0,2.2,2.2,16.9,4.9,0.2,0.6,4.1,6.3,0.0,0.0,0.4,0.8,3.3,4.3,0.0,0.0,0.0,0.0,0.0,64.9
Cosme de Farias,292740816A,Salvador,Salvador (Cosme de Farias) - 292740816A,-12.979402,-38.4855,Recôncavo,RPGA do Recôncavo Norte,0.0,0.0,0.0,0.6,8.3,5.5,9.3,0.0,0.0,0.0,0.0,27.2,0.6,12.2,2.0,0.0,1.8,20.7,11.6,0.0,0.0,1.8,0.0,10.2,1.8,0.0,0.0,0.0,0.0,0.0,113.6
Pirajá,292740801A,Salvador,Salvador (Pirajá) - 292740801A,-12.8994,-38.458833,Recôncavo,RPGA do Recôncavo Norte,0.0,0.0,0.0,0.0,8.3,1.0,16.7,0.0,0.0,0.0,0.0,24.2,8.1,15.4,4.9,0.6,0.0,22.8,6.5,0.0,0.0,0.0,0.0,3.7,8.3,0.0,0.0,0.0,0.0,2.6,123.1
Rio Sena,292740805A,Salvador,Salvador (Rio Sena) - 292740805A,-12.891344,-38.470778,Recôncavo,RPGA do Recôncavo Norte,0.4,0.0,0.0,1.0,5.4,2.2,10.7,2.8,0.0,0.0,0.0,13.2,7.0,14.8,6.1,0.2,0.2,29.9,3.4,0.2,0.0,0.0,0.0,3.8,8.9,0.0,0.0,0.0,0.0,2.4,112.61
Centro,290650101A,Candeias,Candeias (Centro) - 290650101A,-12.670229,-38.544112,Recôncavo,RPGA do Recôncavo Norte,1.8,0.6,0.0,1.8,2.8,0.0,3.8,0.0,0.0,0.0,0.0,8.7,2.8,3.2,5.4,2.2,0.0,8.9,1.8,2.4,0.0,0.0,0.0,0.0,2.0,0.0,0.0,0.0,0.0,0.0,48.2
Malemba,290650102A,Candeias,Candeias (Malemba) - 290650102A,-12.678285,-38.544112,Recôncavo,RPGA do Recôncavo Norte,0.0,0.0,0.0,0.0,2.0,0.0,1.8,0.0,0.0,0.0,0.0,9.6,2.8,5.1,6.1,0.0,0.0,9.0,4.3,0.0,0.0,0.0,0.0,0.0,3.4,0.0,0.0,0.0,0.0,0.0,44.1
Salvador,Itapuã - RN-CL-01,Salvador,Salvador - Itapuã - RN-CL-01,-12.931388,-38.361111,Recôncavo,RPGA do Recôncavo Norte,0.0,0.0,0.3,0.0,3.0,8.5,1.5,0.0,0.0,0.0,0.7,12.6,1.7,16.7,4.8,1.6,0.4,2.4,9.2,0.4,0.0,1.7,0.3,4.3,2.9,0.0,0.0,0.0,0.0,0.4,73.4
Santo Antônio,290650103A,Candeias,Candeias (Santo Antônio) - 290650103A,-12.678285,-38.536056,Recôncavo,RPGA do Recôncavo Norte,0.4,0.2,0.0,0.0,2.6,0.0,2.4,0.6,0.0,0.0,0.0,7.4,4.8,3.4,9.4,0.0,0.0,10.4,4.2,0.8,0.0,0.0,0.0,0.0,3.4,0.2,0.0,0.0,0.0,0.0,50.2
Areia Branca,291920706A,Lauro de Freitas,Lauro de Freitas (Areia Branca) - 291920706A,-12.841,-38.337,Recôncavo,RPGA do Recôncavo Norte,0.2,0.4,0.4,3.1,0.0,1.0,0.0,0.0,0.0,0.0,0.0,6.5,0.6,13.4,14.0,0.0,0.2,3.0,8.5,0.0,0.0,0.2,0.6,3.4,0.0,0.0,0.0,0.0,0.0,1.6,57.11
Itinga,291920703A,Lauro de Freitas,Lauro de Freitas (Itinga) - 291920703A,-12.892,-38.336,Recôncavo,RPGA do Recôncavo Norte,2.4,0.4,0.0,3.4,1.0,1.0,0.0,0.0,0.0,0.0,0.0,6.9,0.2,18.9,6.5,0.0,0.0,19.3,7.3,0.0,0.0,0.0,0.2,7.7,0.6,0.0,0.0,0.0,0.0,0.2,76.0
Vila Praiana,291920702A,Lauro de Freitas,Lauro de Freitas (Vila Praiana) - 291920702A,-12.901,-38.308,Recôncavo,RPGA do Recôncavo Norte,0.2,0.8,0.0,2.6,0.0,0.0,0.0,0.0,0.0,0.0,0.0,10.9,0.4,14.8,5.5,0.0,0.0,16.4,9.6,0.0,0.0,0.0,0.0,6.3,0.0,0.0,0.0,0.0,0.0,0.0,67.5
Rua 02 de Julho,291920705A,Lauro de Freitas,Lauro de Freitas (Rua 02 de Julho) - 291920705A,-12.839,-38.35,Recôncavo,RPGA do Recôncavo Norte,2.2,0.6,0.4,3.7,0.0,1.0,0.0,0.0,0.0,0.0,0.0,5.9,0.4,10.7,11.0,0.2,2.8,3.0,7.9,0.0,0.0,0.2,0.0,2.6,0.2,0.0,0.0,0.0,0.0,0.0,52.81
Dois de Julho,291120401A,Gandú,Gandú (Dois de Julho) - 291120401A,-13.741357,-39.48303,Recôncavo,RPGA do Recôncavo Sul,0.0,3.2,2.2,0.4,0.8,0.8,0.0,0.0,0.0,0.0,0.0,6.8,13.8,1.8,8.5,3.4,9.7,3.6,6.3,1.2,1.6,1.0,0.2,4.3,1.4,0.2,0.0,0.0,0.0,0.0,71.2
Rua São Roque,293290301A,Valença,Valença (Rua São Roque) - 293290301A,-13.363,-39.078,Recôncavo,RPGA do Recôncavo Sul,0.8,2.6,4.6,20.4,6.2,19.6,0.2,0.0,0.0,0.6,0.2,7.5,5.0,2.4,5.1,0.4,3.6,7.4,14.4,0.4,9.1,0.2,0.0,13.8,1.0,0.0,0.0,0.0,0.0,1.2,126.71
PC Fazenda Jurema,51346050,Rafael Jambeiro,Rafael Jambeiro (PC Fazenda Jurema) - 51346050,-12.4881,-39.6981,Recôncavo,RPGA do Rio Paraguaçu,0.3,5.0,1.1,0.0,0.0,2.5,0.0,0.0,0.0,0.0,0.8,3.3,1.4,2.7,4.2,0.0,0.0,0.0,3.1,0.8,0.0,0.0,0.0,0.0,0.0,0.0,0.0,0.0,0.0,0.0,25.21
PC Argoim,51351000,Rafael Jambeiro,Rafael Jambeiro (PC Argoim) - 51351000,-12.5867,-39.5217,Recôncavo,RPGA do Rio Paraguaçu,0.0,1.1,3.6,0.0,0.9,1.1,0.0,0.0,0.0,0.0,0.0,3.2,0.8,4.6,3.6,0.0,0.0,0.9,2.4,0.0,0.0,0.0,0.0,0.0,0.0,0.0,0.0,0.0,0.0,0.0,22.2
PC Rio Paratigi,51370000,Santo Estevão,Santo Estevão (PC Rio Paratigi) - 51370000,-12.51503,-39.38272,Recôncavo,RPGA do Rio Paraguaçu,0.5,0.5,0.0,1.1,0.9,3.8,0.0,0.0,0.0,0.0,0.0,3.4,0.6,10.4,6.5,0.3,0.0,1.3,2.0,0.0,0.0,0.0,0.0,0.0,0.0,0.0,4.3,0.0,0.0,0.0,35.6
Feira de Santana,PC Rio Branco,Feira de Santana,Feira de Santana - PC Rio Branco,-12.2331,-39.0461,Recôncavo,RPGA do Rio Paraguaçu,0.8,0.0,0.0,0.0,0.0,0.5,0.0,0.0,0.0,0.0,0.0,1.1,0.0,13.0,0.9,0.0,0.0,5.8,0.3,0.0,0.0,0.0,0.0,0.0,0.0,0.0,2.5,0.0,0.0,0.0,24.91
Abaeté,RN-PR-01,Salvador,Salvador (Abaeté) - RN-PR-01,-12.945407,-38.361404,Recôncavo,RPGA do Recôncavo Norte,0.0,0.0,0.2,0.0,2.4,3.2,0.2,0.0,0.0,0.0,0.0,9.8,0.4,16.2,0.2,4.3,0.0,0.0,17.2,0.0,0.0,4.0,0.0,4.1,0.0,0.0,0.0,0.0,0.0,2.1,64.3
Espinheira,,Espinheira,Espinheira,-14.283478,-41.75792,Sudoeste,RPGA do Rio de Contas,0.0,0.0,0.0,0.0,0.0,0.0,0.0,0.0,0.0,0.0,0.0,0.0,0.0,0.0,0.0,0.0,0.0,0.0,0.0,0.0,0.0,0.0,0.0,0.0,0.0,0.0,0.0,0.0,0.0,0.0,0.0
Cândido Sales,53620000,Cândido Sales,Cândido Sales - 53620000,-15.512891,-41.236629,Sudoeste,RPGA do Rio Pardo,0.0,0.0,0.0,0.0,0.0,0.0,0.0,0.0,0.0,0.0,0.0,0.0,0.6,0.0,0.0,0.0,0.0,0.0,0.0,1.4,2.0,0.0,0.0,0.0,0.0,0.0,0.0,0.0,0.0,0.0,4.0
Itiruçu,A407,Itiruçu,Itiruçu - A407,-13.52629,-40.12055,Sudoeste,RPGA do Recôncavo Sul,0.2,0.0,0.2,0.0,0.0,0.2,0.0,0.0,0.0,0.0,0.0,0.4,10.0,0.6,1.8,0.6,2.0,0.0,2.2,2.8,3.0,1.6,0.0,1.0,2.0,0.2,0.0,0.0,0.2,0.0,29.0
Vitória da Conquista,A414,Vitória da Conquista,Vitória da Conquista - A414,-14.886428,-40.80133,Sudoeste,RPGA do Rio Pardo,0.0,0.2,0.2,0.0,0.0,0.0,0.0,0.0,0.0,0.0,0.0,0.0,2.4,0.0,0.0,0.2,0.0,1.6,0.4,1.8,0.6,0.4,0.0,0.2,0.2,0.2,0.0,0.0,0.0,0.0,8.4
Ituaçu,83292,Ituaçu,Ituaçu - 83292,-13.812778,-41.3,Sudoeste,RPGA do Rio de Contas,0.0,0.0,0.0,0.0,0.0,0.0,0.0,0.0,0.0,0.0,0.0,0.0,2.1,0.0,0.0,0.0,0.0,0.0,0.0,0.0,0.0,0.0,0.0,0.0,0.0,0.0,0.0,0.0,0.0,0.0,2.1
Vitória da Conquista,83344,Vitória da Conquista,Vitória da Conquista - 83344,-14.883333,-40.8,Sudoeste,RPGA do Rio Pardo,0.0,0.0,0.3,0.0,0.0,0.0,0.0,0.0,0.0,0.0,0.0,0.0,2.7,0.0,0.0,0.0,0.1,1.6,0.0,2.0,0.6,0.2,0.0,0.3,0.0,0.0,0.0,0.0,0.0,0.0,7.8
Brumado,A433,Brumado,Brumado - A433,-14.181886,-41.672281,Sudoeste,RPGA do Rio de Contas,0.0,0.0,0.2,0.0,0.0,0.0,0.0,0.0,0.0,0.0,0.0,0.0,0.0,0.0,0.0,0.0,0.0,0.0,0.0,0.0,0.0,0.0,0.0,0.0,0.0,0.0,0.0,0.0,0.0,0.0,0.2
Ipiaú,A445,Ipiaú,Ipiaú - A445,-14.171304,-39.692502,Sudoeste,RPGA do Rio de Contas,0.6,0.2,1.0,0.6,1.6,0.0,0.0,0.0,0.0,0.0,0.0,2.6,18.4,5.2,0.6,3.4,3.2,4.0,4.0,4.6,4.4,0.8,0.4,0.6,6.4,0.0,0.2,0.0,0.0,0.2,63.01
Itapetinga,A446,Itapetinga,Itapetinga - A446,-15.24462,-40.22955,Sudoeste,RPGA do Rio Pardo,0.0,0.0,7.6,0.0,0.0,0.0,0.0,0.0,0.0,0.0,0.0,0.0,4.2,0.0,0.0,0.0,2.6,0.8,3.0,2.4,2.6,0.0,2.2,0.8,0.0,0.0,0.0,0.0,0.0,3.8,30.01
Anagé,CO-CL-01,Anagé,Anagé - CO-CL-01,-14.618055,-41.149722,Sudoeste,RPGA do Rio de Contas,0.0,0.0,0.0,0.0,0.0,0.0,0.0,0.0,0.0,0.0,0.0,0.0,2.0,0.0,0.0,0.0,0.0,0.0,0.0,0.5,0.0,0.0,0.0,0.0,0.0,0.0,0.0,0.0,0.0,0.0,2.5
Planaltino,PG-PR-03,Planaltino,Planaltino - PG-PR-03,-13.259292,-40.373976,Sudoeste,RPGA do Recôncavo Sul,1.0,0.0,0.0,0.0,0.0,0.0,0.0,0.0,0.0,0.0,0.0,0.0,7.0,0.75,0.0,0.25,0.75,0.0,0.0,0.5,0.5,0.0,0.0,0.0,0.0,0.0,0.0,0.0,0.0,0.0,10.75
Centro,293330701A,Vitória da Conquista,Vitória da Conquista (Centro) - 293330701A,-14.852,-40.839,Sudoeste,RPGA do Rio Pardo,0.0,0.0,0.0,0.0,0.0,0.0,0.0,0.0,0.0,0.0,0.0,0.0,2.6,0.0,0.0,0.0,0.2,0.0,0.0,0.0,1.4,0.0,0.0,0.0,0.2,0.0,0.0,0.0,0.0,0.0,4.4
Centro,291710201A,Itororó,Itororó (Centro) - 291710201A,-15.119,-40.065,Sudoeste,RPGA do Leste,0.0,0.0,8.7,3.6,0.0,0.0,0.0,0.0,0.0,0.0,0.0,1.8,2.2,0.0,0.0,0.0,0.2,0.0,0.2,3.5,0.6,0.2,3.5,3.1,0.2,0.0,0.0,0.0,0.0,2.7,30.5
Clerolândia,291640101A,Itapetinga,Itapetinga (Clerolândia) - 291640101A,-15.243,-40.221,Sudoeste,RPGA do Rio Pardo,0.0,0.0,6.5,0.0,0.0,0.0,0.0,0.0,0.0,0.0,0.0,0.0,2.6,0.0,0.0,0.0,3.9,0.8,2.6,2.8,2.2,0.0,1.0,0.8,0.0,0.0,0.0,0.0,0.0,8.5,31.71
Patagônia,293330704A,Vitória da Conquista,Vitória da Conquista (Patagônia) - 293330704A,-14.87,-40.863,Sudoeste,RPGA do Rio Pardo,0.0,0.0,0.0,0.0,0.0,0.0,0.0,0.0,0.0,0.0,0.0,0.0,1.6,0.0,0.0,0.0,0.0,0.2,0.0,0.0,1.0,0.2,0.0,0.0,0.0,0.0,0.0,0.0,0.0,0.0,3.0
Lomantão,293330703A,Vitória da Conquista,Vitória da Conquista (Lomantão) - 293330703A,-14.87,-40.827,Sudoeste,RPGA do Rio Pardo,0.0,0.0,0.0,0.0,0.0,0.0,0.0,0.0,0.0,0.0,0.0,0.0,1.2,0.0,0.0,0.0,0.0,0.0,0.0,0.2,1.4,0.2,0.0,0.0,0.0,0.0,0.0,0.0,0.0,0.0,3.0
Jaguaquara,RS-CL-01,Jaguaquara,Jaguaquara - RS-CL-01,-13.573055,-39.940833,Sudoeste,RPGA do Recôncavo Sul,0.0,0.5,0.0,0.5,0.25,0.25,0.0,0.0,0.0,0.0,0.0,1.25,9.25,0.0,1.75,0.25,3.5,1.75,2.5,2.0,2.5,0.0,0.0,0.25,0.0,0.0,0.0,0.0,0.0,0.0,26.5
Jequié,CO-CL-03,Jequié,Jequié - CO-CL-03,-13.873055,-40.071944,Sudoeste,RPGA do Rio de Contas,2.5,0.0,3.0,0.0,0.25,0.0,0.0,0.0,0.0,0.0,0.0,0.0,8.5,0.0,1.0,0.25,4.0,0.5,1.0,0.25,1.25,3.5,0.0,0.5,3.75,0.0,0.0,0.0,0.0,0.0,30.25
Tremedal,CO-PR-03,Tremedal,Tremedal - CO-PR-03,-14.980998,-41.410135,Sudoeste,RPGA do Rio de Contas,0.0,0.0,0.0,0.0,0.0,0.0,0.0,0.0,0.0,0.0,0.0,0.0,0.0,0.0,0.0,0.0,0.0,0.0,0.0,0.0,0.5,0.0,0.0,0.0,0.0,0.0,0.0,0.0,0.0,0.0,0.5
PCH Cach. da Lixa M,55354000,Jucuruçu,Jucuruçu (PCH Cach. da Lixa M) - 55354000,-17.06703,-40.068619,Sul,"RPGA dos Rios Peruípe, Itanhém e Jucuruçu",0.0,0.0,0.0,0.0,0.0,0.0,0.0,0.0,0.0,5.5,1.0,29.5,4.5,6.5,2.0,0.5,4.0,0.5,8.5,2.5,15.0,1.0,2.0,0.5,0.0,0.0,0.0,0.0,0.0,1.0,84.5
Caravelas,A405,Caravelas,Caravelas - A405,-17.739413,-39.258617,Sul,"RPGA dos Rios Peruípe, Itanhém e Jucuruçu",0.0,0.0,0.4,0.0,0.0,0.0,0.0,0.0,0.0,0.0,0.0,10.8,5.8,4.4,0.0,0.0,4.6,0.2,1.0,3.6,7.6,5.8,0.2,4.2,4.4,0.0,0.0,0.0,0.0,0.0,53.0
PCH Colino II M,55355600,Vereda,Vereda (PCH Colino II M) - 55355600,-17.07126,-40.15474,Sul,"RPGA dos Rios Peruípe, Itanhém e Jucuruçu",0.0,0.0,0.3,0.0,0.0,0.0,0.0,0.0,0.0,0.0,4.9,8.0,3.2,5.5,0.8,0.0,7.7,0.0,4.1,2.0,4.3,0.3,3.7,0.3,0.0,0.0,0.0,0.0,1.9,0.0,47.0
Ilhéus,A410,Ilhéus,Ilhéus - A410,-14.658803,-39.181438,Sul,RPGA do Leste,0.6,3.0,2.2,6.8,4.8,0.0,0.0,0.0,0.0,0.8,2.4,12.4,15.4,3.4,3.2,7.2,16.2,6.6,6.0,0.6,11.8,2.2,4.8,4.4,0.8,0.0,0.2,0.0,1.2,2.8,119.8
Caravelas,83498,Caravelas,Caravelas - 83498,-17.739167,-39.258333,Sul,"RPGA dos Rios Peruípe, Itanhém e Jucuruçu",0.0,0.0,0.4,0.0,0.0,0.0,0.0,0.0,0.0,0.0,0.0,10.5,5.1,4.6,0.0,0.0,4.5,0.2,0.8,2.5,7.7,5.5,0.0,3.8,4.0,0.0,0.0,0.0,0.0,0.0,49.6
Guaratinga,83446,Guaratinga,Guaratinga - 83446,-16.58,-39.78,Sul,"RPGA dos Rios dos Frades, Buranhém e Santo Antônio",0.0,0.0,1.1,0.0,0.0,0.0,0.0,0.0,0.0,0.0,0.0,5.6,1.1,0.5,0.0,0.2,0.6,0.3,0.0,0.0,0.0,0.8,0.0,0.5,0.7,0.0,0.0,0.0,0.0,1.3,12.7
Maraú,A438,Maraú,Maraú - A438,-13.90694,-38.97222,Sul,RPGA do Recôncavo Sul,6.4,12.0,1.0,0.2,6.8,11.2,0.4,0.0,0.0,0.0,18.0,16.0,16.0,13.0,34.8,0.4,1.6,4.0,6.6,3.4,4.4,5.4,2.8,17.8,0.2,4.4,0.2,0.0,0.0,2.2,189.21
Una,A437,Una,Una - A437,-15.280215,-39.09127,Sul,RPGA do Leste,0.6,1.2,4.2,1.4,0.2,0.0,0.0,0.0,0.0,0.0,5.6,6.0,2.0,0.0,0.0,0.0,7.2,4.2,2.0,2.4,7.6,2.0,3.4,4.2,0.2,1.4,0.2,0.0,3.4,1.6,61.01
Porto Seguro,A427,Porto Seguro,Porto Seguro - A427,-16.388977,-39.182389,Sul,"RPGA dos Rios dos Frades, Buranhém e Santo Antônio",0.0,0.0,0.0,0.0,0.6,0.0,0.2,0.0,0.0,0.0,2.2,4.6,1.6,0.6,0.0,0.0,7.2,0.2,14.8,0.6,7.8,3.2,0.0,5.0,0.2,0.0,0.0,0.0,0.2,7.4,56.41
Abrolhos,A422,Caravelas,Caravelas (Abrolhos) - A422,-17.79052,-39.22789,Sul,"RPGA dos Rios Peruípe, Itanhém e Jucuruçu",0.0,0.0,0.4,2.0,0.0,0.0,0.0,0.0,0.0,0.0,0.0,2.8,0.2,0.6,0.0,0.0,0.0,0.8,5.2,27.2,2.6,7.4,0.0,0.6,0.0,0.0,0.0,0.0,0.0,0.0,49.81
CPLAC,LE-CL-01,Ilhéus,Ilhéus (CPLAC) - LE-CL-01,-14.80184,-39.181444,Sul,RPGA do Leste,0.25,1.5,0.0,0.0,0.25,0.0,0.0,0.0,0.0,0.0,0.0,1.0,0.0,0.0,0.0,0.0,0.0,0.0,0.0,0.0,0.0,0.0,0.0,0.0,0.0,0.0,0.0,0.0,0.0,1.25,4.25
Teixeira de Freitas,PJ-CL-01,Teixeira de Freitas,Teixeira de Freitas - PJ-CL-01,-17.575555,-39.732777,Sul,"RPGA dos Rios Peruípe, Itanhém e Jucuruçu",0.0,0.0,0.0,0.0,0.0,0.0,0.0,0.0,0.0,0.0,0.0,8.25,3.0,5.75,0.0,0.0,1.0,0.0,1.0,2.25,1.5,2.5,0.75,0.25,0.0,0.0,0.0,0.0,0.0,0.0,26.25
Itabuna,Fazenda Barra,Itabuna,Itabuna - Fazenda Barra,-14.8997,-39.3686,Sul,RPGA do Leste,0.0,3.4,4.4,2.4,0.0,0.0,0.0,0.0,0.0,0.0,0.0,9.2,18.0,0.0,0.6,0.8,0.6,1.2,5.2,1.0,8.0,0.4,9.8,2.4,0.0,0.0,0.0,0.0,0.8,3.4,71.61
Centro,290340901A,Belmonte,Belmonte (Centro) - 290340901A,-15.859179,-38.878025,Sul,RPGA do Rio Jequitinhonha,2.0,0.4,0.0,3.4,0.0,0.0,0.0,0.0,0.0,0.0,2.5,3.2,0.0,0.2,0.0,0.0,2.6,0.0,9.3,2.2,5.5,0.6,2.0,2.8,1.6,0.2,0.0,0.0,0.2,0.0,38.71
São João do Panelinha,290560202A,Camacan,Camacan (São João do Panelinha) - 290560202A,-15.375278,-39.489984,Sul,RPGA do Rio Pardo,3.0,5.2,0.2,10.8,0.0,0.0,0.0,0.0,0.0,0.0,1.1,14.0,0.0,0.0,0.0,0.0,1.2,1.4,1.8,1.4,5.6,0.2,6.1,2.6,0.0,0.0,0.0,0.0,0.0,4.9,59.5
Centro,290560203A,Camacan,Camacan (Centro) - 290560203A,-15.416389,-39.493873,Sul,RPGA do Rio Pardo,2.2,0.0,1.2,8.1,0.0,0.0,0.0,0.0,0.0,0.0,0.2,8.5,3.5,0.0,0.0,0.0,1.2,0.2,2.0,1.6,3.0,1.2,4.1,2.6,0.0,0.0,0.0,0.0,0.6,2.8,43.0
Malhado,291360602A,Ilhéus,Ilhéus (Malhado) - 291360602A,-14.789158,-39.048858,Sul,RPGA do Leste,0.0,2.4,4.0,0.0,4.9,0.0,0.0,0.0,0.0,0.7,9.6,23.9,2.4,0.0,0.0,0.6,0.0,2.0,9.1,0.0,11.3,0.4,5.1,7.5,0.0,2.7,0.2,0.0,13.0,4.7,104.51
São Caetano,291480202A,Itabuna,Itabuna (São Caetano) - 291480202A,-14.80638,-39.27803,Sul,RPGA do Leste,0.6,1.2,18.7,0.0,6.9,0.0,0.0,0.0,0.0,1.1,0.2,15.0,6.1,0.0,0.6,4.7,3.5,10.1,10.4,0.2,9.1,4.1,4.5,0.8,0.0,0.0,0.0,0.0,5.9,4.3,108.0
Nova Ferradas,291480203A,Itabuna,Itabuna (Nova Ferradas) - 291480203A,-14.857213,-39.346922,Sul,RPGA do Leste,0.2,3.8,11.9,11.9,1.0,0.0,0.0,0.0,0.0,0.0,0.0,8.3,8.3,0.2,0.0,4.5,3.2,3.2,7.5,4.5,9.8,9.5,4.7,0.2,0.2,0.0,0.0,0.0,0.4,8.9,102.21
Centro,292300102A,Nova Viçosa,Nova Viçosa (Centro) - 292300102A,-17.893,-39.372,Sul,"RPGA dos Rios Peruípe, Itanhém e Jucuruçu",0.0,0.0,0.2,0.0,0.0,0.0,0.0,0.0,0.0,0.4,0.8,0.8,3.5,0.2,0.0,0.0,5.3,0.4,0.0,0.8,0.0,0.4,0.0,0.0,0.0,0.0,0.0,0.0,6.1,0.2,19.1
Areião,292530301A,Porto Seguro,Porto Seguro (Areião) - 292530301A,-16.441,-39.076,Sul,"RPGA dos Rios dos Frades, Buranhém e Santo Antônio",0.4,0.2,2.8,0.0,0.2,0.0,0.0,0.0,0.0,0.8,17.0,6.9,0.2,0.0,0.0,0.0,0.0,0.4,6.5,0.4,5.1,4.3,6.1,2.0,0.0,0.0,0.0,0.0,0.0,2.2,55.5
Trancoso,292530303A,Porto Seguro,Porto Seguro (Trancoso) - 292530303A,-16.595,-39.109,Sul,"RPGA dos Rios dos Frades, Buranhém e Santo Antônio",0.0,0.0,2.4,0.2,0.0,0.0,4.1,0.0,0.0,0.0,5.9,8.6,2.4,10.1,0.2,0.4,25.6,0.0,4.5,0.0,1.6,4.2,3.7,3.7,0.0,0.0,0.0,0.0,0.0,0.0,77.61
BR367km4,292770501A,Santa Cruz Cabrália,Santa Cruz Cabrália (BR367km4) - 292770501A,-16.321,-39.023,Sul,"RPGA dos Rios dos Frades, Buranhém e Santo Antônio",0.0,0.0,0.6,0.2,0.8,0.6,0.2,0.0,0.0,0.0,0.0,7.3,0.0,3.1,0.0,0.0,7.3,0.0,8.3,0.8,0.2,4.9,0.2,7.7,0.2,0.0,0.0,0.0,4.9,0.2,47.51
Estádio Municipal,291530401A,Itagimirim,Itagimirim (Estádio Municipal) - 291530401A,-16.089181,-39.615546,Sul,RPGA do Rio Jequitinhonha,0.2,0.0,8.9,0.0,0.0,0.0,0.0,0.0,0.0,0.0,0.0,7.7,0.0,0.0,0.0,0.0,7.7,0.0,1.6,0.0,0.2,3.5,6.1,1.6,0.0,0.0,0.0,0.0,0.0,11.0,48.5
Jusante,54945000,Itapebi,Itapebi (Jusante) - 54945000,-15.949206,-39.5225,Sul,RPGA do Rio Jequitinhonha,0.0,0.0,0.0,0.0,0.0,0.0,0.0,0.0,0.0,0.0,0.0,4.1,1.3,0.0,0.0,0.0,1.8,0.0,12.7,1.1,3.4,1.6,1.1,7.1,6.9,0.0,0.0,0.0,2.9,1.8,45.8
Santa Rita de Cássia,A415,Santa Rita de Cássia,Santa Rita de Cássia - A415,-11.002768,-44.524965,São Francisco,RPGA do Rio Grande,0.0,0.0,0.0,0.0,0.0,0.0,0.0,0.0,0.0,0.6,0.0,0.0,0.0,0.0,0.0,0.0,0.0,0.0,0.0,0.0,0.0,0.0,0.0,0.0,0.0,0.0,0.0,0.0,0.0,0.0,0.6
Bom Jesus da Lapa,A418,Bom Jesus da Lapa,Bom Jesus da Lapa - A418,-13.251094,-43.405365,São Francisco,RPGA do Rio Carnaíba de Dentro,0.0,0.0,0.0,0.0,0.0,0.0,0.0,0.0,0.0,0.0,0.0,0.0,0.0,0.0,0.0,0.0,0.0,0.0,0.0,0.0,0.0,0.0,0.0,0.0,0.0,0.0,0.0,0.0,0.0,0.0,0.0
Barra,83179,Barra,Barra - 83179,-11.083333,-43.166667,São Francisco,RPGA do Rio Grande,0.0,0.0,0.0,0.0,0.0,0.0,0.0,0.0,0.0,0.0,4.6,0.0,0.0,0.0,0.0,0.0,0.0,0.0,0.0,0.0,0.0,0.0,0.0,0.0,0.0,0.0,0.0,0.0,0.0,0.0,4.6
Bom Jesus da Lapa,83288,Bom Jesus da Lapa,Bom Jesus da Lapa - 83288,-13.251389,-43.405278,São Francisco,RPGA do Rio Carnaíba de Dentro,0.0,0.0,0.0,0.0,0.0,0.0,0.0,0.0,0.0,0.0,0.0,0.0,0.0,0.0,0.0,0.0,0.0,0.0,0.0,0.0,0.0,0.0,0.0,0.0,0.0,0.0,0.0,0.0,0.0,0.0,0.0
Caetité,83339,Caetité,Caetité - 83339,-14.066667,-42.483333,São Francisco,RPGA do Rio de Contas,0.0,0.0,0.0,0.0,0.0,0.0,0.0,0.0,0.0,0.0,0.0,0.0,0.6,0.0,0.0,0.0,0.0,0.0,0.0,0.0,0.0,0.0,0.0,0.0,0.0,0.0,0.0,0.0,0.0,0.0,0.6
Carinhanha,83408,Carinhanha,Carinhanha - 83408,-14.283333,-43.766667,São Francisco,"RPGA do Rio Corrente e Riachos do Ramalho, Serra Dourada e Brejo Velho",0.0,0.0,0.0,0.0,0.0,0.0,0.0,0.0,0.0,0.0,0.0,0.0,0.0,0.0,0.0,0.0,0.0,0.0,0.0,0.0,0.0,0.0,0.0,0.0,0.0,0.0,0.0,0.0,0.0,0.0,0.0
Santa Rita de Cássia,83076,Santa Rita de Cássia,Santa Rita de Cássia - 83076,-11.016667,-44.516667,São Francisco,RPGA do Rio Grande,0.0,0.0,0.0,0.0,0.0,0.0,0.0,0.0,0.0,0.3,0.0,0.0,0.0,0.0,0.0,0.0,0.0,0.0,0.0,0.0,0.0,0.0,0.0,0.0,0.0,0.0,0.0,0.0,0.0,0.0,0.3
Buritirama,A432,Buritirama,Buritirama - A432,-10.722925,-43.651203,São Francisco,RPGA do Rio Grande,0.0,0.0,0.0,0.0,0.0,0.0,0.0,0.0,0.0,0.0,0.0,0.0,0.0,0.0,0.0,0.0,0.0,0.0,0.0,0.0,0.0,0.0,0.0,0.0,0.0,0.0,0.0,0.0,0.0,0.0,0.0
Barra,A429,Barra,Barra - A429,-11.084858,-43.138998,São Francisco,RPGA do Rio Grande,0.0,0.0,0.0,0.0,0.0,0.0,0.0,0.0,0.0,0.0,5.8,0.0,0.0,0.0,0.0,0.0,0.0,0.0,0.0,0.0,0.0,0.0,0.0,0.0,0.0,0.0,0.0,0.0,0.0,0.0,5.8
Ibotirama,A439,Ibotirama,Ibotirama - A439,-12.19306,-43.21342,São Francisco,RPGA dos Rios Paramirim e Santo Onofre,0.0,0.0,0.0,0.0,0.0,0.0,0.0,0.0,0.0,0.0,0.0,0.0,0.0,0.0,0.0,0.0,0.0,0.0,0.0,0.0,0.0,0.0,0.0,0.0,0.0,0.0,0.0,0.0,0.0,0.0,0.0
Faz. Macambira,46675000,Cotegipe,Cotegipe (Faz. Macambira) - 46675000,-11.6106,-44.1567,São Francisco,RPGA do Rio Grande,0.0,0.0,0.0,0.0,0.0,0.0,0.0,0.0,0.0,0.0,0.0,0.0,0.0,0.0,0.0,0.0,0.0,0.0,0.0,0.0,0.0,0.0,0.0,0.0,0.0,0.0,0.0,0.0,0.0,0.0,0.0
