nome_estacao,codigo,municipio,estacao,latitude,longitude,regiao,rpga,01_05_16,02_05_16,03_05_16,04_05_16,05_05_16,06_05_16,07_05_16,08_05_16,09_05_16,10_05_16,11_05_16,12_05_16,13_05_16,14_05_16,15_05_16,16_05_16,17_05_16,18_05_16,19_05_16,20_05_16,21_05_16,22_05_16,23_05_16,24_05_16,25_05_16,26_05_16,27_05_16,28_05_16,29_05_16,30_05_16,31_05_16,total
Itaberaba,A408,Itaberaba,Itaberaba - A408,-12.524062,-40.299714,Chapada Diamantina,RPGA do Rio Paraguaçu,0.0,0.0,0.0,0.0,0.6,0.0,0.0,0.6,0.2,0.0,0.0,0.0,0.2,0.0,0.0,0.0,0.0,0.0,0.0,0.0,0.0,0.0,0.0,0.0,0.0,0.0,0.0,0.0,0.0,0.0,0.0,1.6
Macajuba,A412,Macajuba,Macajuba - A412,-12.131694,-40.354222,Chapada Diamantina,RPGA do Rio Paraguaçu,0.0,0.0,0.8,5.0,3.0,0.0,0.0,1.8,0.0,0.0,0.0,0.0,0.0,0.2,0.0,5.8,0.0,0.0,0.0,0.0,1.4,2.2,0.0,0.0,22.0,0.8,0.2,0.0,2.8,0.0,0.0,46.0
Itaberaba,83244,Itaberaba,Itaberaba - 83244,-12.516667,-40.283333,Chapada Diamantina,RPGA do Rio Paraguaçu,0.0,0.0,0.0,0.7,0.0,0.0,0.0,14.6,0.0,0.0,0.0,0.0,0.0,0.0,0.0,1.5,0.0,0.0,0.0,0.0,0.0,0.0,0.0,0.0,0.0,0.0,0.0,0.0,0.0,0.0,0.0,16.8
Lençóis,83242,Lençóis,Lençóis - 83242,-12.5575,-41.388889,Chapada Diamantina,RPGA do Rio Paraguaçu,0.0,0.0,0.0,1.3,0.0,0.0,0.0,3.4,0.1,0.0,0.0,0.0,0.0,0.0,0.0,1.0,0.0,0.0,0.0,0.0,0.0,0.0,0.0,0.0,2.5,0.0,0.0,0.0,0.0,0.0,0.0,8.3
Morro do Chapéu,83184,Morro do Chapéu,Morro do Chapéu - 83184,-11.216667,-41.216667,Chapada Diamantina,RPGA do Rio Salitre,0.0,0.0,0.1,3.5,0.6,0.0,0.0,0.6,0.0,0.0,0.0,0.0,0.0,0.0,0.0,2.9,0.0,0.0,0.0,0.0,0.2,0.0,0.0,0.0,2.6,0.5,0.0,0.0,0.8,0.0,0.0,11.8
Piatã,A430,Piatã,Piatã - A430,-13.155681,-41.774125,Chapada Diamantina,RPGA do Rio de Contas,0.0,1.4,0.2,0.0,0.0,0.0,0.0,0.0,0.0,0.0,0.0,0.0,0.0,0.0,0.0,0.0,0.0,0.0,0.0,0.0,0.0,0.0,0.0,0.0,0.0,0.4,0.0,0.0,0.0,0.0,0.0,2.0
Lençóis,A425,Lençóis,Lençóis - A425,-12.557854,-41.388808,Chapada Diamantina,RPGA do Rio Paraguaçu,0.0,0.0,0.0,1.4,0.0,0.0,0.0,3.6,0.2,0.0,0.0,0.0,0.0,0.0,0.0,1.2,0.0,0.0,0.0,0.0,0.0,0.0,0.0,0.0,2.6,0.0,0.0,0.0,0.0,0.0,0.0,9.0
Itaetê,,Itaetê,Itaetê,-12.991944,-40.960833,Chapada Diamantina,RPGA do Rio Paraguaçu,0.0,0.0,0.0,0.0,0.0,0.0,0.0,0.0,0.0,0.0,0.0,0.0,0.0,0.0,0.0,0.0,0.0,0.0,0.0,0.0,0.0,0.4,0.2,0.0,0.0,0.0,0.0,0.0,0.0,0.0,0.0,0.61
Lagoa Bonita,PG-PR-15,Iacú,Iacú (Lagoa Bonita) - PG-PR-15,-12.931506,-40.226468,Chapada Diamantina,RPGA do Rio Paraguaçu,0.0,0.0,22.0,19.25,1.0,1.5,12.5,1.75,2.5,0.0,0.0,0.0,0.0,0.0,7.75,12.5,1.0,0.0,0.0,0.0,4.25,0.0,0.0,0.0,26.25,28.25,0.25,2.5,2.75,0.0,0.25,146.25
Boa Vista Tupim,PG-PR-17,Boa Vista Tupim,Boa Vista Tupim - PG-PR-17,-12.65622,-40.589813,Chapada Diamantina,RPGA do Rio Paraguaçu,0.0,0.0,0.0,0.0,0.0,0.0,0.0,3.75,0.0,0.0,0.0,0.0,0.0,0.0,0.0,0.25,0.0,0.0,0.0,0.0,0.0,0.0,0.0,0.0,0.0,1.0,0.0,0.0,0.0,0.0,0.0,5.0
Ruy Barbosa,PG-PR-18,Ruy Barbosa,Ruy Barbosa - PG-PR-18,-12.285653,-40.513698,Chapada Diamantina,RPGA do Rio Paraguaçu,0.0,0.0,0.25,1.0,0.5,0.0,0.0,1.25,0.25,0.0,0.0,0.0,0.0,0.0,0.0,3.0,0.0,0.0,0.0,0.0,0.0,5.0,0.0,0.0,0.25,2.0,0.0,0.0,0.0,1.25,0.0,14.75
Wagner,PG-PR-22,Wagner,Wagner - PG-PR-22,-12.289538,-41.161774,Chapada Diamantina,RPGA do Rio Paraguaçu,0.0,0.0,0.0,0.5,0.0,0.0,0.0,0.25,0.25,0.0,0.0,0.0,0.0,0.0,0.0,0.0,0.0,0.0,0.0,0.0,0.0,0.0,0.0,0.0,0.5,0.0,0.0,0.0,0.0,0.0,0.0,1.5
Guiné,PG-PR-24,Mucugê,Mucugê (Guiné) - PG-PR-24,-12.771772,-41.540679,Chapada Diamantina,RPGA do Rio Paraguaçu,0.0,0.0,0.0,0.0,0.0,0.0,0.0,1.25,0.0,0.0,0.0,0.0,0.0,0.0,0.0,0.0,0.0,0.0,0.0,0.0,0.0,1.5,0.0,0.0,0.5,0.0,0.0,0.0,0.0,0.0,0.0,3.25
Olho D'Água do Francisco,,Olho D'Água do Francisco,Olho D'Água do Francisco,-12.307034,-42.079028,Chapada Diamantina,RPGA dos Rios Verde e Jacaré,0.0,0.0,0.0,0.0,0.0,0.0,0.0,0.0,0.0,0.2,0.0,0.0,0.4,0.0,0.0,0.0,0.0,0.0,0.0,0.0,0.0,0.0,0.0,0.0,0.0,0.0,0.0,0.0,0.0,0.0,0.0,0.61
Ibiaporã,PG-CL-01,Mundo Novo,Mundo Novo (Ibiaporã) - PG-CL-01,-12.05379,-40.83722,Chapada Diamantina,RPGA do Rio Paraguaçu,0.0,0.0,1.0,3.75,4.25,0.0,5.5,0.0,0.0,0.0,0.0,0.0,0.0,0.0,5.75,0.5,0.25,0.0,0.0,0.0,0.0,0.75,0.5,0.0,19.75,4.25,0.0,0.0,0.75,0.0,0.0,47.0
Marcionílio Souza,PG-CL-03,Marcionílio Souza,Marcionílio Souza - PG-CL-03,-13.00021,-40.537783,Chapada Diamantina,RPGA do Rio Paraguaçu,0.0,0.0,0.0,0.0,0.0,0.0,0.0,0.25,0.0,0.0,0.0,0.0,0.0,0.0,0.0,0.0,0.0,0.0,0.0,0.0,0.0,0.0,0.0,0.0,0.0,0.0,0.0,0.0,0.0,0.0,0.0,0.25
Iraquara,PG-PR-02,Iraquara,Iraquara - PG-PR-02,-12.255093,-41.61679,Chapada Diamantina,RPGA do Rio Paraguaçu,0.0,0.0,0.0,0.0,0.0,0.0,0.0,3.0,0.5,0.0,0.0,0.0,0.0,0.0,0.0,0.0,0.0,0.0,0.0,0.0,0.0,0.0,0.0,0.0,0.5,0.0,0.0,0.0,0.0,0.0,0.0,4.0
Baixa Grande,PG-PR-08,Baixa Grande,Baixa Grande - PG-PR-08,-11.908701,-40.183683,Chapada Diamantina,RPGA do Rio Paraguaçu,0.0,0.0,0.0,0.0,0.0,0.25,0.25,3.0,0.0,0.0,0.0,0.0,0.0,0.0,0.0,17.75,1.25,0.25,0.0,0.0,0.0,0.0,0.0,0.0,0.0,0.0,0.0,0.0,0.0,0.0,0.0,22.75
Tapiramutá,PG-PR-09,Tapiramutá,Tapiramutá - PG-PR-09,-11.838502,-40.791761,Chapada Diamantina,RPGA do Rio Paraguaçu,0.0,0.0,0.75,4.25,1.25,0.0,0.0,1.0,0.0,0.0,0.0,0.0,0.0,0.0,0.0,5.25,0.25,0.0,0.0,0.0,0.0,1.25,0.0,0.0,11.25,1.75,0.0,0.0,0.0,0.0,0.0,27.0
Ventura,PG-PR-10,Morro do Chapéu,Morro do Chapéu (Ventura) - PG-PR-10,-11.650911,-40.951765,Chapada Diamantina,RPGA do Rio Paraguaçu,0.0,0.0,0.0,0.75,0.0,0.0,0.0,0.25,0.0,0.0,0.0,0.0,0.0,0.0,0.0,1.75,0.25,0.0,0.0,0.0,0.0,0.0,0.0,0.0,5.5,0.0,0.0,0.0,0.25,0.0,0.0,8.75
Bonito,PG-PR-11,Bonito,Bonito - PG-PR-11,-11.98993,-41.25429,Chapada Diamantina,RPGA do Rio Paraguaçu,0.0,0.0,1.0,9.25,0.75,0.5,0.25,5.5,0.0,0.0,0.0,0.0,0.0,0.0,0.0,3.75,2.5,0.0,0.0,0.0,0.0,0.5,0.0,0.0,14.0,0.5,0.0,0.0,2.25,0.0,0.0,40.75
Piatã,CO-CL-04,Piatã,Piatã - CO-CL-04,-13.164166,-41.770833,Chapada Diamantina,RPGA do Rio de Contas,0.0,59.75,0.5,0.5,0.0,0.1,1.6,0.0,0.0,0.0,0.0,0.0,0.1,1.2,0.0,0.0,0.0,0.0,0.0,0.3,0.3,0.0,0.0,2.5,5.25,0.0,1.2,1.0,0.0,0.0,0.0,74.31
PC Ponte Rio Capivari,51326200,Itaberaba,Itaberaba (PC Ponte Rio Capivari) - 51326200,-12.51429,-39.93422,Chapada Diamantina,RPGA do Rio Paraguaçu,0.0,0.0,1.0,1.6,0.0,0.0,0.0,5.2,0.3,0.0,0.0,0.0,0.0,0.0,0.0,1.4,0.3,0.0,1.0,0.0,1.1,0.3,0.0,4.8,2.1,0.0,0.0,0.0,0.0,0.0,0.0,19.11
Palmeiras,EBDA,Palmeiras,Palmeiras - EBDA,-12.46799,-41.617801,Chapada Diamantina,RPGA do Rio Paraguaçu,0.0,0.0,0.0,0.0,0.0,0.0,0.0,0.0,0.0,0.0,0.0,0.0,0.0,0.0,0.0,0.0,0.0,0.0,0.0,0.0,0.0,0.0,0.0,0.0,0.0,0.0,0.0,0.0,0.0,0.0,0.0,0.0
Curaçá,A448,Curaçá,Curaçá - A448,-9.0013,-39.9124,Nordeste,RPGA dos Rios Macururé e Curaçá,0.0,0.0,0.0,0.0,0.0,0.0,0.0,0.0,0.0,0.0,0.0,0.0,0.0,0.0,0.0,0.0,0.0,0.0,0.0,0.0,0.0,0.0,0.0,0.0,9.8,12.6,1.8,0.0,0.0,0.2,0.4,24.8
Paulo Afonso,A411,Paulo Afonso,Paulo Afonso - A411,-9.379325,-38.227424,Nordeste,RPGA dos Rios Macururé e Curaçá,0.0,0.0,0.0,0.0,0.0,0.0,0.0,1.2,0.0,0.0,2.2,0.0,0.0,0.0,0.0,1.8,1.4,0.0,0.0,0.0,0.0,0.0,0.0,13.0,1.8,3.6,0.6,0.0,0.2,3.0,0.2,29.01
Cipó,83192,Cipó,Cipó - 83192,-11.083333,-38.516667,Nordeste,RPGA do Rio Itapicuru,0.0,0.0,4.8,1.5,0.0,0.0,0.0,0.6,0.0,0.0,0.0,0.0,0.0,0.0,4.2,7.0,5.8,1.2,0.0,0.0,1.7,0.0,0.0,6.9,57.6,10.7,5.2,1.2,1.6,0.4,0.0,110.41
Jacobina,83186,Jacobina,Jacobina - 83186,-11.172778,-40.534167,Nordeste,RPGA do Rio Itapicuru,0.0,0.0,0.0,6.1,0.0,0.0,0.0,0.2,0.0,0.0,0.0,0.0,0.0,0.0,0.0,1.9,0.0,0.0,0.0,0.0,0.0,0.0,0.0,0.0,31.3,0.8,0.0,0.0,1.6,0.0,0.0,41.9
Monte Santo,83090,Monte Santo,Monte Santo - 83090,-10.4425,-39.331111,Nordeste,RPGA do Rio Itapicuru,0.0,0.0,0.9,3.7,0.0,0.0,0.0,0.0,0.0,0.0,0.0,0.0,0.0,0.0,0.1,0.3,0.0,0.0,0.0,0.0,0.0,0.0,0.0,3.8,45.3,10.0,8.9,0.0,0.2,2.2,0.0,75.4
Serrinha,83190,Serrinha,Serrinha - 83190,-11.633333,-38.966667,Nordeste,RPGA do Recôncavo Norte,0.0,0.0,10.2,8.4,0.0,0.0,0.0,0.0,0.0,0.0,0.0,0.0,0.0,0.0,0.4,5.4,1.5,0.0,0.0,0.0,0.0,0.0,0.0,8.3,45.9,17.4,0.0,1.4,0.7,0.0,0.0,99.61
Conde,A431,Conde,Conde - A431,-12.03622,-37.68322,Nordeste,RPGA do Rio Itapicuru,0.0,0.0,0.4,27.4,0.2,0.0,0.0,0.4,0.2,0.0,0.0,0.4,0.2,2.2,12.2,4.0,2.8,0.0,0.0,0.0,5.0,0.0,10.6,54.6,48.8,13.4,15.8,0.2,0.0,0.0,0.0,198.8
Uauá,A435,Uauá,Uauá - A435,-9.833617,-39.495631,Nordeste,RPGA do Rio Vaza-Barris,0.0,0.0,0.0,0.0,0.0,0.0,0.0,0.0,0.0,0.0,0.0,0.0,0.0,0.0,0.0,0.6,0.0,0.0,0.0,0.0,0.0,0.0,0.0,0.0,20.4,3.6,2.4,0.0,0.0,0.2,0.2,27.4
Euclides da Cunha,A442,Euclides da Cunha,Euclides da Cunha - A442,-10.537233,-38.996605,Nordeste,RPGA do Rio Itapicuru,0.0,0.0,0.0,0.0,0.0,0.0,0.0,0.0,0.0,0.0,0.0,0.0,0.0,0.0,0.0,0.0,0.0,0.0,0.0,0.0,0.0,0.0,0.0,0.0,0.0,0.0,0.0,0.0,0.0,0.0,0.0,0.0
Queimadas,A436,Queimadas,Queimadas - A436,-10.984645,-39.617009,Nordeste,RPGA do Rio Itapicuru,0.0,0.0,0.6,2.4,0.0,0.0,0.0,0.0,0.0,0.0,0.0,0.0,0.0,0.0,0.6,1.6,0.6,0.0,0.0,0.0,0.0,0.0,0.0,2.6,13.0,15.2,0.2,0.0,0.0,0.0,0.0,36.8
Jacobina,A440,Jacobina,Jacobina - A440,-11.205136,-40.464979,Nordeste,RPGA do Rio Itapicuru,0.0,0.0,0.4,9.4,0.2,0.0,0.0,0.0,0.0,0.0,0.0,0.0,0.0,0.0,0.2,4.4,0.8,0.0,0.0,0.0,0.0,0.2,0.0,0.0,51.0,1.6,0.2,0.0,2.4,0.0,0.2,71.0
Serrinha,A441,Serrinha,Serrinha - A441,-11.664586,-39.022946,Nordeste,RPGA do Rio Paraguaçu,0.0,0.0,10.2,10.2,0.0,0.0,0.2,0.0,0.2,0.0,0.0,0.0,0.0,0.0,0.2,3.6,1.4,0.0,0.0,0.0,0.2,0.0,0.0,8.4,40.0,19.0,0.0,0.8,0.6,0.0,0.0,95.0
Senhor do Bonfim,A428,Senhor do Bonfim,Senhor do Bonfim - A428,-10.443072,-40.148244,Nordeste,RPGA do Rio Itapicuru,0.0,0.0,2.4,6.4,0.0,0.0,0.0,0.0,0.0,0.0,0.0,0.0,0.0,0.0,0.0,2.6,0.2,0.0,0.0,0.0,0.0,0.0,0.0,0.0,30.0,24.2,0.2,0.0,0.4,0.4,0.2,67.01
Ponto Novo,50380000,Ponto Novo,Ponto Novo - 50380000,-10.845,-40.1128,Nordeste,RPGA do Rio Itapicuru,0.0,0.0,0.2,2.4,0.0,0.0,0.0,0.0,0.0,0.0,0.0,0.2,0.0,0.0,0.0,0.2,0.8,0.0,0.0,0.0,0.0,0.0,0.0,0.0,4.4,15.6,0.4,0.0,0.2,0.0,0.0,24.4
Ipirá,PG-CL-02,Ipirá,Ipirá - PG-CL-02,-12.14986,-39.76454,Nordeste,RPGA do Rio Paraguaçu,2.5,0.0,0.0,0.0,0.0,0.0,0.0,0.0,0.0,0.0,0.0,0.0,0.0,0.0,0.0,0.0,0.0,0.0,0.0,0.0,0.0,0.0,0.0,0.0,0.0,0.0,0.0,0.0,0.0,0.0,0.0,2.5
Serrinha,RN-CL-02,Serrinha,Serrinha - RN-CL-02,-11.648333,-38.982777,Nordeste,RPGA do Recôncavo Norte,0.25,0.0,12.0,8.25,0.5,0.75,0.0,0.0,0.0,0.0,0.0,0.0,0.0,0.25,0.0,4.0,1.5,0.5,0.25,0.0,0.0,0.0,0.25,10.0,32.75,20.25,0.25,0.0,4.25,0.0,0.25,96.25
Pé de Serra,PG-PR-06,Pé de Serra,Pé de Serra - PG-PR-06,-11.833423,-39.623663,Nordeste,RPGA do Rio Paraguaçu,0.0,0.0,0.25,4.75,0.0,0.0,0.0,1.5,0.0,0.0,0.0,0.0,0.0,0.0,0.25,2.75,0.25,0.0,0.0,0.0,0.0,0.0,0.0,0.0,9.75,2.25,0.25,0.0,0.5,0.0,0.0,22.5
Centro,293010501A,Senhor do Bonfim,Senhor do Bonfim (Centro) - 293010501A,-10.464,-40.19,Nordeste,RPGA do Rio Itapicuru,0.0,0.0,1.2,4.1,0.0,0.0,0.0,0.0,0.0,0.0,0.0,0.0,0.0,0.0,0.0,0.8,1.0,0.0,0.0,0.0,0.0,0.0,0.0,0.0,31.9,26.2,0.8,0.0,0.0,0.0,0.2,66.2
Itapeipu,IT-PR-34,Jacobina,Jacobina (Itapeipu) - IT-PR-34,-11.315629,-40.356742,Nordeste,RPGA do Rio Itapicuru,0.0,0.0,0.0,4.0,1.0,0.0,0.0,0.0,0.0,0.0,0.0,0.0,0.0,0.0,0.0,1.25,0.25,0.0,0.25,0.0,0.0,0.0,0.0,0.0,0.0,0.0,0.0,0.0,0.25,0.0,0.0,7.0
Tombador Araújo,IT-PR-36,Jacobina,Jacobina (Tombador Araújo) - IT-PR-36,-11.168677,-40.670642,Nordeste,RPGA do Rio Itapicuru,0.0,0.0,0.0,1.25,1.25,0.0,0.0,0.0,0.0,0.0,0.0,0.0,0.0,0.0,0.0,3.75,0.25,0.0,0.0,0.0,0.0,0.0,0.0,0.0,32.0,1.0,0.0,0.0,3.0,0.25,0.0,42.75
Riacho da Onça,IT-PR-15,Queimadas,Queimadas (Riacho da Onça) - IT-PR-15,-11.24424,-39.790055,Nordeste,RPGA do Rio Itapicuru,0.0,0.0,0.25,1.25,0.0,0.0,0.0,0.0,0.0,0.0,0.0,0.0,0.0,0.0,0.0,3.5,0.0,0.0,0.0,0.0,0.0,0.0,0.0,0.0,12.0,4.75,0.25,0.0,0.0,0.0,0.25,22.25
Santaluz,IT-PR-17,Santaluz,Santaluz - IT-PR-17,-11.24831,-39.37563,Nordeste,RPGA do Rio Itapicuru,0.0,0.0,7.75,4.75,0.0,0.0,0.0,0.0,0.0,0.0,0.0,0.0,0.0,0.0,1.25,3.25,0.25,0.0,0.0,0.0,0.0,0.0,0.0,1.75,12.25,15.25,0.0,0.0,0.0,0.0,0.0,46.5
Açude Monteiro,IT-PR-23,Nordestina,Nordestina (Açude Monteiro) - IT-PR-23,-10.77645,-39.559491,Nordeste,RPGA do Rio Itapicuru,0.0,0.0,1.0,0.25,0.0,0.0,0.0,0.0,0.0,0.0,0.0,0.0,0.0,0.0,0.25,2.75,0.0,0.0,0.0,0.0,0.0,0.0,0.0,5.5,15.75,13.5,0.0,0.0,0.0,0.25,0.0,39.25
Pedra Vermelha,IT-PR-24,Monte Santo,Monte Santo (Pedra Vermelha) - IT-PR-24,-10.454497,-39.559488,Nordeste,RPGA do Rio Itapicuru,0.0,0.0,0.75,0.0,0.0,0.0,0.0,0.0,0.0,0.0,0.0,0.0,0.0,0.0,0.0,2.75,0.25,0.0,0.0,0.0,0.0,0.0,0.0,0.75,41.5,7.25,1.5,0.5,0.0,0.0,0.0,55.25
Quijingue,IT-PR-25,Quijingue,Quijingue - IT-PR-25,-10.783951,-39.20809,Nordeste,RPGA do Rio Itapicuru,0.0,0.0,0.75,2.5,0.0,0.0,0.0,0.0,0.0,0.0,0.0,0.0,0.0,0.0,0.0,1.5,0.5,0.0,0.0,0.0,0.0,0.0,0.0,3.0,11.25,9.75,6.0,0.25,0.0,0.0,0.0,35.5
Conde,IT-PR-31,Conde,Conde - IT-PR-31,-11.813434,-37.616927,Nordeste,RPGA do Rio Itapicuru,0.0,0.0,2.5,4.0,0.75,1.25,0.5,0.75,0.0,0.0,7.0,0.0,0.25,1.25,36.75,19.0,1.25,0.0,0.0,0.0,10.0,0.0,12.0,20.5,25.75,12.25,21.5,4.25,5.0,0.5,0.25,187.25
Curral Falso,IT-PR-01,Ribeira do Pombal,Ribeira do Pombal (Curral Falso) - IT-PR-01,-10.697843,-38.5714,Nordeste,RPGA do Rio Itapicuru,0.0,0.0,0.75,0.75,0.0,0.0,0.0,0.0,0.0,0.0,0.25,0.25,0.0,0.0,0.0,1.75,0.0,0.0,0.0,0.0,0.0,0.0,0.0,8.0,85.75,6.0,6.0,0.0,0.0,3.25,0.5,113.25
Aribicé,IT-PR-02,Euclides da Cunha,Euclides da Cunha (Aribicé) - IT-PR-02,-10.557835,-38.793352,Nordeste,RPGA do Rio Itapicuru,0.0,0.0,0.25,0.75,0.0,0.0,0.0,0.0,0.0,0.0,0.0,0.0,0.0,0.0,0.25,3.5,0.0,0.0,0.0,0.0,0.0,0.0,0.0,11.5,38.25,6.75,2.25,1.5,0.25,2.25,0.0,67.5
BR 116 E. Cunha / Tucano,IT-PR-05,Quijingue,Quijingue (BR 116 E. Cunha / Tucano) - IT-PR-05,-10.7105,-38.9227,Nordeste,RPGA do Rio Itapicuru,0.0,0.0,0.5,0.0,0.0,0.0,0.0,0.0,0.0,0.0,0.0,0.0,0.0,0.0,0.75,5.5,0.75,0.0,0.0,0.0,0.0,0.0,0.0,1.75,48.75,4.0,3.5,1.0,0.0,1.5,1.0,69.0
Crisópolis,IT-PR-08,Crisópolis,Crisópolis - IT-PR-08,-11.510923,-38.120832,Nordeste,RPGA do Rio Itapicuru,0.0,0.0,1.75,4.0,0.0,0.0,1.0,0.75,0.0,0.0,0.0,0.0,0.0,0.0,2.75,11.25,2.75,0.0,0.0,0.0,3.0,0.0,0.0,16.25,54.5,4.0,8.25,30.0,1.75,0.75,3.5,146.25
Fazenda Laranjeiras III,IT-PR-09,Araci,Araci (Fazenda Laranjeiras III) - IT-PR-09,-11.334248,-38.968638,Nordeste,RPGA do Rio Itapicuru,0.0,0.0,4.0,16.5,0.0,0.0,0.25,0.0,0.0,0.0,0.0,0.0,0.0,0.0,11.25,5.0,0.0,0.0,0.0,0.0,0.25,0.0,0.0,8.75,38.0,6.25,2.75,0.0,0.0,0.0,0.0,93.0
Olindina,IT-PR-11,Olindina,Olindina - IT-PR-11,-11.343693,-38.318892,Nordeste,RPGA do Rio Itapicuru,0.0,0.0,2.5,0.0,0.0,0.0,0.0,0.0,0.0,0.0,0.0,0.0,0.0,0.0,0.5,15.75,2.5,0.0,0.0,0.0,0.0,0.0,0.0,9.0,93.75,5.75,3.5,6.5,0.75,0.5,0.0,141.0
Itapicuru,IT-PR-12,Itapicuru,Itapicuru - IT-PR-12,-11.321193,-38.225003,Nordeste,RPGA do Rio Itapicuru,0.0,0.0,3.5,0.0,0.0,0.0,0.0,0.0,0.0,0.0,0.0,0.0,0.0,0.0,0.75,15.25,0.0,0.0,0.0,0.0,0.25,0.0,0.0,5.25,11.0,1.0,0.5,1.75,0.5,0.5,0.0,40.25
Boa Hora,IT-PR-13,Ribeira do Amparo,Ribeira do Amparo (Boa Hora) - IT-PR-13,-10.965,-38.5234,Nordeste,RPGA do Rio Itapicuru,0.0,0.0,3.0,0.0,0.0,0.0,0.0,0.0,0.0,0.0,0.0,0.0,0.0,0.0,1.0,8.25,0.25,0.0,0.0,0.0,0.0,0.0,0.0,8.0,81.75,3.5,4.0,0.5,0.25,0.75,0.75,112.0
Jeremoabo,A450,Jeremoabo,Jeremoabo - A450,-10.0807,-38.3459,Nordeste,RPGA do Rio Vaza-Barris,0.0,0.0,2.4,0.2,0.0,0.0,0.0,0.0,0.0,0.4,1.8,1.2,0.0,0.0,0.2,1.0,0.0,0.0,0.0,0.0,0.0,0.0,0.0,24.0,27.6,11.4,0.0,0.0,2.8,11.4,0.2,84.61
Malhada da Areia,291840702A,Juazeiro,Juazeiro (Malhada da Areia) - 291840702A,-9.44181,-40.51381,Norte,RPGA dos Rios Macururé e Curaçá,0.0,0.0,0.0,0.0,0.0,0.0,0.0,0.0,0.0,0.0,0.0,0.0,0.0,0.0,0.0,0.0,0.0,0.0,0.0,0.0,0.0,0.0,0.0,0.0,0.0,0.0,0.0,0.0,0.0,0.0,0.0,0.0
Maria Gorete,291840703A,Juazeiro,Juazeiro (Maria Gorete) - 291840703A,-9.42014,-40.49909,Norte,RPGA dos Rios Macururé e Curaçá,0.0,0.0,0.0,0.0,0.0,0.0,0.0,0.0,0.0,0.0,0.0,0.0,0.0,0.0,0.0,0.0,0.0,0.0,0.0,0.0,0.0,0.0,0.0,0.0,0.0,0.6,0.0,0.0,0.0,0.0,0.0,0.6
João Paulo II,291840704A,Juazeiro,Juazeiro (João Paulo II) - 291840704A,-9.47067,-40.49805,Norte,RPGA dos Rios Macururé e Curaçá,0.0,0.0,0.0,0.2,0.0,0.0,0.0,0.0,0.0,0.0,0.0,0.0,0.0,0.0,0.0,0.0,0.0,0.0,0.0,0.0,0.0,0.0,0.0,0.0,0.0,0.0,0.0,0.0,0.0,0.0,0.0,0.2
Lapão,291915701A,Lapão,Lapão - 291915701A,-11.38,-41.83,Norte,RPGA dos Rios Verde e Jacaré,0.0,0.0,0.0,0.0,0.0,0.0,0.0,0.0,0.0,0.0,0.0,0.0,0.0,0.0,0.0,0.0,0.0,0.0,0.0,0.0,0.0,0.0,0.0,0.0,6.0,0.0,0.0,0.0,0.0,0.0,0.0,6.0
Irecê,83182,Irecê,Irecê - 83182,-11.3,-41.866667,Norte,RPGA dos Rios Verde e Jacaré,0.0,0.0,0.0,0.0,0.0,0.0,0.0,0.0,0.0,0.0,0.0,0.0,0.0,0.0,0.0,0.0,0.0,0.0,0.0,0.0,0.0,0.0,0.0,0.0,11.1,0.0,0.0,0.0,0.0,0.0,0.0,11.1
Remanso,82979,Remanso,Remanso - 82979,-9.633333,-42.1,Norte,RPGA do Lago de Sobradinho,0.0,0.0,0.0,0.2,0.0,0.0,0.0,0.0,0.0,0.0,0.0,0.0,0.0,0.0,0.0,0.0,0.0,0.0,0.0,0.0,0.0,0.0,0.0,0.0,9.8,0.0,0.0,0.0,0.0,0.0,0.0,10.0
Delfino,A443,Umburanas,Umburanas (Delfino) - A443,-10.45492,-41.206996,Norte,RPGA do Rio Salitre,0.0,0.0,0.0,1.8,0.2,0.0,0.0,0.0,0.0,0.0,0.0,0.0,0.0,0.0,0.0,0.0,0.0,0.0,0.0,0.0,0.0,0.0,0.0,0.0,19.4,0.6,0.0,0.0,0.0,0.0,0.0,22.0
Remanso,A423,Remanso,Remanso - A423,-9.625693,-42.077214,Norte,RPGA do Lago de Sobradinho,0.0,0.0,0.0,0.4,0.0,0.0,0.0,0.0,0.0,0.0,0.0,0.0,0.0,0.0,0.0,0.0,0.0,0.0,0.0,0.0,0.0,0.0,0.0,0.0,9.8,0.2,0.0,0.0,0.0,0.0,0.0,10.4
Casa Nova,Faz. Santa Felicidade,Casa Nova,Casa Nova - Faz. Santa Felicidade,-9.333333,-40.8,Norte,RPGA do Lago de Sobradinho,0.0,0.0,0.0,0.0,0.0,0.0,0.0,0.0,0.0,0.0,0.0,0.0,0.0,0.0,0.0,0.0,0.0,0.0,0.0,0.0,0.0,0.0,0.0,0.0,0.0,0.25,0.0,0.0,0.0,0.0,0.0,0.25
Juazeiro,Fazenda Brasil Uvas,Juazeiro,Juazeiro - Fazenda Brasil Uvas,-9.316666,-40.183333,Norte,RPGA dos Rios Macururé e Curaçá,0.0,0.0,0.0,0.0,0.0,0.0,0.0,0.0,0.0,0.0,0.0,0.0,0.0,0.0,0.0,0.0,0.0,0.0,0.0,0.0,0.0,0.0,0.0,0.0,3.8,1.0,0.0,0.0,0.0,0.0,0.0,4.8
Jaguarari,Pilar,Jaguarari,Jaguarari - Pilar,-9.85,-39.933333,Norte,RPGA dos Rios Macururé e Curaçá,0.0,0.0,0.0,0.4,0.0,0.0,0.0,0.0,0.0,0.0,0.0,0.0,0.0,0.0,0.0,0.0,0.0,0.0,0.0,0.0,0.0,0.0,0.0,0.0,8.6,0.1,0.2,1.1,0.0,0.0,0.0,10.4
Juazeiro,Santa Helena,Juazeiro,Juazeiro - Santa Helena,-9.566666,-40.3,Norte,RPGA dos Rios Macururé e Curaçá,0.0,0.0,0.0,0.0,0.0,0.0,0.0,0.0,0.0,0.0,0.0,0.0,0.0,0.0,0.0,0.0,0.0,0.0,0.0,0.0,0.0,0.0,0.0,0.0,0.0,0.0,0.0,0.0,0.0,0.0,0.0,0.0
Juazeiro,Salitre,Juazeiro,Juazeiro - Salitre,-9.5,-40.633333,Norte,RPGA dos Rios Macururé e Curaçá,0.0,0.0,0.0,0.0,0.0,0.0,0.0,0.0,0.0,0.0,0.0,0.0,0.0,0.0,0.0,0.0,0.0,0.0,0.0,0.0,0.0,0.0,0.0,0.0,0.0,0.0,0.0,0.0,0.0,0.0,0.0,0.0
Irecê,VJ-CL-01,Irecê,Irecê - VJ-CL-01,-11.289166,-41.894166,Norte,RPGA dos Rios Verde e Jacaré,0.0,0.0,0.0,0.0,0.0,0.0,0.0,0.0,0.0,0.0,0.0,0.0,0.0,0.0,0.0,0.0,0.0,0.0,0.0,0.0,0.0,0.0,0.0,0.0,9.75,0.0,0.0,0.0,0.0,0.0,0.0,9.75
Santa Rosa,SM-PR-01,Jaguarari,Jaguarari (Santa Rosa) - SM-PR-01,-10.098374,-39.869774,Norte,RPGA dos Rios Macururé e Curaçá,0.0,0.0,0.25,1.75,0.0,0.0,0.0,0.0,0.0,0.0,0.0,0.0,0.0,0.0,0.0,0.5,0.0,0.0,0.0,0.0,0.0,0.0,0.0,0.25,17.0,7.75,6.5,0.0,0.0,1.0,0.0,35.0
Juazeiro,Mandacaru,Juazeiro,Juazeiro - Mandacaru,-9.4,-40.433333,Norte,RPGA dos Rios Macururé e Curaçá,0.0,0.0,0.0,0.0,0.0,0.0,0.0,0.0,0.0,0.0,0.0,0.0,0.0,0.0,0.0,0.0,0.0,0.0,0.0,0.0,0.0,0.0,0.0,0.0,0.25,0.0,0.0,0.0,0.0,0.0,0.0,0.25
Campo Formoso,IT-PR-27,Campo Formoso,Campo Formoso - IT-PR-27,-10.510327,-40.332849,Norte,RPGA do Rio Itapicuru,0.0,0.0,1.75,7.25,0.0,0.0,0.0,0.0,0.0,0.0,0.0,0.0,0.0,0.0,0.5,2.75,0.0,0.0,0.0,0.0,0.0,1.5,0.0,0.0,28.25,40.75,1.25,0.0,0.0,2.0,0.0,86.0
Olho D'Água,,Olho D'Água,Olho D'Água,-10.700331,-40.601468,Norte,RPGA do Rio Salitre,0.0,0.0,0.0,3.2,0.0,0.0,0.0,0.0,0.0,0.0,0.0,0.0,0.0,0.0,0.4,3.2,0.8,0.0,0.0,0.0,0.0,0.0,0.0,0.0,23.2,2.4,0.0,0.0,0.8,0.2,0.0,34.2
Correntina,A416,Correntina,Correntina - A416,-13.332386,-44.617376,Oeste,"RPGA do Rio Corrente e Riachos do Ramalho, Serra Dourada e Brejo Velho",0.0,0.0,0.0,0.0,0.0,0.0,0.0,0.0,0.0,0.0,0.0,0.0,0.0,0.0,0.0,0.0,0.0,0.0,0.0,0.0,0.0,0.0,0.0,0.0,0.0,0.0,0.0,0.0,0.0,0.0,0.0,0.0
Barreiras,83236,Barreiras,Barreiras - 83236,-12.155556,-45.007778,Oeste,RPGA do Rio Grande,0.0,0.0,2.8,0.0,0.0,0.0,0.0,0.0,0.0,0.0,0.0,0.0,0.0,0.0,0.0,0.0,0.0,0.0,0.0,0.0,0.0,0.0,0.0,0.0,0.0,0.0,0.0,0.0,0.0,0.0,0.0,2.8
Correntina,83286,Correntina,Correntina - 83286,-13.332222,-44.617222,Oeste,"RPGA do Rio Corrente e Riachos do Ramalho, Serra Dourada e Brejo Velho",0.0,0.0,0.0,0.0,0.0,0.0,0.0,0.0,0.0,0.0,0.0,0.0,0.0,0.0,0.0,0.0,0.0,0.0,0.0,0.0,0.0,0.0,0.0,0.0,0.0,0.0,0.0,0.0,0.0,0.0,0.0,0.0
Form. Rio Preto,46550000,Barreiras,Barreiras (Form. Rio Preto) - 46550000,-11.154444,-45.009166,Oeste,RPGA do Rio Grande,0.0,0.4,3.2,0.0,0.0,0.0,0.0,0.0,0.0,0.0,0.0,0.0,0.0,0.0,0.0,0.0,0.0,0.0,0.0,0.0,0.0,0.0,0.0,0.0,0.0,0.0,0.0,0.0,0.0,0.0,0.0,3.6
Correntina,45590000,Correntina,Correntina - 45590000,-13.3406,-44.6386,Oeste,"RPGA do Rio Corrente e Riachos do Ramalho, Serra Dourada e Brejo Velho",0.0,0.0,0.0,0.0,0.0,0.0,0.0,0.0,0.0,0.0,0.0,0.0,0.0,0.0,0.0,0.0,0.0,0.0,0.0,0.0,0.0,0.0,0.0,0.0,0.0,0.0,0.0,0.0,0.0,0.0,0.0,0.0
PCH Pres. Goulart-J,45600000,Correntina,Correntina (PCH Pres. Goulart-J) - 45600000,-13.3344,-44.6208,Oeste,"RPGA do Rio Corrente e Riachos do Ramalho, Serra Dourada e Brejo Velho",0.0,0.0,0.0,0.0,0.0,0.0,0.0,0.0,0.0,0.0,0.0,0.0,0.0,0.0,0.0,0.0,0.0,0.0,0.0,0.0,0.0,0.0,0.0,0.0,0.0,0.0,0.0,0.0,0.0,0.0,0.0,0.0
PCH Sítio Grande-J,46453500,São Desidério,São Desidério (PCH Sítio Grande-J) - 46453500,-12.4286,-45.1528,Oeste,RPGA do Rio Grande,0.0,0.0,0.0,0.0,0.0,0.0,0.0,0.0,0.0,0.0,0.0,0.0,0.0,0.0,0.0,0.0,0.0,0.0,0.0,0.0,0.0,0.0,0.0,0.0,0.0,0.0,0.0,0.0,0.0,0.0,0.0,0.0
Barreiras,A402,Barreiras,Barreiras - A402,-12.124715,-45.027049,Oeste,RPGA do Rio Grande,0.0,0.0,0.6,0.0,0.0,0.0,0.0,0.0,0.0,0.0,0.0,0.0,0.0,0.0,0.0,0.0,0.0,0.0,0.0,0.0,0.0,0.0,0.0,0.0,0.0,0.0,0.0,0.0,0.0,0.0,0.0,0.6
Luís Eduardo Magalhães,A404,Luís Eduardo Magalhães,Luís Eduardo Magalhães - A404,-12.152394,-45.829745,Oeste,RPGA do Rio Grande,0.0,0.0,0.0,0.0,0.0,0.0,0.0,0.0,0.0,0.0,0.0,0.0,0.0,0.0,0.0,0.0,0.0,0.0,0.0,0.0,0.0,0.0,0.0,0.0,0.0,0.0,0.0,0.0,0.0,0.0,0.0,0.0
São Desidério,R. Velha - GR-CL-01,São Desidério,São Desidério - R. Velha - GR-CL-01,-12.898055,-46.157222,Oeste,RPGA do Rio Grande,0.0,0.0,0.0,0.0,0.0,0.0,0.0,0.0,0.0,0.0,0.0,0.0,0.0,0.0,0.0,0.0,0.0,0.0,0.0,0.0,0.0,0.0,0.0,0.0,0.0,0.0,0.0,0.0,0.0,0.0,0.0,0.0
Cruz das Almas,A406,Cruz das Almas,Cruz das Almas - A406,-12.675422,-39.08958,Recôncavo,RPGA do Rio Paraguaçu,0.2,0.0,18.2,18.8,2.8,0.0,1.6,24.0,0.0,0.2,0.0,0.2,0.2,0.0,11.8,20.8,0.8,0.2,0.2,0.0,11.8,0.2,0.2,2.0,7.8,21.0,0.0,1.2,1.0,0.4,0.2,145.8
Santo Amaro,292860406H,Santo Amaro,Santo Amaro - 292860406H,-12.5293,-38.7339,Recôncavo,RPGA do Recôncavo Norte,0.0,0.0,38.4,16.2,0.2,0.0,0.4,0.8,0.4,0.0,0.0,0.0,0.0,0.0,21.2,3.6,8.6,0.2,0.0,0.0,2.4,0.2,0.0,0.4,29.8,45.6,0.0,0.2,8.2,0.0,0.2,177.0
Feira de Santana,A413,Feira de Santana,Feira de Santana - A413,-12.1962,-38.967384,Recôncavo,RPGA do Recôncavo Norte,0.0,0.0,10.0,12.0,0.0,0.0,3.0,0.6,0.0,0.2,0.0,0.0,0.0,0.0,6.4,1.8,3.0,0.0,0.0,0.0,0.4,0.2,0.0,0.2,6.0,24.0,0.6,0.4,0.4,0.0,0.0,69.21
Alagoinhas,83249,Alagoinhas,Alagoinhas - 83249,-12.148333,-38.425556,Recôncavo,RPGA do Recôncavo Norte,0.0,0.0,1.9,9.1,0.0,0.0,0.0,0.0,0.7,0.0,0.0,0.0,0.0,0.3,1.7,11.6,11.8,0.0,0.2,2.5,2.6,0.0,0.0,25.1,42.3,15.0,4.8,0.8,8.0,0.0,0.0,138.4
Cruz das Almas,83222,Cruz das Almas,Cruz das Almas - 83222,-12.666667,-39.083333,Recôncavo,RPGA do Rio Paraguaçu,0.0,0.0,22.0,21.2,2.6,0.0,1.2,26.7,0.0,0.0,0.0,0.0,0.0,0.0,12.7,20.9,0.6,0.0,0.0,0.0,11.9,0.1,0.0,2.0,9.2,23.8,0.0,1.1,1.0,0.2,0.0,157.2
Feira de Santana,83221,Feira de Santana,Feira de Santana - 83221,-12.196111,-38.967222,Recôncavo,RPGA do Recôncavo Norte,0.0,0.0,6.8,8.0,0.0,0.0,3.2,0.0,0.0,0.0,0.0,0.0,0.0,0.0,7.5,0.0,4.6,0.0,0.0,0.0,0.0,0.0,0.0,0.4,6.8,23.3,0.8,0.0,0.0,0.0,0.0,61.4
Amargosa,A434,Amargosa,Amargosa - A434,-13.009468,-39.616881,Recôncavo,RPGA do Recôncavo Sul,0.0,0.0,0.4,5.8,0.0,0.0,0.0,20.6,0.6,0.0,0.0,0.0,0.0,2.8,0.0,4.4,0.6,0.0,0.2,3.0,1.0,0.4,0.2,0.4,3.8,0.0,0.0,0.0,0.0,0.4,0.0,44.6
Valença,A444,Valença,Valença - A444,-13.34361,-39.12667,Recôncavo,RPGA do Recôncavo Sul,0.0,0.0,21.4,21.0,3.8,0.0,3.4,20.2,4.2,0.4,0.0,3.4,0.0,1.0,1.4,23.8,0.6,0.2,0.0,3.8,2.6,2.2,0.0,1.4,34.8,0.2,0.2,0.0,2.2,0.2,0.2,152.6
Mata de São João,ETA - Embasa,Mata de São João,Mata de São João - ETA - Embasa,-12.394946,-37.934649,Recôncavo,RPGA do Recôncavo Norte,0.0,0.0,4.1,18.4,0.0,0.0,0.2,0.0,0.0,0.0,0.0,0.0,0.0,0.0,2.7,22.3,0.0,0.0,0.0,0.0,15.7,9.9,8.3,39.3,1.3,1.8,32.8,10.4,0.0,0.0,0.0,167.21
Candeias,EMBASA,Candeias,Candeias - EMBASA,-12.663561,-38.533,Recôncavo,RPGA do Recôncavo Norte,0.0,0.0,34.2,21.8,0.0,0.0,0.0,0.0,0.0,0.0,0.0,0.0,0.0,0.0,19.0,10.0,12.6,0.0,0.0,0.0,0.4,0.0,0.0,5.4,11.3,24.3,25.0,44.9,10.7,0.0,0.0,219.6
Dias D´Ávila,EMBASA,Dias D´Ávila,Dias D´Ávila - EMBASA,-12.620505,-38.315217,Recôncavo,RPGA do Recôncavo Norte,0.0,0.0,17.0,24.3,0.0,0.0,5.0,2.3,0.0,0.0,0.0,0.0,0.0,0.0,36.7,10.5,18.1,0.0,0.0,0.0,0.0,6.9,0.0,0.9,16.0,7.1,9.1,15.7,15.2,0.0,0.0,184.8
São Sebastião do Passé-EMBASA,,São Sebastião do Passé-EMBASA,São Sebastião do Passé-EMBASA,-12.517449,-38.492165,Recôncavo,RPGA do Recôncavo Norte,0.0,0.0,17.5,26.5,0.0,0.0,0.0,0.0,0.0,0.0,0.0,0.0,0.0,0.0,1.2,7.8,9.1,0.0,0.0,0.0,0.0,0.0,0.0,7.1,13.3,17.7,0.0,27.2,2.3,1.1,0.0,130.8
Joanes II,322,Simões Filho,Simões Filho (Joanes II) - 322,-12.674147,-38.376254,Recôncavo,RPGA do Recôncavo Norte,0.0,0.0,46.0,46.5,0.0,0.0,6.1,0.0,0.0,0.0,0.0,0.0,0.0,0.0,16.1,7.2,25.0,0.0,0.0,0.0,4.8,0.0,0.0,3.0,12.0,14.1,0.0,8.1,8.0,1.6,0.0,198.5
Santa Helena,323,Camaçari,Camaçari (Santa Helena) - 323,-12.56202,-38.1606,Recôncavo,RPGA do Recôncavo Norte,0.0,0.0,7.2,29.2,0.0,0.0,1.6,1.8,0.0,0.5,0.0,0.0,0.0,0.0,23.9,2.1,4.2,0.0,0.0,0.0,5.9,4.6,5.9,14.4,14.9,58.3,3.7,0.6,0.0,0.0,0.0,178.8
Ondina,83229,Salvador,Salvador (Ondina) - 83229,-13.005278,-38.505833,Recôncavo,RPGA do Recôncavo Norte,0.0,0.0,27.2,46.6,0.0,0.4,7.4,8.2,3.2,1.2,0.0,0.0,0.0,0.2,13.2,38.9,0.0,0.0,0.0,2.7,10.8,0.2,0.5,24.1,21.7,9.3,0.0,7.4,9.7,6.5,2.8,242.21
Feira de Santana,PG-PR-13,Feira de Santana,Feira de Santana - PG-PR-13,-12.268161,-38.96642,Recôncavo,RPGA do Rio Paraguaçu,0.0,0.0,7.5,6.5,0.0,0.0,4.5,0.5,0.0,0.0,0.0,0.0,0.0,0.0,9.25,1.25,2.75,0.0,0.0,0.0,0.75,0.0,0.0,0.0,4.5,12.0,0.25,0.5,1.0,0.0,0.0,51.25
Itatim,PG-PR-14,Itatim,Itatim - PG-PR-14,-12.720391,-39.700059,Recôncavo,RPGA do Rio Paraguaçu,0.0,0.0,0.25,1.75,0.25,0.0,0.0,7.0,0.0,0.0,0.0,0.0,0.0,0.0,0.0,0.75,1.0,0.0,0.0,0.0,0.25,0.0,0.0,0.0,2.5,0.0,0.0,0.0,0.0,0.0,0.0,13.75
São tomé de Paripe,292740806A,Salvador,Salvador (São tomé de Paripe) - 292740806A,-12.795508,-38.489389,Recôncavo,RPGA do Recôncavo Norte,0.0,0.0,37.0,14.6,2.4,0.0,2.9,2.6,0.0,0.0,0.0,0.0,0.0,0.8,31.9,10.7,16.1,0.0,0.0,0.0,3.9,0.0,2.7,7.2,14.5,15.9,1.0,2.0,2.8,0.0,0.0,169.01
Federação,292740803A,Salvador,Salvador (Federação) - 292740803A,-13.000791,-38.511056,Recôncavo,RPGA do Recôncavo Norte,0.0,0.0,28.6,49.4,1.2,0.2,7.9,6.5,0.8,1.0,0.0,0.0,0.0,0.2,8.5,47.5,0.0,0.0,0.0,1.6,14.2,0.0,0.8,19.2,25.6,8.4,0.0,5.7,20.7,5.9,2.6,256.5
Cabula,292740810A,Salvador,Salvador (Cabula) - 292740810A,-12.961347,-38.460778,Recôncavo,RPGA do Recôncavo Norte,0.0,0.0,40.4,56.7,4.7,0.0,5.5,4.9,0.0,1.2,0.0,0.0,0.0,0.0,22.3,12.2,2.4,1.8,0.0,0.0,4.1,0.2,0.0,2.5,11.2,8.5,0.0,7.7,8.1,0.2,1.6,196.2
Nova Esperança,292740818A,Salvador,Salvador (Nova Esperança) - 292740818A,-12.861,-38.368,Recôncavo,RPGA do Recôncavo Norte,0.2,0.0,38.6,20.1,1.2,0.2,0.8,0.0,0.0,0.6,0.0,0.0,0.0,1.8,78.8,9.5,2.6,0.0,0.0,0.0,3.7,0.0,6.3,2.9,7.5,20.1,0.0,11.8,0.8,0.2,17.6,225.3
Caminho das Árvores,292740815A,Salvador,Salvador (Caminho das Árvores) - 292740815A,-12.97718,-38.453834,Recôncavo,RPGA do Recôncavo Norte,0.0,0.0,47.3,52.6,10.4,0.0,3.5,4.9,0.0,0.2,0.0,0.0,0.0,0.0,17.5,9.5,4.7,0.0,0.0,0.0,1.6,0.4,1.0,4.5,12.2,7.9,0.0,9.0,2.6,6.0,0.0,195.8
Águas Claras,292740808A,Salvador,Salvador (Águas Claras) - 292740808A,-12.8944,-38.441889,Recôncavo,RPGA do Recôncavo Norte,0.0,0.0,28.9,39.7,7.9,1.4,3.3,0.4,1.8,0.2,0.0,0.0,0.0,1.4,23.2,19.1,6.7,0.0,0.0,0.6,2.9,0.0,0.0,9.4,10.3,21.5,0.0,13.6,1.8,0.0,2.4,196.51
Alto do Peru,292740812A,Salvador,Salvador (Alto do Peru) - 292740812A,-12.939122,-38.486334,Recôncavo,RPGA do Recôncavo Norte,0.0,0.0,39.6,57.1,1.2,0.8,2.6,3.1,0.4,1.0,0.0,0.0,0.0,0.0,19.3,20.9,4.2,0.0,0.0,0.2,3.1,0.0,0.0,1.6,22.4,10.4,0.2,11.0,12.6,1.4,0.6,213.7
CAB,292740811A,Salvador,Salvador (CAB) - 292740811A,-12.943354,-38.421264,Recôncavo,RPGA do Recôncavo Norte,0.0,0.0,34.9,63.6,0.2,0.4,5.7,0.4,9.0,0.8,0.0,0.0,0.0,0.0,22.1,30.1,4.5,0.2,0.0,0.8,1.0,0.0,1.6,7.9,9.9,14.0,0.0,14.0,2.4,1.4,8.7,233.61
Cosme de Farias,292740816A,Salvador,Salvador (Cosme de Farias) - 292740816A,-12.979402,-38.4855,Recôncavo,RPGA do Recôncavo Norte,0.0,0.0,46.4,56.1,5.7,0.0,15.4,8.1,2.4,0.0,0.0,0.0,0.0,0.0,18.1,37.7,0.2,0.0,0.0,0.0,0.6,0.0,0.8,10.2,29.8,7.5,0.2,22.3,13.2,1.2,4.5,280.4
São Caetano,292740814A,Salvador,Salvador (São Caetano) - 292740814A,-12.939678,-38.474667,Recôncavo,RPGA do Recôncavo Norte,0.0,0.0,38.2,52.3,0.4,2.6,6.7,3.1,0.6,0.4,0.0,0.0,0.0,0.0,20.7,24.4,5.9,0.0,0.0,0.0,2.6,0.0,0.0,0.8,17.9,7.1,0.2,6.1,8.5,0.0,0.4,198.9
Pirajá,292740801A,Salvador,Salvador (Pirajá) - 292740801A,-12.8994,-38.458833,Recôncavo,RPGA do Recôncavo Norte,0.0,0.0,30.2,47.5,3.6,0.0,7.9,1.0,1.6,0.2,0.0,0.0,0.0,4.0,27.8,28.3,5.3,0.0,0.0,0.0,2.2,0.0,0.0,8.6,11.6,17.7,0.2,16.5,7.3,0.0,0.4,221.9
Rio Sena,292740805A,Salvador,Salvador (Rio Sena) - 292740805A,-12.891344,-38.470778,Recôncavo,RPGA do Recôncavo Norte,0.0,0.0,23.0,47.8,3.8,0.0,5.1,0.4,1.4,0.4,0.0,0.0,0.0,2.6,24.2,28.4,14.0,0.0,0.0,0.0,2.4,0.0,0.6,7.5,1.6,23.3,3.8,11.4,12.3,0.2,0.6,214.8
Valéria,292740817A,Salvador,Salvador (Valéria) - 292740817A,-12.8644,-38.438276,Recôncavo,RPGA do Recôncavo Norte,0.0,0.0,46.0,25.4,5.1,0.0,8.1,2.4,0.6,2.2,0.0,0.0,0.2,2.0,41.9,12.0,0.2,0.0,0.0,0.0,6.0,0.6,0.8,12.8,10.6,12.8,0.0,7.1,2.0,0.0,0.6,199.4
Monte Serrat,292740804A,Salvador,Salvador (Monte Serrat) - 292740804A,-12.930789,-38.517167,Recôncavo,RPGA do Recôncavo Norte,0.0,0.0,44.3,59.6,2.2,0.0,2.6,3.4,1.6,0.8,0.0,0.0,0.0,1.0,12.1,38.0,1.4,0.6,0.2,0.0,2.2,0.4,0.0,2.4,1.6,1.8,1.8,0.8,0.8,0.8,0.8,181.21
Centro,290650101A,Candeias,Candeias (Centro) - 290650101A,-12.670229,-38.544112,Recôncavo,RPGA do Recôncavo Norte,0.0,0.0,11.2,10.8,5.6,4.2,3.2,3.0,2.0,0.4,0.0,0.0,0.0,1.0,9.0,4.6,4.0,3.0,2.8,2.2,1.8,1.2,0.0,4.8,2.4,8.2,4.6,4.4,5.2,4.4,4.4,108.41
Malemba,290650102A,Candeias,Candeias (Malemba) - 290650102A,-12.678285,-38.544112,Recôncavo,RPGA do Recôncavo Norte,0.0,0.0,28.8,18.7,1.0,0.0,3.6,0.2,0.0,0.0,0.0,0.0,0.0,3.2,17.1,16.2,6.5,0.0,0.0,0.0,1.2,0.0,0.0,2.6,14.4,34.2,5.5,7.1,13.8,0.0,3.2,177.3
Areia Branca,291920706A,Lauro de Freitas,Lauro de Freitas (Areia Branca) - 291920706A,-12.841,-38.337,Recôncavo,RPGA do Recôncavo Norte,0.4,0.0,41.3,26.4,1.2,0.0,4.9,0.2,1.8,1.6,0.0,0.0,0.0,2.2,106.4,2.4,5.3,0.0,0.2,0.0,1.2,0.2,4.7,2.2,21.3,16.0,0.0,36.7,3.6,0.0,23.0,303.2
Itinga,291920703A,Lauro de Freitas,Lauro de Freitas (Itinga) - 291920703A,-12.892,-38.336,Recôncavo,RPGA do Recôncavo Norte,0.0,0.0,54.9,22.4,4.5,0.0,0.6,0.0,0.0,2.9,0.0,0.0,0.0,6.9,91.5,27.8,0.4,0.0,0.0,0.0,1.0,0.2,13.0,6.7,5.9,15.2,0.0,12.7,1.0,0.0,22.1,289.7
Itinga 02,291920704A,Lauro de Freitas,Lauro de Freitas (Itinga 02) - 291920704A,-12.89,-38.353,Recôncavo,RPGA do Recôncavo Norte,0.0,0.0,26.6,40.3,11.5,0.0,0.0,0.0,0.6,1.4,0.0,0.0,0.0,2.9,6.8,5.8,2.4,1.4,1.2,0.2,0.4,30.7,10.8,7.5,3.2,24.6,0.0,13.4,0.4,0.0,11.2,203.3
Vila Praiana,291920702A,Lauro de Freitas,Lauro de Freitas (Vila Praiana) - 291920702A,-12.901,-38.308,Recôncavo,RPGA do Recôncavo Norte,0.0,0.0,30.9,26.0,2.0,0.0,1.0,0.0,0.0,3.0,0.0,0.0,0.0,6.5,74.6,20.9,3.7,0.0,0.0,0.4,1.0,0.0,16.1,1.8,10.1,7.5,0.0,10.1,6.9,0.0,10.7,233.2
Portão,291920701A,Lauro de Freitas,Lauro de Freitas (Portão) - 291920701A,-12.87,-38.305,Recôncavo,RPGA do Recôncavo Norte,0.0,0.0,30.1,16.8,1.0,0.2,3.6,0.0,0.6,0.8,0.0,0.0,0.0,2.9,102.9,2.2,0.2,0.0,0.0,0.0,2.2,0.0,11.4,1.0,6.7,13.4,0.0,18.1,0.2,0.0,8.3,222.6
Rua 02 de Julho,291920705A,Lauro de Freitas,Lauro de Freitas (Rua 02 de Julho) - 291920705A,-12.839,-38.35,Recôncavo,RPGA do Recôncavo Norte,0.2,0.0,45.7,29.5,1.8,0.0,4.1,0.0,3.2,1.6,0.0,0.0,0.0,1.6,90.1,2.8,5.3,0.0,0.2,0.0,1.6,0.0,5.7,1.6,14.4,13.6,0.0,29.4,1.0,0.0,11.2,264.6
Dois de Julho,291120401A,Gandú,Gandú (Dois de Julho) - 291120401A,-13.741357,-39.48303,Recôncavo,RPGA do Recôncavo Sul,0.0,0.0,4.1,1.6,0.2,1.8,0.8,4.6,0.0,0.2,0.0,0.0,0.0,0.0,0.0,1.4,0.8,0.2,0.0,1.2,7.9,0.2,0.0,0.0,0.0,1.0,0.0,0.0,0.6,2.8,0.2,29.6
Rua São Roque,293290301A,Valença,Valença (Rua São Roque) - 293290301A,-13.363,-39.078,Recôncavo,RPGA do Recôncavo Sul,0.2,0.2,22.3,23.9,8.5,0.2,1.6,17.4,3.9,0.0,0.2,5.1,0.2,4.7,1.6,29.6,0.0,0.0,0.0,4.3,1.8,2.4,0.0,2.9,53.6,1.6,0.2,0.0,0.8,1.8,0.0,189.0
PC Fazenda Jurema,51346050,Rafael Jambeiro,Rafael Jambeiro (PC Fazenda Jurema) - 51346050,-12.4881,-39.6981,Recôncavo,RPGA do Rio Paraguaçu,0.0,0.0,4.7,0.9,1.8,0.5,0.8,15.7,0.0,0.0,0.0,0.0,0.0,0.0,0.0,1.9,1.9,0.3,0.8,2.5,2.8,0.5,0.0,0.0,3.2,0.0,0.0,0.0,0.0,0.0,0.3,38.6
PC Argoim,51351000,Rafael Jambeiro,Rafael Jambeiro (PC Argoim) - 51351000,-12.5867,-39.5217,Recôncavo,RPGA do Rio Paraguaçu,0.0,0.0,2.2,1.9,0.5,0.3,3.3,7.7,0.0,0.0,0.0,0.0,0.0,0.0,0.0,3.2,4.6,0.0,0.0,0.3,1.3,0.0,0.3,0.0,0.9,0.0,0.0,0.0,0.0,0.0,0.3,26.8
Feira de Santana,PC Rio Branco,Feira de Santana,Feira de Santana - PC Rio Branco,-12.2331,-39.0461,Recôncavo,RPGA do Rio Paraguaçu,0.0,0.0,9.5,6.5,0.0,0.0,3.9,0.0,0.0,0.0,0.0,0.0,0.0,0.0,10.3,0.0,2.6,0.3,0.0,0.3,0.3,0.9,0.0,0.0,1.5,1.2,1.4,0.9,0.3,0.3,0.0,40.2
Abaeté,RN-PR-01,Salvador,Salvador (Abaeté) - RN-PR-01,-12.945407,-38.361404,Recôncavo,RPGA do Recôncavo Norte,0.0,0.0,29.0,90.2,0.0,0.0,1.0,0.0,0.0,0.2,0.0,0.8,0.0,0.0,35.0,35.0,7.2,0.2,0.0,0.0,2.8,0.0,18.4,2.0,8.6,5.0,0.0,12.1,15.8,0.0,0.0,263.3
Espinheira,,Espinheira,Espinheira,-14.283478,-41.75792,Sudoeste,RPGA do Rio de Contas,0.0,0.0,0.0,0.0,0.0,0.0,0.0,0.0,0.0,0.0,0.0,0.0,0.0,0.0,0.0,0.0,0.0,0.0,0.0,0.0,0.0,0.0,0.0,0.0,0.0,0.0,0.0,0.0,0.0,0.0,0.0,0.0
Itiruçu,A407,Itiruçu,Itiruçu - A407,-13.52629,-40.12055,Sudoeste,RPGA do Recôncavo Sul,0.0,0.0,3.4,0.0,0.2,0.0,1.0,5.4,0.2,0.2,0.0,0.2,0.2,0.2,1.2,2.8,0.2,0.0,0.2,0.2,2.6,1.0,0.0,0.0,2.8,6.2,1.4,0.0,0.0,0.0,0.2,29.8
Vitória da Conquista,A414,Vitória da Conquista,Vitória da Conquista - A414,-14.886428,-40.80133,Sudoeste,RPGA do Rio Pardo,0.0,0.4,0.4,0.2,0.0,0.0,0.0,0.0,0.0,0.2,0.0,0.0,0.0,0.0,0.0,0.6,0.2,0.0,0.0,0.0,0.2,0.2,0.0,0.0,1.0,1.2,0.2,0.0,0.2,0.0,0.2,5.2
Ituaçu,83292,Ituaçu,Ituaçu - 83292,-13.812778,-41.3,Sudoeste,RPGA do Rio de Contas,0.0,0.0,4.8,0.0,0.0,0.0,0.0,0.0,0.0,0.0,0.0,0.0,0.0,0.0,0.0,0.0,0.0,0.0,0.0,0.0,0.0,0.0,0.0,0.0,0.0,0.0,0.0,0.0,0.0,0.0,0.0,4.8
Vitória da Conquista,83344,Vitória da Conquista,Vitória da Conquista - 83344,-14.883333,-40.8,Sudoeste,RPGA do Rio Pardo,0.0,0.4,0.0,0.0,0.0,0.0,0.0,0.0,0.0,0.0,0.0,0.0,0.0,0.0,0.0,0.5,0.0,0.0,0.0,0.0,0.0,0.0,0.0,0.0,1.5,1.1,0.4,0.0,0.3,0.0,0.0,4.2
Brumado,A433,Brumado,Brumado - A433,-14.181886,-41.672281,Sudoeste,RPGA do Rio de Contas,0.0,0.0,0.2,0.0,0.0,0.0,0.0,0.0,0.0,0.0,0.0,0.0,0.0,0.0,0.0,0.2,0.0,0.0,0.0,0.0,0.0,0.0,0.0,0.0,0.0,0.0,0.0,0.0,0.4,0.0,0.0,0.8
Ipiaú,A445,Ipiaú,Ipiaú - A445,-14.171304,-39.692502,Sudoeste,RPGA do Rio de Contas,0.0,0.4,0.4,0.6,0.4,0.0,0.0,9.0,0.2,0.4,0.0,0.0,0.2,0.0,0.6,2.0,0.6,0.0,0.0,0.4,3.0,2.0,0.0,0.0,0.8,2.4,0.0,0.0,1.2,0.2,0.2,25.0
Itapetinga,A446,Itapetinga,Itapetinga - A446,-15.24462,-40.22955,Sudoeste,RPGA do Rio Pardo,0.0,17.8,0.0,0.0,0.0,0.0,0.0,0.0,0.0,0.0,0.0,0.0,0.0,0.2,0.0,0.2,0.0,0.0,0.0,0.0,0.0,0.0,0.0,0.0,1.6,3.0,0.0,0.0,0.4,0.0,0.0,23.2
Anagé,CO-CL-01,Anagé,Anagé - CO-CL-01,-14.618055,-41.149722,Sudoeste,RPGA do Rio de Contas,0.0,0.0,0.0,0.0,0.0,0.0,0.0,0.0,0.0,0.0,0.0,0.0,0.0,0.0,0.0,0.0,0.0,0.0,0.0,0.0,0.0,0.0,0.0,0.0,0.0,0.0,0.0,0.0,0.0,0.0,0.0,0.0
Planaltino,PG-PR-03,Planaltino,Planaltino - PG-PR-03,-13.259292,-40.373976,Sudoeste,RPGA do Recôncavo Sul,0.0,0.0,0.0,0.0,0.0,0.0,0.0,0.5,0.0,0.0,0.0,0.0,0.0,0.0,0.0,0.25,0.0,0.0,0.0,0.0,0.0,0.0,0.0,0.0,0.0,0.0,0.0,0.0,0.0,20.5,0.0,21.25
Centro,293330701A,Vitória da Conquista,Vitória da Conquista (Centro) - 293330701A,-14.852,-40.839,Sudoeste,RPGA do Rio Pardo,0.0,0.0,0.0,0.0,0.0,0.0,0.0,0.0,0.0,0.0,0.0,0.0,0.0,0.0,0.0,0.0,0.0,0.0,0.0,0.0,0.0,0.0,0.0,0.0,0.2,0.4,0.0,0.0,0.0,0.0,0.0,0.61
Clerolândia,291640101A,Itapetinga,Itapetinga (Clerolândia) - 291640101A,-15.243,-40.221,Sudoeste,RPGA do Rio Pardo,0.0,15.0,0.0,0.0,0.0,0.0,0.0,0.0,0.0,0.0,0.0,0.0,0.0,0.4,0.0,0.0,0.0,0.0,0.0,0.0,0.0,0.0,0.0,0.0,0.8,2.0,0.4,0.0,0.0,0.0,0.0,18.6
Patagônia,293330704A,Vitória da Conquista,Vitória da Conquista (Patagônia) - 293330704A,-14.87,-40.863,Sudoeste,RPGA do Rio Pardo,0.0,0.0,0.0,0.0,0.0,0.0,0.0,0.0,0.0,0.0,0.0,0.0,0.0,0.0,0.8,0.2,0.0,0.0,0.0,0.0,0.0,1.6,0.0,0.0,0.0,0.4,0.0,0.0,0.0,0.0,0.0,3.0
Lomantão,293330703A,Vitória da Conquista,Vitória da Conquista (Lomantão) - 293330703A,-14.87,-40.827,Sudoeste,RPGA do Rio Pardo,0.0,0.0,0.0,0.0,0.0,0.0,0.0,0.0,0.0,0.0,0.0,0.0,0.0,0.0,0.0,0.0,0.0,0.0,0.0,0.0,0.0,0.6,0.0,0.0,0.0,0.4,0.2,0.0,0.0,0.0,0.0,1.2
Jaguaquara,RS-CL-01,Jaguaquara,Jaguaquara - RS-CL-01,-13.573055,-39.940833,Sudoeste,RPGA do Recôncavo Sul,0.0,0.0,0.75,0.5,0.0,0.0,1.25,7.0,0.0,0.0,0.0,0.0,0.0,0.0,0.5,1.25,0.25,0.0,0.0,0.25,0.25,1.75,0.0,0.0,0.0,2.25,0.0,0.5,0.0,0.25,0.0,16.75
Jequié,CO-CL-03,Jequié,Jequié - CO-CL-03,-13.873055,-40.071944,Sudoeste,RPGA do Rio de Contas,0.0,0.0,2.25,0.0,0.0,0.0,0.0,0.5,0.0,0.0,0.0,0.0,0.0,0.0,0.0,0.25,0.0,0.0,0.0,0.0,0.0,1.25,0.0,0.0,0.0,1.5,0.0,0.0,0.0,0.0,0.0,5.75
Tremedal,CO-PR-03,Tremedal,Tremedal - CO-PR-03,-14.980998,-41.410135,Sudoeste,RPGA do Rio de Contas,0.0,0.0,0.0,0.0,0.0,0.0,0.0,0.0,0.0,0.0,0.0,0.0,0.0,0.0,0.0,0.0,0.0,0.0,0.0,0.0,0.0,0.0,0.0,0.0,0.0,0.0,0.0,0.0,0.0,0.0,0.0,0.0
PCH Cach. da Lixa M,55354000,Jucuruçu,Jucuruçu (PCH Cach. da Lixa M) - 55354000,-17.06703,-40.068619,Sul,"RPGA dos Rios Peruípe, Itanhém e Jucuruçu",0.0,23.0,0.0,0.5,0.5,0.0,0.0,0.0,0.5,0.0,0.0,0.0,0.5,2.0,25.5,0.5,0.0,0.0,0.0,50.0,31.0,13.0,0.0,20.5,18.0,16.5,0.5,0.5,0.0,1.5,0.5,205.0
Caravelas,A405,Caravelas,Caravelas - A405,-17.739413,-39.258617,Sul,"RPGA dos Rios Peruípe, Itanhém e Jucuruçu",0.0,0.4,0.0,0.0,0.2,0.0,0.0,0.0,0.0,0.0,0.0,0.2,2.4,11.8,51.8,0.0,0.0,0.0,0.0,5.2,6.2,5.0,0.0,17.8,22.4,2.8,0.2,0.0,5.0,0.2,1.0,132.6
PCH Colino II M,55355600,Vereda,Vereda (PCH Colino II M) - 55355600,-17.07126,-40.15474,Sul,"RPGA dos Rios Peruípe, Itanhém e Jucuruçu",0.0,6.8,0.0,0.0,0.3,0.0,0.0,0.3,0.0,0.0,0.3,0.3,0.0,6.1,10.9,0.6,0.3,0.0,0.0,20.6,7.2,5.5,0.0,3.5,4.9,8.5,0.3,0.3,0.0,0.0,0.3,77.0
Ilhéus,A410,Ilhéus,Ilhéus - A410,-14.658803,-39.181438,Sul,RPGA do Leste,0.2,0.2,3.6,1.2,0.0,0.6,7.0,11.4,0.2,0.2,0.2,0.8,0.0,1.8,2.6,3.2,0.2,0.2,0.0,0.2,8.2,4.2,0.0,0.0,1.0,3.0,0.0,0.0,2.8,0.6,0.2,53.81
Caravelas,83498,Caravelas,Caravelas - 83498,-17.739167,-39.258333,Sul,"RPGA dos Rios Peruípe, Itanhém e Jucuruçu",0.0,0.1,0.0,0.0,0.0,0.0,0.0,0.0,0.0,0.0,0.0,0.0,2.1,10.1,51.1,0.0,0.0,0.0,0.0,4.9,5.9,4.4,0.0,16.4,21.9,2.6,0.0,0.0,4.8,0.0,0.7,125.01
Guaratinga,83446,Guaratinga,Guaratinga - 83446,-16.58,-39.78,Sul,"RPGA dos Rios dos Frades, Buranhém e Santo Antônio",0.0,6.0,0.0,0.0,0.0,0.0,0.0,0.0,0.0,0.0,0.0,0.0,0.0,0.0,0.6,0.0,0.0,0.0,0.0,0.0,0.6,9.6,0.0,0.6,0.4,0.2,0.0,0.0,0.0,0.0,0.0,18.0
Maraú,A438,Maraú,Maraú - A438,-13.90694,-38.97222,Sul,RPGA do Recôncavo Sul,0.0,0.0,19.4,20.6,27.8,2.6,2.2,6.4,5.4,1.6,0.2,0.4,0.2,35.0,29.0,20.2,0.4,0.0,0.0,8.4,21.4,0.4,0.2,0.2,13.4,3.8,0.2,0.0,2.6,5.6,0.0,227.6
Una,A437,Una,Una - A437,-15.280215,-39.09127,Sul,RPGA do Leste,3.0,17.8,4.2,0.0,0.0,0.2,0.2,0.2,0.0,0.2,0.0,0.2,0.0,13.6,3.6,12.4,0.2,0.2,0.2,0.0,0.6,1.4,0.0,0.2,5.6,5.4,0.0,0.2,8.2,0.0,0.2,78.01
Porto Seguro,A427,Porto Seguro,Porto Seguro - A427,-16.388977,-39.182389,Sul,"RPGA dos Rios dos Frades, Buranhém e Santo Antônio",0.0,26.6,0.2,0.0,0.0,0.2,2.6,0.2,0.2,0.0,0.0,0.2,0.0,1.4,3.0,6.8,0.2,0.0,0.0,0.4,15.8,1.2,0.0,16.6,30.0,3.6,0.2,0.2,0.6,0.6,0.2,111.0
CPLAC,LE-CL-01,Ilhéus,Ilhéus (CPLAC) - LE-CL-01,-14.80184,-39.181444,Sul,RPGA do Leste,0.0,0.0,0.0,0.0,0.25,0.0,2.0,0.0,0.0,0.0,0.0,0.0,0.0,0.0,0.0,0.0,0.0,0.0,0.0,0.0,0.0,0.0,0.0,0.0,0.0,0.0,0.0,0.0,0.0,0.0,0.0,2.25
Teixeira de Freitas,PJ-CL-01,Teixeira de Freitas,Teixeira de Freitas - PJ-CL-01,-17.575555,-39.732777,Sul,"RPGA dos Rios Peruípe, Itanhém e Jucuruçu",0.0,0.0,0.0,0.0,0.0,7.5,0.0,0.0,0.0,0.0,0.0,0.0,1.2,4.3,0.0,0.0,0.0,0.0,17.5,6.6,1.6,0.0,2.75,2.75,4.5,0.0,0.0,0.7,0.0,0.0,0.0,49.41
Itabuna,Fazenda Barra,Itabuna,Itabuna - Fazenda Barra,-14.8997,-39.3686,Sul,RPGA do Leste,0.0,7.6,0.8,0.0,0.0,0.0,14.8,0.2,0.0,0.2,0.0,0.0,0.0,0.0,0.4,2.8,0.2,0.0,0.0,0.0,2.6,3.4,0.0,0.0,0.0,1.4,0.0,0.0,3.6,0.0,0.0,38.0
Centro,290340901A,Belmonte,Belmonte (Centro) - 290340901A,-15.859179,-38.878025,Sul,RPGA do Rio Jequitinhonha,0.0,131.7,16.2,0.0,0.0,0.0,0.0,0.0,0.0,0.0,0.0,0.0,0.0,18.3,66.0,1.6,0.0,0.0,0.0,0.0,0.2,0.0,0.0,0.0,29.0,5.9,0.2,0.0,0.2,0.0,0.0,269.3
Malhado,291360602A,Ilhéus,Ilhéus (Malhado) - 291360602A,-14.789158,-39.048858,Sul,RPGA do Leste,2.2,0.0,7.3,0.2,0.0,8.5,18.2,6.9,0.2,0.0,0.0,0.2,0.0,6.5,3.0,7.9,0.0,0.0,0.0,0.0,6.9,2.0,0.0,0.0,0.4,4.2,0.0,0.0,3.6,0.8,0.0,79.0
São Caetano,291480202A,Itabuna,Itabuna (São Caetano) - 291480202A,-14.80638,-39.27803,Sul,RPGA do Leste,0.0,8.3,1.8,0.0,0.0,0.0,6.6,6.3,0.0,0.0,0.0,0.0,0.0,0.0,0.0,2.0,1.2,0.0,0.0,0.0,1.0,13.3,0.0,0.0,0.8,0.6,0.2,0.0,2.2,0.0,6.1,50.41
Nova Ferradas,291480203A,Itabuna,Itabuna (Nova Ferradas) - 291480203A,-14.857213,-39.346922,Sul,RPGA do Leste,0.2,3.0,1.8,0.0,0.0,0.0,12.3,1.2,0.0,0.0,0.0,0.0,0.0,1.4,1.0,1.6,0.6,0.0,0.0,0.2,6.0,1.6,0.0,0.0,2.2,0.8,0.0,0.0,3.0,0.2,0.2,37.31
Centro,292300102A,Nova Viçosa,Nova Viçosa (Centro) - 292300102A,-17.893,-39.372,Sul,"RPGA dos Rios Peruípe, Itanhém e Jucuruçu",0.0,0.0,0.0,0.0,0.0,0.0,0.0,0.0,0.0,0.0,0.0,0.0,4.5,9.5,14.8,0.2,0.0,0.0,0.0,36.2,5.9,0.2,0.0,7.1,21.1,7.1,0.0,0.0,0.2,0.0,0.0,106.8
Posto da Mata,292300103A,Nova Viçosa,Nova Viçosa (Posto da Mata) - 292300103A,-17.896,-39.37,Sul,"RPGA dos Rios Peruípe, Itanhém e Jucuruçu",0.0,0.0,0.0,0.0,0.0,0.0,0.0,0.0,0.0,0.0,0.0,0.0,3.6,6.7,17.2,0.0,0.0,0.0,0.0,36.2,11.0,0.0,0.0,5.3,22.9,5.7,0.0,0.0,0.0,0.0,0.0,108.61
Areião,292530301A,Porto Seguro,Porto Seguro (Areião) - 292530301A,-16.441,-39.076,Sul,"RPGA dos Rios dos Frades, Buranhém e Santo Antônio",0.0,17.1,0.0,0.0,0.0,0.0,6.9,0.2,0.0,0.0,0.0,0.0,1.0,0.0,16.2,8.5,0.0,0.0,0.0,0.0,15.2,1.4,0.2,15.5,30.2,2.6,0.0,0.0,2.4,0.0,0.0,117.4
Trancoso,292530303A,Porto Seguro,Porto Seguro (Trancoso) - 292530303A,-16.595,-39.109,Sul,"RPGA dos Rios dos Frades, Buranhém e Santo Antônio",0.0,40.9,0.2,0.0,0.0,0.0,0.0,0.0,0.0,0.0,0.0,0.0,0.0,0.0,10.3,25.8,0.2,0.0,0.0,0.0,3.9,2.8,0.2,21.8,49.6,12.6,0.0,0.0,1.4,0.0,0.0,169.71
BR367km4,292770501A,Santa Cruz Cabrália,Santa Cruz Cabrália (BR367km4) - 292770501A,-16.321,-39.023,Sul,"RPGA dos Rios dos Frades, Buranhém e Santo Antônio",0.0,0.0,0.0,0.0,0.0,1.4,0.0,0.0,0.0,0.0,0.0,0.0,0.0,0.0,9.9,11.2,0.0,0.0,0.0,0.0,18.9,0.0,0.0,8.0,27.2,16.3,0.2,0.0,5.3,0.0,0.0,98.4
Estádio Municipal,291530401A,Itagimirim,Itagimirim (Estádio Municipal) - 291530401A,-16.089181,-39.615546,Sul,RPGA do Rio Jequitinhonha,0.0,39.7,0.0,0.0,0.0,0.0,0.0,0.0,0.0,0.0,0.0,0.0,0.0,0.0,0.0,0.8,0.0,0.0,0.0,0.2,0.2,0.0,0.0,0.0,12.2,1.4,0.2,0.0,1.0,0.0,0.0,55.71
Jusante,54945000,Itapebi,Itapebi (Jusante) - 54945000,-15.949206,-39.5225,Sul,RPGA do Rio Jequitinhonha,0.0,0.3,0.0,0.0,0.0,0.0,0.0,0.0,0.0,0.0,0.0,0.0,0.0,0.0,0.0,2.0,0.0,0.0,0.0,0.8,0.0,0.0,0.0,0.0,3.9,2.4,0.0,0.0,3.9,0.0,0.0,13.3
Santa Rita de Cássia,A415,Santa Rita de Cássia,Santa Rita de Cássia - A415,-11.002768,-44.524965,São Francisco,RPGA do Rio Grande,0.0,0.0,0.0,0.0,0.0,0.0,0.0,0.0,0.0,0.0,0.0,0.0,0.0,0.0,0.0,0.0,0.0,0.0,0.0,0.0,0.0,0.0,0.0,0.0,0.0,0.0,0.0,0.0,0.0,0.0,0.0,0.0
Bom Jesus da Lapa,A418,Bom Jesus da Lapa,Bom Jesus da Lapa - A418,-13.251094,-43.405365,São Francisco,RPGA do Rio Carnaíba de Dentro,0.0,0.0,0.0,0.0,0.0,0.0,0.0,0.0,0.0,0.0,0.0,0.0,0.0,0.0,0.0,0.0,0.0,0.0,0.0,0.0,0.0,0.0,0.0,0.0,0.0,0.0,0.0,0.0,0.0,0.0,0.0,0.0
Barra,83179,Barra,Barra - 83179,-11.083333,-43.166667,São Francisco,RPGA do Rio Grande,2.7,2.1,1.6,0.0,0.0,0.0,0.0,0.0,0.0,0.0,0.0,0.0,0.0,0.0,0.0,0.0,0.0,0.0,0.0,0.0,0.0,0.0,0.0,0.0,0.0,0.0,0.0,0.0,0.0,0.0,0.0,6.4
Bom Jesus da Lapa,83288,Bom Jesus da Lapa,Bom Jesus da Lapa - 83288,-13.251389,-43.405278,São Francisco,RPGA do Rio Carnaíba de Dentro,0.0,0.0,0.0,0.0,0.0,0.0,0.0,0.0,0.0,0.0,0.0,0.0,0.0,0.0,0.0,0.0,0.0,0.0,0.0,0.0,0.0,0.0,0.0,0.0,0.0,0.0,0.0,0.0,0.0,0.0,0.0,0.0
Caetité,83339,Caetité,Caetité - 83339,-14.066667,-42.483333,São Francisco,RPGA do Rio de Contas,0.0,0.0,0.0,0.0,0.0,0.0,0.0,0.0,0.0,0.0,0.0,0.0,0.0,0.0,0.0,0.0,0.0,0.0,0.0,0.0,0.0,0.0,0.0,0.0,0.2,0.0,0.0,0.0,0.0,0.0,0.0,0.2
Carinhanha,83408,Carinhanha,Carinhanha - 83408,-14.283333,-43.766667,São Francisco,"RPGA do Rio Corrente e Riachos do Ramalho, Serra Dourada e Brejo Velho",0.0,0.0,0.0,0.0,0.0,0.0,0.0,0.0,0.0,0.0,0.0,0.0,0.0,0.0,0.0,0.0,0.0,0.0,0.0,0.0,0.0,0.0,0.0,0.0,0.0,0.0,0.0,0.0,0.0,0.0,0.0,0.0
Santa Rita de Cássia,83076,Santa Rita de Cássia,Santa Rita de Cássia - 83076,-11.016667,-44.516667,São Francisco,RPGA do Rio Grande,0.0,0.0,0.0,0.0,0.0,0.0,0.0,0.0,0.0,0.0,0.0,0.0,0.0,0.0,0.0,0.0,0.0,0.0,0.0,0.0,0.0,0.0,0.0,0.0,0.0,0.0,0.0,0.0,0.0,0.0,0.0,0.0
Buritirama,A432,Buritirama,Buritirama - A432,-10.722925,-43.651203,São Francisco,RPGA do Rio Grande,6.4,1.0,0.2,0.0,0.0,0.0,0.0,0.0,0.0,0.0,0.0,0.0,0.0,0.0,0.0,0.0,0.0,0.0,0.0,0.0,0.0,0.0,0.0,0.0,0.0,0.0,0.0,0.0,0.0,0.0,0.0,7.61
Barra,A429,Barra,Barra - A429,-11.084858,-43.138998,São Francisco,RPGA do Rio Grande,3.6,2.6,2.2,0.2,0.0,0.0,0.0,0.0,0.0,0.0,0.0,0.0,0.0,0.0,0.0,0.0,0.0,0.0,0.0,0.0,0.0,0.2,0.0,0.0,0.0,0.0,0.0,0.0,0.0,0.0,0.0,8.8
Ibotirama,A439,Ibotirama,Ibotirama - A439,-12.19306,-43.21342,São Francisco,RPGA dos Rios Paramirim e Santo Onofre,0.0,0.0,0.0,0.0,0.0,0.0,0.0,0.0,0.0,0.0,0.0,0.0,0.0,0.0,0.0,0.0,0.0,0.0,0.0,0.0,0.0,0.0,0.0,0.0,0.0,0.0,0.0,0.0,0.0,0.0,0.0,0.0
Faz. Macambira,46675000,Cotegipe,Cotegipe (Faz. Macambira) - 46675000,-11.6106,-44.1567,São Francisco,RPGA do Rio Grande,0.0,0.0,0.0,0.0,0.0,0.0,0.0,0.0,0.0,0.0,0.0,0.0,0.0,0.0,0.0,0.0,0.0,0.0,0.0,0.0,0.0,0.0,0.0,0.0,0.0,0.0,0.0,0.0,0.0,0.0,0.0,0.0
